[
    {
        "id": "cnsho4QIKjDPSJ-jiY2Si",
        "name": "313 Franklin",
        "address": {
            "street": "313 Franklin Street, South Hill, VA 23970",
            "lat": "36.726272",
            "lon": "-78.1245498"
        },
        "locations": "Restaurant/Retail",
        "wines": [
            "Shenandoah Valley Cabernet Franc",
            "Chardonnay",
            "Foothills",
            "Petit Manseng"
        ]
    },
    {
        "id": "x5ctn1R4h_sQaDYyywC94",
        "name": "Alewife",
        "address": {
            "street": "3120 E Marshall St., Richmond, VA 23223",
            "lat": "37.5288799",
            "lon": "-77.4116006"
        },
        "locations": "Restaurant",
        "wines": [
            "Young Wine Chambourcin",
            "Pétillant Naturel Red",
            "Pétillant Naturel White"
        ]
    },
    {
        "id": "qq0X-UdzBTsf1I4Vk21zM",
        "name": "Alley Light",
        "address": {
            "street": "108 2nd St. SW, Charlottesville, VA 22902",
            "lat": "38.0305995",
            "lon": "-78.482276"
        },
        "locations": "Restaurant",
        "wines": [
            "Shenandoah Valley Cabernet Franc",
            "RISE"
        ]
    },
    {
        "id": "r8oYnnJqOFv8KH_9cATzg",
        "name": "Amber Ox Kitchen & Brewery",
        "address": {
            "street": "521 Prince George St., Williamsburg, VA 23185",
            "lat": "37.272864",
            "lon": "-76.708414"
        },
        "locations": "Restaurant",
        "wines": [
            "Chardonnay",
            "Foothills",
            "Five Forks"
        ]
    },
    {
        "id": "x6agJr3mruc9IRthe2ALn",
        "name": "Ashby Inn",
        "address": {
            "street": "692 Federal St, Paris, VA 20130",
            "lat": "39.0045423",
            "lon": "-77.951727"
        },
        "locations": "Restaurant",
        "wines": [
            "Eluvium",
            "Petit Manseng"
        ]
    },
    {
        "id": "7zVb3CqYmJ1WXwQlYstbv",
        "name": "Astor Wines & Spirits",
        "address": {
            "street": "399 Lafayette St, Manhattan, NY 10003",
            "lat": "40.7279823",
            "lon": "-73.9926938"
        },
        "locations": "Retail",
        "wines": [
            "Eluvium",
            "Petit Manseng",
            "Shenandoah Valley Cabernet Franc"
        ]
    },
    {
        "id": "a8VLqguq1NApKm-eyavRm",
        "name": "Barrel Thief",
        "address": {
            "street": "5805 Patterson Ave, Richmond, VA 23226",
            "lat": "37.2235279",
            "lon": "-79.982868"
        },
        "locations": "Restaurant/Retail",
        "wines": [
            "Foothills",
            "Rosé",
            "Pétillant Naturel White",
            "Petit Manseng"
        ]
    },
    {
        "id": "0qRK_pQokZsPFIxyuYx2d",
        "name": "A Rake's Progress",
        "address": {
            "street": "1773 Euclid St NW, Washington, DC 20009",
            "lat": "38.9230686",
            "lon": "-77.0414415"
        },
        "locations": "Restaurant",
        "wines": [
            "Shenandoah Valley Cabernet Franc"
        ]
    },
    {
        "id": "0cb_Moptq3WidyZ1_MZLg",
        "name": "Beer Run",
        "address": {
            "street": "156 Carlton Rd Ste 203, Charlottesville, VA 22902",
            "lat": "38.0246361",
            "lon": "-78.468401"
        },
        "locations": "Restaurant/Retail",
        "wines": [
            "Shenandoah Valley Cabernet Franc",
            "Young Wine"
        ]
    },
    {
        "id": "2iWEbFQlBZkMdbCG_YgVW",
        "name": "Bon Ton",
        "address": {
            "street": "674 Myrtle Street NE , ATLANTA, GA 30308",
            "lat": "33.7729895",
            "lon": "-84.3804087"
        },
        "locations": "Restaurant",
        "wines": [
            "Rosé"
        ]
    },
    {
        "id": "yuLAK_ukcTbhSKMy9mHZi",
        "name": "C&O Restaurant",
        "address": {
            "street": "515 E Water St, Charlottesville, VA 22902",
            "lat": "38.0290618",
            "lon": "-78.4782802"
        },
        "locations": "Restaurant",
        "wines": [
            "Foothills"
        ]
    },
    {
        "id": "0gtNOe92mWsa4cpBAi3Iy",
        "name": "Brooklyn Wine Exchange",
        "address": {
            "street": "138 Court Street, Brooklyn, NY 11201",
            "lat": "40.6893227",
            "lon": "-73.992801"
        },
        "locations": "Retail",
        "wines": [
            "Five Forks"
        ]
    },
    {
        "id": "jiDdsw9NpuPV8-waxgQPi",
        "name": "Clay Restaurant",
        "address": {
            "street": "553 Manhattan Ave , Manhattan, NY 10027",
            "lat": "40.809486",
            "lon": "-73.9538229"
        },
        "locations": "Restaurant",
        "wines": [
            "Chardonnay",
            "Shenandoah Valley Cabernet Franc"
        ]
    },
    {
        "id": "DI0auSCtVZ5Hf4x8bEFU2",
        "name": "Cavalier Hotel",
        "address": {
            "street": "4200 Atlantic Avenue, Virginia Beach, VA 23451",
            "lat": "36.8692128",
            "lon": "-75.9837519"
        },
        "locations": "Restaurant",
        "wines": [
            "Foothills"
        ]
    },
    {
        "id": "SvwYdG_Lep-hLZ7cJST7K",
        "name": "Clementine Cafe",
        "address": {
            "street": "153 S Main St, Harrisonburg, VA 22801",
            "lat": "38.4478062",
            "lon": "-78.8692932"
        },
        "locations": "Restaurant",
        "wines": [
            "Chardonnay",
            "Eluvium"
        ]
    },
    {
        "id": "m0RkIk0qviASxxIdHppc1",
        "name": "Department of Beer & Wine",
        "address": {
            "street": "2724 Richmond Hwy, Alexandria, VA 22301",
            "lat": "38.830645",
            "lon": "-77.051175"
        },
        "locations": "Retail",
        "wines": [
            "Foothills",
            "Rosé",
            "Five Forks",
            "Petit Manseng"
        ]
    },
    {
        "id": "ERyhFUv-HY1RajtfNIMhe",
        "name": "Dominion Wine and Beer",
        "address": {
            "street": "107 Rowell Ct., Falls Church, VA 22046",
            "lat": "38.8897048",
            "lon": "-77.183834"
        },
        "locations": "Restaurant/Retail",
        "wines": [
            "Chardonnay",
            "Petit Manseng",
            "Rosé",
            "Foothills",
            "Five Forks"
        ]
    },
    {
        "id": "Jz34reP405blFBhTxC7Xu",
        "name": "Downtown Grille",
        "address": {
            "street": "201 West Main Street, Charlottesville, VA 22902",
            "lat": "38.0312386",
            "lon": "-78.4823426"
        },
        "locations": "Restaurant",
        "wines": [
            "Chardonnay",
            "Eluvium",
            "RISE"
        ]
    },
    {
        "id": "Dvtcqbmny4PPM5c18xJXK",
        "name": "Dutch & Co.",
        "address": {
            "street": "400 N. 27th St., Richmond, VA 23223",
            "lat": "37.5316135",
            "lon": "-77.4162141"
        },
        "locations": "Restaurant",
        "wines": [
            "Chardonnay",
            "Quaker Run Chardonnay",
            "Foothills"
        ]
    },
    {
        "id": "M3pZNXMceWw0w9K4ZpSKF",
        "name": "Dabney",
        "address": {
            "street": "122 Blagden Alley NW, Washington, DC 20009",
            "lat": "38.9062837",
            "lon": "-77.0246047"
        },
        "locations": "Restaurant",
        "wines": [
            "Eluvium"
        ]
    },
    {
        "id": "oiLeDI66_0yp0v9Zhc889",
        "name": "Enologo",
        "address": {
            "street": "857 9th Ave, Manhattan, NY 10019",
            "lat": "40.7671347",
            "lon": "-73.986653"
        },
        "locations": "Restaurant",
        "wines": [
            "Foothills"
        ]
    },
    {
        "id": "2wjAKzOnwcDqT3Ie3ibOa",
        "name": "Fat Canary",
        "address": {
            "street": "The Cheese Shop of VA, Inc., Williamsburg, VA 23185",
            "lat": "37.2706994",
            "lon": "-76.7061859"
        },
        "locations": "Restaurant",
        "wines": [
            "Eluvium",
            "Foothills",
            "Shenandoah Valley Cabernet Franc",
            "Rosé",
            "Five Forks",
            "Pétillant Naturel White"
        ]
    },
    {
        "id": "xTC2DLcvVcOeXGVgb2RVl",
        "name": "Essex Pearl",
        "address": {
            "street": "115 Delancey Street, Manhattan, NY 10002",
            "lat": "40.7182566",
            "lon": "-73.9881462"
        },
        "locations": "Restaurant",
        "wines": [
            "Five Forks",
            "Petit Manseng"
        ]
    },
    {
        "id": "LAVe6jLLGjUc7TvE_8T7r",
        "name": "Feast",
        "address": {
            "street": "416 W Main St Suite H, Charlottesville, VA 22902",
            "lat": "38.0304142",
            "lon": "-78.4872613"
        },
        "locations": "Retail",
        "wines": [
            "Foothills",
            "Rosé"
        ]
    },
    {
        "id": "kyeTbYLjGhs3w5H4H2UwR",
        "name": "Foods of All Nations",
        "address": {
            "street": "2121 Ivy Rd, Charlottesville, VA 22903",
            "lat": "38.0432978",
            "lon": "-78.5119067"
        },
        "locations": "Retail",
        "wines": [
            "Eluvium",
            "Foothills",
            "Petit Manseng",
            "Shenandoah Valley Cabernet Franc",
            "Chardonnay",
            "Rosé",
            "Pétillant Naturel White",
            "Young Wine",
            "RISE"
        ]
    },
    {
        "id": "VJPvQvLB08OGlKjxXgeGD",
        "name": "Field & Main",
        "address": {
            "street": "8369 W. Main St., Marshall, VA 20115",
            "lat": "38.8647631",
            "lon": "-77.8574303"
        },
        "locations": "Restaurant/Retail",
        "wines": [
            "Rosé",
            "Shenandoah Valley Cabernet Franc"
        ]
    },
    {
        "id": "-JLENmXuOpeUOu9V_LZOh",
        "name": "Friendly City Food Co-op",
        "address": {
            "street": "150 E Wolfe St, Harrisonburg, VA 22802",
            "lat": "38.4516609",
            "lon": "-78.8665291"
        },
        "locations": "Retail",
        "wines": [
            "Foothills",
            "Rosé",
            "Pétillant Naturel White",
            "Petit Manseng",
            "Young Wine",
            "RISE"
        ]
    },
    {
        "id": "1JeRy85f-rxMaa8iVGxuH",
        "name": "Glen's Garden Market",
        "address": {
            "street": "2001 S St. NW, Washington, DC 20009",
            "lat": "38.9143274",
            "lon": "-77.0451575"
        },
        "locations": "Restaurant/Retail",
        "wines": [
            "Foothills",
            "Shenandoah Valley Cabernet Franc",
            "Rosé",
            "Pétillant Naturel White"
        ]
    },
    {
        "id": "KwZmlmf7fEkcwC34fGo1E",
        "name": "Greenwood",
        "address": {
            "street": "6701 Rockfish Gap TPK, Crozet, VA 22932",
            "lat": "38.0413202",
            "lon": "-78.732343"
        },
        "locations": "Retail",
        "wines": [
            "Chardonnay",
            "Foothills",
            "Quaker Run Chardonnay",
            "Rosé",
            "Pétillant Naturel White",
            "Five Forks",
            "Young Wine",
            "RISE"
        ]
    },
    {
        "id": "g07J-evGk0Ab72P-dGZsp",
        "name": "Fortunato",
        "address": {
            "street": "301 1st Street SW #300, Roanoke, VA 24011",
            "lat": "37.2710853",
            "lon": "-79.9427864"
        },
        "locations": "Restaurant",
        "wines": [
            "Foothills"
        ]
    },
    {
        "id": "NBNrNPW2oCmtrPnx6aAHx",
        "name": "Heirloom Cafe",
        "address": {
            "street": "815 N CHASE ST, ATHENS, GA 30601",
            "lat": "33.9663133",
            "lon": "-83.3931064"
        },
        "locations": "Restaurant",
        "wines": [
            "Petit Manseng",
            "Rosé"
        ]
    },
    {
        "id": "cp4Nrkkhvywee80Mpg1jq",
        "name": "Hill of Content",
        "address": {
            "street": "833 Tinsley Dr,, Charlottesville, VA 22732",
            "lat": "38.3228389",
            "lon": "-78.1944651"
        },
        "locations": "Restaurant",
        "wines": [
            "Chardonnay",
            "Shenandoah Valley Cabernet Franc"
        ]
    },
    {
        "id": "_p21nTepy_wo23owe_KB9",
        "name": "Hazel Jane's",
        "address": {
            "street": "670 DEKALB AVE, ATLANTA, GA 30307",
            "lat": "33.7535491",
            "lon": "-84.3655673"
        },
        "locations": "Restaurant/Retail",
        "wines": [
            "Rosé",
            "Petit Manseng",
            "Five Forks"
        ]
    },
    {
        "id": "hzvsEu7FfnmXG3N7qqvIK",
        "name": "J Emerson",
        "address": {
            "street": "5716 Grove Ave, Richmond, VA 23226",
            "lat": "37.5733362",
            "lon": "-77.5180274"
        },
        "locations": "Retail",
        "wines": [
            "Chardonnay",
            "Foothills",
            "Rosé",
            "Pétillant Naturel White"
        ]
    },
    {
        "id": "_Re_-FGAZ_9LEDUMkJ6QV",
        "name": "Jefferson Hotel",
        "address": {
            "street": "101 W Franklin St, Richmond, VA 23220",
            "lat": "37.5442364",
            "lon": "-77.4454155"
        },
        "locations": "Restaurant",
        "wines": [
            "Eluvium",
            "Foothills"
        ]
    },
    {
        "id": "nHtd6JB7nnsnAMDaCipcT",
        "name": "Ivy Inn",
        "address": {
            "street": "2244 Old Ivy Rd., Charlottesville, VA 22903",
            "lat": "38.045948",
            "lon": "-78.516234"
        },
        "locations": "Restaurant",
        "wines": [
            "Petit Manseng",
            "RISE"
        ]
    },
    {
        "id": "sgpYW-tTJfZYLzK_7w42a",
        "name": "La Fromagerie",
        "address": {
            "street": "1222 King St, Alexandria, VA 22314",
            "lat": "38.805648",
            "lon": "-77.053429"
        },
        "locations": "Restaurant/Retail",
        "wines": [
            "Petit Manseng",
            "Shenandoah Valley Cabernet Franc",
            "Eluvium",
            "Pétillant Naturel White",
            "Rosé",
            "Young Wine"
        ]
    },
    {
        "id": "mXhWhECh710k-yJdBUHUt",
        "name": "Little Red Fox",
        "address": {
            "street": "5035 Connecticut Ave. NW, Washington, DC 20008",
            "lat": "38.9558822",
            "lon": "-77.0699601"
        },
        "locations": "Restaurant/Retail",
        "wines": [
            "Rosé",
            "Pétillant Naturel White"
        ]
    },
    {
        "id": "ad02JQUE2ysa3ys7n3RA7",
        "name": "Market Street Wine Shop",
        "address": {
            "street": "311 East Market St, Charlottesville, VA 22902",
            "lat": "38.0310663",
            "lon": "-78.4789692"
        },
        "locations": "Retail",
        "wines": [
            "Chardonnay",
            "Foothills",
            "Eluvium",
            "Rosé",
            "Shenandoah Valley Cabernet Franc",
            "Pétillant Naturel White",
            "Petit Manseng",
            "Young Wine Chambourcin",
            "Five Forks"
        ]
    },
    {
        "id": "mYSOYd4cECUE_z_b_H8Qc",
        "name": "Momofuku DC",
        "address": {
            "street": "1090 I St. NW, Washington, DC 20001",
            "lat": "38.9007039",
            "lon": "-77.0268751"
        },
        "locations": "Restaurant",
        "wines": [
            "Eluvium",
            "Rosé",
            "Young Wine Chambourcin"
        ]
    },
    {
        "id": "FC8XVeyegFSRtXdw4Le1p",
        "name": "Mona Lisa",
        "address": {
            "street": "921 Preston Ave, Charlottesville, VA 22903",
            "lat": "38.038434",
            "lon": "-78.489901"
        },
        "locations": "Retail",
        "wines": [
            "Foothills",
            "Shenandoah Valley Cabernet Franc",
            "Eluvium",
            "Petit Manseng",
            "Rosé",
            "Five Forks",
            "Young Wine"
        ]
    },
    {
        "id": "5axDQsyFefvvQA83d_UFk",
        "name": "Local, The",
        "address": {
            "street": "824 Hinton Ave, Charlottesville, VA 22901",
            "lat": "38.0244641",
            "lon": "-78.4755275"
        },
        "locations": "Restaurant",
        "wines": [
            "Shenandoah Valley Cabernet Franc"
        ]
    },
    {
        "id": "4OnvDJhTbD0_ouj-GpyMf",
        "name": "Now & Zen",
        "address": {
            "street": "Pinnacle Planning Inc, Charlottesville, VA 22902",
            "lat": "37.99295",
            "lon": "-78.502142"
        },
        "locations": "Restaurant",
        "wines": [
            "Rosé"
        ]
    },
    {
        "id": "vsPfYEjrXXPgfka1lwKWa",
        "name": "Organic Butcher of McLean",
        "address": {
            "street": "6712 Old Dominion Drive, McLean, VA 22101",
            "lat": "38.9335412",
            "lon": "-77.1758584"
        },
        "locations": "Retail",
        "wines": [
            "Eluvium",
            "Foothills",
            "Shenandoah Valley Cabernet Franc",
            "Rosé",
            "Young Wine",
            "RISE"
        ]
    },
    {
        "id": "nvRMY41F3NnOYKed_Gq11",
        "name": "Outpost",
        "address": {
            "street": "4813 Forest Hill Ave., Richmond, VA 23225",
            "lat": "37.5211852",
            "lon": "-77.4878087"
        },
        "locations": "Retail",
        "wines": [
            "Young Wine Chambourcin",
            "Foothills",
            "Rosé",
            "Shenandoah Valley Cabernet Franc",
            "Young Wine",
            "RISE"
        ]
    },
    {
        "id": "bIuRXSG4MS9MPBOnoeHud",
        "name": "Please Bring Chips",
        "address": {
            "street": "951 V St. NE, Washington, DC 20018",
            "lat": "38.9171218",
            "lon": "-76.9916225"
        },
        "locations": "Restaurant",
        "wines": [
            "Shenandoah Valley Cabernet Franc"
        ]
    },
    {
        "id": "SnfdfsA0cFQ33fPc40JWj",
        "name": "Prime 109",
        "address": {
            "street": "300 East Main St., Charlottesville, VA 22902",
            "lat": "36.8605378",
            "lon": "-76.2996588"
        },
        "locations": "Restaurant",
        "wines": [
            "Petit Manseng",
            "Shenandoah Valley Cabernet Franc"
        ]
    },
    {
        "id": "6nHa7LHYiyV3SlRrG-hcS",
        "name": "Red Hen-DC",
        "address": {
            "street": "1822 1st St. NW, Washington, DC 20001",
            "lat": "38.9149738",
            "lon": "-77.0124095"
        },
        "locations": "Restaurant",
        "wines": [
            "Eluvium",
            "Five Forks",
            "Rosé"
        ]
    },
    {
        "id": "JBwdYxGSaVdrCtcWItFmb",
        "name": "Rio Hill Wine & Beer",
        "address": {
            "street": "1908 Rio Hill Center, Charlottesville, VA 22901",
            "lat": "38.0877905",
            "lon": "-78.4749043"
        },
        "locations": "Retail",
        "wines": [
            "Foothills",
            "Petit Manseng",
            "Chardonnay",
            "Eluvium",
            "Rosé"
        ]
    },
    {
        "id": "ixZ86znfueHDKhCTAdWK7",
        "name": "Prosperity Kitchen & Pantry",
        "address": {
            "street": "532 Virginia Beach Blvd Ste B, Virginia Beach, VA 23451",
            "lat": "36.8444829",
            "lon": "-75.9806406"
        },
        "locations": "Restaurant",
        "wines": [
            "Foothills",
            "RISE"
        ]
    },
    {
        "id": "na4mH2Q_1bqe6qHnfj2gQ",
        "name": "Roosevelt",
        "address": {
            "street": "623 N. 25th St., Richmond, VA 23223",
            "lat": "37.534897",
            "lon": "-77.4154189"
        },
        "locations": "Restaurant",
        "wines": [
            "Foothills",
            "Five Forks"
        ]
    },
    {
        "id": "C8SGjcdeJqYv4gLh8NbtN",
        "name": "Savannah Wine Cellar",
        "address": {
            "street": "5502 Abercorn St, Savannah, GA 31405",
            "lat": "32.0229174",
            "lon": "-81.109395"
        },
        "locations": "Restaurant/Retail",
        "wines": [
            "Foothills",
            "RISE"
        ]
    },
    {
        "id": "BgYpMiJnU8G4v2S6hyy9n",
        "name": "Shack, The",
        "address": {
            "street": "105 S. Coalter St., Staunton, VA 24401",
            "lat": "38.148151",
            "lon": "-79.0681357"
        },
        "locations": "Restaurant",
        "wines": [
            "Chardonnay",
            "Foothills",
            "Young Wine"
        ]
    },
    {
        "id": "tBfhmV422i4f3wF3e3UOR",
        "name": "South Street Brewery",
        "address": {
            "street": "106 South St., Charlottesville, VA 22902",
            "lat": "38.029338",
            "lon": "-78.482687"
        },
        "locations": "Restaurant",
        "wines": [
            "Foothills",
            "Chardonnay"
        ]
    },
    {
        "id": "oLQk7rgvQEOD2X3syvfYP",
        "name": "Talk of the Table",
        "address": {
            "street": "410 PEACHTREE PKWY, Cumming, GA 30041",
            "lat": "34.1535941",
            "lon": "-84.1768731"
        },
        "locations": "Retail",
        "wines": [
            "Five Forks",
            "Rosé"
        ]
    },
    {
        "id": "k0nhe23_nsEQdN14wg41w",
        "name": "Taste - Town Center",
        "address": {
            "street": "4513 Commerce Street, Virgina Beach, VA 23462",
            "lat": "36.8418021",
            "lon": "-76.1345125"
        },
        "locations": "Restaurant/Retail",
        "wines": [
            "Eluvium",
            "Foothills"
        ]
    },
    {
        "id": "kA58YXqkL9UmCP-nWZC-N",
        "name": "Taste - Westhampton",
        "address": {
            "street": "5706 Grove Ave Ste 100, Richmond, VA 23226",
            "lat": "37.5732828",
            "lon": "-77.5173888"
        },
        "locations": "Restaurant/Retail",
        "wines": [
            "Chardonnay",
            "Eluvium",
            "Rosé"
        ]
    },
    {
        "id": "Qk2xVfmJ5UZ9siKus6d8u",
        "name": "Tastings of Charlottesville",
        "address": {
            "street": "502 East Market St, Charlottesville, VA 22902",
            "lat": "38.0303427",
            "lon": "-78.4779714"
        },
        "locations": "Restaurant/Retail",
        "wines": [
            "Foothills"
        ]
    },
    {
        "id": "0ZkgrwqS_BlR9ya6JW3aO",
        "name": "Tail Up Goat",
        "address": {
            "street": "1827 Adams Mill Rd. NW, Washington, DC 20009",
            "lat": "38.923447",
            "lon": "-77.043176"
        },
        "locations": "Restaurant",
        "wines": [
            "Rosé"
        ]
    },
    {
        "id": "kruCnxcMzbAXHgeJnjQSB",
        "name": "Town Duck",
        "address": {
            "street": "100 Main St, Warrenton, VA 20186",
            "lat": "38.7122701",
            "lon": "-77.7930779"
        },
        "locations": "Retail",
        "wines": [
            "Foothills",
            "Rosé",
            "Eluvium"
        ]
    },
    {
        "id": "UoIyZ7WSJT_U13kR03lyz",
        "name": "Unwined Belle View",
        "address": {
            "street": "1600 Belle View Blvd., Alexandria, VA 22307",
            "lat": "38.7761672",
            "lon": "-77.0597746"
        },
        "locations": "Retail",
        "wines": [
            "Eluvium",
            "Foothills",
            "Rosé",
            "Pétillant Naturel White",
            "Petit Manseng",
            "Young Wine"
        ]
    },
    {
        "id": "xvq5BEU0abF92f_tnY9Z7",
        "name": "Thornton River Grille",
        "address": {
            "street": "Thornton River Grille, Sperryville, VA 22740",
            "lat": "38.6525114",
            "lon": "-78.2667447"
        },
        "locations": "Restaurant",
        "wines": [
            "Rosé",
            "Chardonnay",
            "Foothills",
            "Petit Manseng",
            "Young Wine"
        ]
    },
    {
        "id": "n2VFsImcH6AAwo6eC-Jcd",
        "name": "Unwined Bradlee Shopping Center",
        "address": {
            "street": "3690-J King St, Alexandria, VA 22302",
            "lat": "38.8296628",
            "lon": "-77.0921948"
        },
        "locations": "Retail",
        "wines": [
            "Eluvium",
            "Chardonnay",
            "Foothills",
            "Rosé"
        ]
    },
    {
        "id": "QJUB6TadlAj-t6Qxrx2jt",
        "name": "Valley Pike Farm Market",
        "address": {
            "street": "3494 Lee Highway, Weyers Cave, VA 24486",
            "lat": "40.6724091",
            "lon": "-73.9833358"
        },
        "locations": "Retail",
        "wines": [
            "Foothills"
        ]
    },
    {
        "id": "0rb6x57rvP5j0CD-zKg8u",
        "name": "Vinosity",
        "address": {
            "street": "174 E Davis St,, Charlottesville, VA 22732",
            "lat": "38.0293059",
            "lon": "-78.4766781"
        },
        "locations": "Retail",
        "wines": [
            "Foothills"
        ]
    },
    {
        "id": "76G9kxfBPO0xFs_L3XEgN",
        "name": "Vermillion",
        "address": {
            "street": "1120 King St, Alexandria, VA 22314",
            "lat": "38.8055661",
            "lon": "-77.0522637"
        },
        "locations": "Restaurant",
        "wines": [
            "Foothills"
        ]
    },
    {
        "id": "tJYA2Erz7XEmFTCOskH37",
        "name": "Vintage Cellar",
        "address": {
            "street": "1338 South Main St., Blacksburg, VA 24060",
            "lat": "37.215963",
            "lon": "-80.402101"
        },
        "locations": "Retail",
        "wines": [
            "Foothills",
            "Eluvium"
        ]
    },
    {
        "id": "sOjBlOaKSiRYVeWfwjiY7",
        "name": "White Moose Inn",
        "address": {
            "street": "291 Main St., Washington, VA 22747",
            "lat": "38.7123391",
            "lon": "-78.16034"
        },
        "locations": "Restaurant",
        "wines": [
            "Chardonnay",
            "Quaker Run Chardonnay"
        ]
    },
    {
        "id": "cI4I6iGqYPx6JsssD9ZAm",
        "name": "Whole Foods - Ashburn",
        "address": {
            "street": "19800 Belmont Chase Dr, Ashburn, VA 20147",
            "lat": "39.0684834",
            "lon": "-77.4843963"
        },
        "locations": "Restaurant/Retail",
        "wines": [
            "Eluvium",
            "Foothills"
        ]
    },
    {
        "id": "fXS1eNg2XEvOzInOD1TuC",
        "name": "Whole Foods - Boro Tysons",
        "address": {
            "street": "1635 Boro Place, McLean, VA 22102",
            "lat": "38.9246153",
            "lon": "-77.2335301"
        },
        "locations": "Restaurant/Retail",
        "wines": [
            "Rosé",
            "Five Forks",
            "Foothills"
        ]
    },
    {
        "id": "fIp0OTnjmoueSxL7f0GzM",
        "name": "Whole Foods - H Street",
        "address": {
            "street": "600-A H Street, NE, Washington, DC 20002",
            "lat": "38.9005142",
            "lon": "-76.9976267"
        },
        "locations": "Restaurant/Retail",
        "wines": [
            "Foothills"
        ]
    },
    {
        "id": "50BvmRb27Jy3OCwbCFmP3",
        "name": "Whole Foods - Short Pump",
        "address": {
            "street": "11173 West Broad St., Richmond, VA 23060",
            "lat": "37.6475665",
            "lon": "-77.5997292"
        },
        "locations": "Restaurant/Retail",
        "wines": [
            "Rosé",
            "Foothills"
        ]
    },
    {
        "id": "RsZS0j3pw3Nv_tvtYrqjZ",
        "name": "Whole Foods - Tysons",
        "address": {
            "street": "7511 Leesburg Pike, Falls Church, VA 22043",
            "lat": "38.903442",
            "lon": "-77.2044823"
        },
        "locations": "Restaurant/Retail",
        "wines": [
            "Foothills"
        ]
    },
    {
        "id": "oEYHB5QvtXXTAyT2aNzwd",
        "name": "Whole Foods - Virginia Beach",
        "address": {
            "street": "1800 Laskin Road, Virginia Beach, VA 23454",
            "lat": "36.8509319",
            "lon": "-76.0281576"
        },
        "locations": "Restaurant/Retail",
        "wines": [
            "Rosé",
            "Foothills",
            "Five Forks"
        ]
    },
    {
        "id": "V8mfuTlQVd_sLP4Lxgmm5",
        "name": "Whole Foods - West Broad",
        "address": {
            "street": "2024 W Broad Street, Richmond, VA 23220",
            "lat": "37.5581958",
            "lon": "-77.4612166"
        },
        "locations": "Restaurant/Retail",
        "wines": [
            "Rosé",
            "Foothills"
        ]
    },
    {
        "id": "dnMj80SG89kfRhAWJHipx",
        "name": "Wine Cellar- Staunton",
        "address": {
            "street": "8 Byers St., Staunton, VA 24401",
            "lat": "38.1477303",
            "lon": "-79.0727371"
        },
        "locations": "Retail",
        "wines": [
            "Shenandoah Valley Cabernet Franc"
        ]
    },
    {
        "id": "D3Daa92RKW0H5Jjh5kivT",
        "name": "Wine Seller - Williamsburg",
        "address": {
            "street": "4680 Monticello Ave Suite 15, Williamsburg, VA 23188",
            "lat": "37.2719211",
            "lon": "-76.7595155"
        },
        "locations": "Retail",
        "wines": [
            "Petit Manseng",
            "Foothills",
            "Pétillant Naturel White",
            "Rosé",
            "Five Forks",
            "RISE"
        ]
    },
    {
        "id": "r8bZAPSg3CiU-CPjMfuAm",
        "name": "Zynodoa",
        "address": {
            "street": "115 E Beverly St, Staunton, VA 24401",
            "lat": "38.149814",
            "lon": "-79.0709713"
        },
        "locations": "Restaurant",
        "wines": [
            "Eluvium",
            "Petit Manseng"
        ]
    },
    {
        "id": "D4m2OSpflpvGuWXNSBnCg",
        "name": "Zap Wines & Spirits",
        "address": {
            "street": "105 Court Street, Brooklyn, NY 11201",
            "lat": "40.6907763",
            "lon": "-73.9915424"
        },
        "locations": "Retail",
        "wines": [
            "Young Wine Chambourcin"
        ]
    },
    {
        "id": "K3HFgBZ2MkEQjgekJC0HZ",
        "name": "313 Franklin",
        "address": {
            "street": "313 Franklin Street, South Hill, VA 23970",
            "lat": "36.726272",
            "lon": "-78.1245498"
        },
        "locations": "Restaurant/Retail",
        "wines": [
            "Petit Manseng"
        ]
    },
    {
        "id": "I5NI25860Q68uKGnsP4li",
        "name": "Amber Ox Kitchen & Brewery",
        "address": {
            "street": "521 Prince George St., Williamsburg, VA 23185",
            "lat": "37.272864",
            "lon": "-76.708414"
        },
        "locations": "Restaurant",
        "wines": [
            "Foothills"
        ]
    },
    {
        "id": "C-YKEF3iQK90c6x5Jel0k",
        "name": "Arrowine",
        "address": {
            "street": "4508 Lee Hwy, Arlington, VA 22207",
            "lat": "38.8983733",
            "lon": "-77.1183586"
        },
        "locations": "Retail",
        "wines": [
            "Eluvium",
            "Rosé",
            "Shenandoah Valley Cabernet Franc",
            "Young Wine Chambourcin",
            "Chardonnay",
            "Foothills",
            "Pétillant Naturel White"
        ]
    },
    {
        "id": "CLQ_6L2jR6GSlWrrpBSLm",
        "name": "And Sons NYC",
        "address": {
            "street": "447 Rogers Ave, Brooklyn, NY 11225",
            "lat": "40.6616172",
            "lon": "-73.9534096"
        },
        "locations": "Restaurant",
        "wines": [
            "Petit Manseng"
        ]
    },
    {
        "id": "FF-oEbVCtpgnnpqlAoghC",
        "name": "Balducci's - Alexandria",
        "address": {
            "street": "600 Franklin St, Alexandria, VA 22314",
            "lat": "38.7978102",
            "lon": "-77.0479011"
        },
        "locations": "Retail",
        "wines": [
            "Chardonnay",
            "Rosé",
            "Eluvium",
            "Young Wine",
            "RISE"
        ]
    },
    {
        "id": "kOdIRxxM1WT2ADlggryqf",
        "name": "Barrel Chest",
        "address": {
            "street": "4035 Electric Rd. #B, Roanoke, VA 24018",
            "lat": "37.2235279",
            "lon": "-79.982868"
        },
        "locations": "Retail",
        "wines": [
            "Chardonnay",
            "Rosé",
            "Foothills",
            "Pétillant Naturel White",
            "Young Wine"
        ]
    },
    {
        "id": "Zvudt03_d3wHO_BEoFKA8",
        "name": "Barrel Thief",
        "address": {
            "street": "5805 Patterson Ave, Richmond, VA 23226",
            "lat": "37.2235279",
            "lon": "-79.982868"
        },
        "locations": "Restaurant/Retail",
        "wines": [
            "Rosé",
            "Foothills",
            "Petit Manseng"
        ]
    },
    {
        "id": "DSDCbzo3rehBQLMDFFbVs",
        "name": "Back Bay's Farmhouse Brewing",
        "address": {
            "street": "1805 Kempsville Rd, Virginia Beach, VA 23464",
            "lat": "36.7830652",
            "lon": "-76.1893622"
        },
        "locations": "Restaurant",
        "wines": [
            "Rosé"
        ]
    },
    {
        "id": "iVyrTi8SG921bgm-6k03j",
        "name": "Bloom",
        "address": {
            "street": "1109 Main St. SW, Roanoke, VA 24015",
            "lat": "37.264562",
            "lon": "-79.958762"
        },
        "locations": "Restaurant",
        "wines": [
            "Petit Manseng"
        ]
    },
    {
        "id": "BF8hZOvHpNj7rmIV38hP-",
        "name": "Caboose",
        "address": {
            "street": "108 S. Railroad Ave., Ashland, VA 23005",
            "lat": "37.758286",
            "lon": "-77.4816338"
        },
        "locations": "Restaurant/Retail",
        "wines": [
            "Foothills",
            "Chardonnay"
        ]
    },
    {
        "id": "nDlFbdxYYLUR1OgJX2gcA",
        "name": "DeVine",
        "address": {
            "street": "121 Blue Ridge Dr, Wintergreen, VA 22958",
            "lat": "37.8848619",
            "lon": "-78.8994672"
        },
        "locations": "Retail",
        "wines": [
            "Petit Manseng",
            "Shenandoah Valley Cabernet Franc"
        ]
    },
    {
        "id": "kFg-Wf-rQR7yxr2gta9y6",
        "name": "Crystal City Wine Shop",
        "address": {
            "street": "220 20th St. South, Arlington, VA 22202",
            "lat": "38.85597",
            "lon": "-77.0500304"
        },
        "locations": "Retail",
        "wines": [
            "Rosé",
            "Foothills",
            "Five Forks",
            "Young Wine"
        ]
    },
    {
        "id": "OaoajKgX1WD2mMsZ63D-a",
        "name": "Each Peach Market",
        "address": {
            "street": "3068 Mt Pleasant St NW, Washington, DC 20009",
            "lat": "38.928548",
            "lon": "-77.0375272"
        },
        "locations": "Restaurant/Retail",
        "wines": [
            "Foothills"
        ]
    },
    {
        "id": "WQhFXJLVDtditVlbwR6od",
        "name": "Ellwood Thompson",
        "address": {
            "street": "4 N Thompson St, Richmond, VA 23221",
            "lat": "37.5574421",
            "lon": "-77.4886194"
        },
        "locations": "Retail",
        "wines": [
            "Rosé",
            "Eluvium",
            "Petit Manseng",
            "Pétillant Naturel White",
            "Quaker Run Chardonnay",
            "Shenandoah Valley Cabernet Franc",
            "Chardonnay",
            "Five Forks",
            "Foothills"
        ]
    },
    {
        "id": "rOnLXlQVS7vDfzgRUrN34",
        "name": "Foods of All Nations",
        "address": {
            "street": "2121 Ivy Rd, Charlottesville, VA 22903",
            "lat": "38.0432978",
            "lon": "-78.5119067"
        },
        "locations": "Retail",
        "wines": [
            "Petit Manseng",
            "Shenandoah Valley Cabernet Franc",
            "Rosé",
            "Five Forks",
            "Young Wine"
        ]
    },
    {
        "id": "jNxGyZduk-OLQvwrChPvc",
        "name": "Fat Canary",
        "address": {
            "street": "The Cheese Shop of VA, Inc., Williamsburg, VA 23185",
            "lat": "37.2706994",
            "lon": "-76.7061859"
        },
        "locations": "Restaurant",
        "wines": [
            "Foothills",
            "Rosé",
            "Shenandoah Valley Cabernet Franc"
        ]
    },
    {
        "id": "R-xyyd9SKstZRBirLYcZ8",
        "name": "Fry's Spring Beach Club",
        "address": {
            "street": "2513 Jefferson Park Ave, Charlottesville, VA 22903",
            "lat": "38.0192125",
            "lon": "-78.5141217"
        },
        "locations": "Restaurant",
        "wines": [
            "Foothills",
            "Rosé"
        ]
    },
    {
        "id": "p-jY9gBg3CObk5XiscbVE",
        "name": "Glen's Garden Market",
        "address": {
            "street": "2001 S St. NW, Washington, DC 20009",
            "lat": "38.9143274",
            "lon": "-77.0451575"
        },
        "locations": "Restaurant/Retail",
        "wines": [
            "Foothills",
            "Rosé",
            "Shenandoah Valley Cabernet Franc"
        ]
    },
    {
        "id": "_rJF3RqFDaW3Lonp6cNj2",
        "name": "Grisette",
        "address": {
            "street": "3119 East Marshall Street, Richmond, VA 23223",
            "lat": "37.528621",
            "lon": "-77.4119182"
        },
        "locations": "Restaurant",
        "wines": [
            "Eluvium",
            "Foothills",
            "Petit Manseng"
        ]
    },
    {
        "id": "rJ7C7SWCZocDJ-1KEjcAE",
        "name": "Friendly City Food Co-op",
        "address": {
            "street": "150 E Wolfe St, Harrisonburg, VA 22802",
            "lat": "38.4516609",
            "lon": "-78.8665291"
        },
        "locations": "Retail",
        "wines": [
            "Petit Manseng",
            "Rosé"
        ]
    },
    {
        "id": "9UDvHXsDRUWvnkN0sHf9c",
        "name": "Hamilton's",
        "address": {
            "street": "101 W Main St, Charlottesville, VA 22902",
            "lat": "38.030928",
            "lon": "-78.4815455"
        },
        "locations": "Restaurant",
        "wines": [
            "Petit Manseng"
        ]
    },
    {
        "id": "3bfCm9v2Hjizj6d4wHGId",
        "name": "High Street on Hudson",
        "address": {
            "street": "637 Hudson St, Manhattan, NY 10014",
            "lat": "40.7388972",
            "lon": "-74.0057401"
        },
        "locations": "Restaurant",
        "wines": [
            "Young Wine Chambourcin"
        ]
    },
    {
        "id": "jdPnnY3ydDrayc1_hGX0-",
        "name": "J Emerson",
        "address": {
            "street": "5716 Grove Ave, Richmond, VA 23226",
            "lat": "37.5733362",
            "lon": "-77.5180274"
        },
        "locations": "Retail",
        "wines": [
            "Foothills",
            "Rosé",
            "Chardonnay"
        ]
    },
    {
        "id": "20pv7RS4I6GiUAfdC4Syy",
        "name": "Libbie Market",
        "address": {
            "street": "400 Libbie Ave., Richmond, VA 23226",
            "lat": "37.5746309",
            "lon": "-77.5183971"
        },
        "locations": "Retail",
        "wines": [
            "Quaker Run Chardonnay",
            "Shenandoah Valley Cabernet Franc",
            "Eluvium",
            "Petit Manseng",
            "Rosé"
        ]
    },
    {
        "id": "nzwoAUst00Om0w31-S5MZ",
        "name": "Inn at Warm Springs",
        "address": {
            "street": "12968 Sam Snead Hwy, Warm Springs, VA 24484",
            "lat": "38.0534747",
            "lon": "-79.7791928"
        },
        "locations": "Restaurant",
        "wines": [
            "Rosé"
        ]
    },
    {
        "id": "dAU9DzFJ5YkXWbDWcQmKu",
        "name": "Locke Store",
        "address": {
            "street": "2049 Millwood Rd., Millwood, VA 22646",
            "lat": "39.0695452",
            "lon": "-78.0379379"
        },
        "locations": "Retail",
        "wines": [
            "Eluvium",
            "Rosé",
            "Pétillant Naturel White"
        ]
    },
    {
        "id": "7ZNQG-LxRl7z4QRb5Eggs",
        "name": "Market Street Wine Shop",
        "address": {
            "street": "311 East Market St, Charlottesville, VA 22902",
            "lat": "38.0310663",
            "lon": "-78.4789692"
        },
        "locations": "Retail",
        "wines": [
            "Foothills",
            "Rosé",
            "Chardonnay",
            "Pétillant Naturel White"
        ]
    },
    {
        "id": "sv1tuFtRp5ppORPC50VRK",
        "name": "Lucky",
        "address": {
            "street": "18 Kirk Ave SW, Roanoke, VA 24011",
            "lat": "37.2709987",
            "lon": "-79.9414035"
        },
        "locations": "Restaurant",
        "wines": [
            "Quaker Run Chardonnay",
            "RISE"
        ]
    },
    {
        "id": "Edk48tGbp28vpP4cKZ_KC",
        "name": "Mona Lisa",
        "address": {
            "street": "921 Preston Ave, Charlottesville, VA 22903",
            "lat": "38.038434",
            "lon": "-78.489901"
        },
        "locations": "Retail",
        "wines": [
            "Foothills",
            "Rosé",
            "Young Wine Chambourcin",
            "Petit Manseng"
        ]
    },
    {
        "id": "PJWv1FxsUGcgBzFH3fJHD",
        "name": "Norm's Beer & Wine",
        "address": {
            "street": "136 Branch Rd SE, Vienna, VA 22180",
            "lat": "38.9062317",
            "lon": "-77.257151"
        },
        "locations": "Retail",
        "wines": [
            "Eluvium",
            "Rosé",
            "Quaker Run Chardonnay",
            "Five Forks"
        ]
    },
    {
        "id": "wsoa9gL0kodv-jx83HzWb",
        "name": "One Eared Stag",
        "address": {
            "street": "1029 EDGEWOOD AVE NE, ATLANTA, GA 30374",
            "lat": "33.7572073",
            "lon": "-84.3541197"
        },
        "locations": "Restaurant",
        "wines": [
            "Eluvium"
        ]
    },
    {
        "id": "A2m9nu0TO1oYcjVQtSvLT",
        "name": "Organic Butcher of McLean",
        "address": {
            "street": "6712 Old Dominion Drive, McLean, VA 22101",
            "lat": "38.9335412",
            "lon": "-77.1758584"
        },
        "locations": "Retail",
        "wines": [
            "Foothills",
            "Five Forks"
        ]
    },
    {
        "id": "TvUIAwDKe0282wgRQaZYa",
        "name": "Outpost",
        "address": {
            "street": "4813 Forest Hill Ave., Richmond, VA 23225",
            "lat": "37.5211852",
            "lon": "-77.4878087"
        },
        "locations": "Retail",
        "wines": [
            "Rosé",
            "Young Wine"
        ]
    },
    {
        "id": "DmdET9uCfp5QEoV897vLU",
        "name": "Planet Wine",
        "address": {
            "street": "2000-2004 Mount Vernon Ave, Alexandria, VA 22301",
            "lat": "38.8239944",
            "lon": "-77.0585361"
        },
        "locations": "Retail",
        "wines": [
            "Rosé",
            "Shenandoah Valley Cabernet Franc",
            "Petit Manseng"
        ]
    },
    {
        "id": "_Yx4e5lS5FTP9lr1390Mk",
        "name": "Perch",
        "address": {
            "street": "2918 W. Broad Street, Richmond, VA 23230",
            "lat": "37.5640539",
            "lon": "-77.4719183"
        },
        "locations": "Restaurant",
        "wines": [
            "Chardonnay",
            "Foothills",
            "Rosé"
        ]
    },
    {
        "id": "U3LqsZXWPO4MivEbAN5Gu",
        "name": "Quirk Hotel - Charlottesville",
        "address": {
            "street": "499 W Main Street, Charlottesville, VA 22902",
            "lat": "38.03121",
            "lon": "-78.48776"
        },
        "locations": "Restaurant",
        "wines": [
            "Five Forks",
            "Foothills"
        ]
    },
    {
        "id": "Hf6S4iv-448an3h_M_aHr",
        "name": "Press 626",
        "address": {
            "street": "626 West Olney Rd., Norfolk, VA 23507",
            "lat": "36.8605378",
            "lon": "-76.2996588"
        },
        "locations": "Restaurant/Retail",
        "wines": [
            "Rosé"
        ]
    },
    {
        "id": "TW-52Ur18fPUKogGKMGUU",
        "name": "Rio Hill Wine & Beer",
        "address": {
            "street": "1908 Rio Hill Center, Charlottesville, VA 22901",
            "lat": "38.0877905",
            "lon": "-78.4749043"
        },
        "locations": "Retail",
        "wines": [
            "Eluvium",
            "Rosé",
            "Quaker Run Chardonnay"
        ]
    },
    {
        "id": "OEoTgQ92NYsqFRIs2bNcb",
        "name": "Roanoke Natural Foods Co-op",
        "address": {
            "street": "1319 Grandin Rd SW, Roanoke, VA 24015",
            "lat": "37.2652232",
            "lon": "-79.9776246"
        },
        "locations": "Retail",
        "wines": [
            "Foothills",
            "Rosé",
            "Young Wine"
        ]
    },
    {
        "id": "_nWBPjDDXzuUtdEd1erAz",
        "name": "Screwtop",
        "address": {
            "street": "1025 Fillmore St. N, Arlington, VA 22201",
            "lat": "38.8859072",
            "lon": "-77.0926894"
        },
        "locations": "Restaurant/Retail",
        "wines": [
            "Foothills",
            "Rosé",
            "Eluvium"
        ]
    },
    {
        "id": "isuC4vJaL3T95x1HrNJig",
        "name": "Rose's at Home",
        "address": {
            "street": "731 8th Street SE, Washington, DC 20003",
            "lat": "38.8801665",
            "lon": "-76.9953797"
        },
        "locations": "Restaurant",
        "wines": [
            "Foothills"
        ]
    },
    {
        "id": "YICBOrrB19GHUcCMKTBI6",
        "name": "Taste - Ghent",
        "address": {
            "street": "407 W 21st Street, Norfolk, VA 23517",
            "lat": "36.868141",
            "lon": "-76.290231"
        },
        "locations": "Restaurant/Retail",
        "wines": [
            "Eluvium",
            "Five Forks",
            "Rosé"
        ]
    },
    {
        "id": "-yTJA73iNpupE5MKXgbcS",
        "name": "Swirl & Sip",
        "address": {
            "street": "2905 District  Ave. Ste. 112, Fairfax, VA 22031",
            "lat": "38.8733231",
            "lon": "-77.229401"
        },
        "locations": "Retail",
        "wines": [
            "Five Forks"
        ]
    },
    {
        "id": "_M_23H3QrlywauMl0JL_f",
        "name": "Taste - Oceanfront",
        "address": {
            "street": "3603 Pacific Avenue, Virginia Beach, VA 23451",
            "lat": "36.8641917",
            "lon": "-75.9803595"
        },
        "locations": "Restaurant/Retail",
        "wines": [
            "Petit Manseng"
        ]
    },
    {
        "id": "FeB8lsHS3aI0XYTp1h_Cc",
        "name": "Thornton River Grille",
        "address": {
            "street": "Thornton River Grille, Sperryville, VA 22740",
            "lat": "38.6525114",
            "lon": "-78.2667447"
        },
        "locations": "Restaurant",
        "wines": [
            "Foothills",
            "Rosé"
        ]
    },
    {
        "id": "HJcPFCfHNcQID-a3LK-9p",
        "name": "Unwined Belle View",
        "address": {
            "street": "1600 Belle View Blvd., Alexandria, VA 22307",
            "lat": "38.7761672",
            "lon": "-77.0597746"
        },
        "locations": "Retail",
        "wines": [
            "Foothills",
            "Petit Manseng",
            "Rosé"
        ]
    },
    {
        "id": "McIrJurZLHWXqpio44AYq",
        "name": "Ten Sushi",
        "address": {
            "street": "120B East Main St, Charlottesville, VA 22902",
            "lat": "38.0303542",
            "lon": "-78.4810329"
        },
        "locations": "Restaurant",
        "wines": [
            "Foothills",
            "Rosé"
        ]
    },
    {
        "id": "gBbU2LwVJz1uwFamYtN5F",
        "name": "Urban Hang Suite",
        "address": {
            "street": "304 E. Broad Street, Richmond, VA 23219",
            "lat": "37.5441901",
            "lon": "-77.4388111"
        },
        "locations": "Restaurant/Retail",
        "wines": [
            "Chardonnay",
            "Rosé",
            "Foothills"
        ]
    },
    {
        "id": "cqHx1S9DuRY_x5tpJGvRm",
        "name": "Vino Market",
        "address": {
            "street": "3730 Winterfield Rd., Midlothian, VA 23113",
            "lat": "37.5535346",
            "lon": "-77.6685934"
        },
        "locations": "Retail",
        "wines": [
            "Foothills",
            "Rosé",
            "Five Forks"
        ]
    },
    {
        "id": "dnM0aARJbT_wzAp0x6yXG",
        "name": "Unwined Bradlee Shopping Center",
        "address": {
            "street": "3690-J King St, Alexandria, VA 22302",
            "lat": "38.8296628",
            "lon": "-77.0921948"
        },
        "locations": "Retail",
        "wines": [
            "Eluvium",
            "Rosé"
        ]
    },
    {
        "id": "JK5rihaaob_4n5ZTDxuJI",
        "name": "Westside Produce & Provisions",
        "address": {
            "street": "5015 Colley Ave., Norfolk, VA 23508",
            "lat": "36.8890919",
            "lon": "-76.2954496"
        },
        "locations": "Retail",
        "wines": [
            "Chardonnay",
            "Eluvium",
            "Five Forks",
            "Foothills",
            "Shenandoah Valley Cabernet Franc",
            "Rosé",
            "Young Wine"
        ]
    },
    {
        "id": "0iRGRobv7o2RME3NCLV6A",
        "name": "Wardman Wines",
        "address": {
            "street": "625 Monroe St. NE, Ste.#A7, Washington, DC 20007",
            "lat": "38.9318318",
            "lon": "-76.9971246"
        },
        "locations": "Retail",
        "wines": [
            "Pétillant Naturel Red",
            "Rosé"
        ]
    },
    {
        "id": "Zcxc3z5exRIPlXw-EmcKT",
        "name": "Whole Foods - Charlottesville",
        "address": {
            "street": "1797 Hydraulic Road, Charlottesville, VA 22901",
            "lat": "38.059773",
            "lon": "-78.4891351"
        },
        "locations": "Restaurant/Retail",
        "wines": [
            "Foothills",
            "Rosé",
            "Five Forks"
        ]
    },
    {
        "id": "zgiPC46HdzbiiiM5YUJca",
        "name": "Whole Foods - H Street",
        "address": {
            "street": "600-A H Street, NE, Washington, DC 20002",
            "lat": "38.9005142",
            "lon": "-76.9976267"
        },
        "locations": "Restaurant/Retail",
        "wines": [
            "Rosé"
        ]
    },
    {
        "id": "efEMire3EEGXCA0ACC2_z",
        "name": "Whole Foods - Springfield",
        "address": {
            "street": "8402 Old Keene Mill Road, Springfield, VA 22152",
            "lat": "38.7796348",
            "lon": "-77.2343247"
        },
        "locations": "Restaurant/Retail",
        "wines": [
            "Foothills",
            "Rosé"
        ]
    },
    {
        "id": "lMUH_mBtRvb5FSI9Hmxe1",
        "name": "Whole Foods - Old Town",
        "address": {
            "street": "1700 Duke Street, Alexandria, VA 22314",
            "lat": "38.8041416",
            "lon": "-77.0600615"
        },
        "locations": "Restaurant/Retail",
        "wines": [
            "Rosé"
        ]
    },
    {
        "id": "C0VSfPPpNZQVik72MLf4S",
        "name": "Wine Seller - Williamsburg",
        "address": {
            "street": "4680 Monticello Ave Suite 15, Williamsburg, VA 23188",
            "lat": "37.2719211",
            "lon": "-76.7595155"
        },
        "locations": "Retail",
        "wines": [
            "Foothills",
            "Rosé"
        ]
    },
    {
        "id": "Z3H7z7NRDWEOUC5mm2esO",
        "name": "Wine Warehouse",
        "address": {
            "street": "1804 Hydraulic Rd, Charlottesville, VA 22902",
            "lat": "38.0607943",
            "lon": "-78.4914214"
        },
        "locations": "Retail",
        "wines": [
            "Shenandoah Valley Cabernet Franc",
            "Young Wine",
            "RISE"
        ]
    },
    {
        "id": "MvpzRwJQ5MpZXJf5nEfad",
        "name": "Zocalo",
        "address": {
            "street": "201 E Main St Suite E, Charlottesville, VA 22902",
            "lat": "38.0307918",
            "lon": "-78.4803003"
        },
        "locations": "Restaurant",
        "wines": [
            "Foothills",
            "Pétillant Naturel White",
            "Rosé"
        ]
    },
    {
        "id": "UDkk1B1bPKAKe88M4yyXv",
        "name": "Arrowine",
        "address": {
            "street": "4508 Lee Hwy, Arlington, VA 22207",
            "lat": "38.8983733",
            "lon": "-77.1183586"
        },
        "locations": "Retail",
        "wines": [
            "Rosé",
            "Foothills"
        ]
    },
    {
        "id": "aQV7dA4DxkSOlxkftzqDD",
        "name": "Bottleworks",
        "address": {
            "street": "3078 Stony Point Rd., Richmond, VA 23235",
            "lat": "37.537796",
            "lon": "-77.5651916"
        },
        "locations": "Retail",
        "wines": [
            "Chardonnay",
            "Foothills"
        ]
    },
    {
        "id": "9UkcwnvGcV1HI5py9QceC",
        "name": "Barrel Thief",
        "address": {
            "street": "5805 Patterson Ave, Richmond, VA 23226",
            "lat": "37.2235279",
            "lon": "-79.982868"
        },
        "locations": "Restaurant/Retail",
        "wines": [
            "Rosé",
            "Pétillant Naturel White"
        ]
    },
    {
        "id": "LFejWRWyN-OKOqVDQH2_j",
        "name": "Cairo Wine & Liquor",
        "address": {
            "street": "1618 17th St NW, Washington, DC 20009",
            "lat": "38.9117809",
            "lon": "-77.0387481"
        },
        "locations": "Retail",
        "wines": [
            "Rosé"
        ]
    },
    {
        "id": "7Nh3UdjASAQ1F3Z_w6lJJ",
        "name": "Commonwealth Club",
        "address": {
            "street": "401 W. Franklin Street, Richmond, VA 23220",
            "lat": "37.5458434",
            "lon": "-77.447656"
        },
        "locations": "Restaurant",
        "wines": [
            "Rosé",
            "RISE"
        ]
    },
    {
        "id": "0J6eJ1j-PEW4zbjMe_xEK",
        "name": "Crystal Palate",
        "address": {
            "street": "4500 Pretty Lake Avenue, Norfolk, VA 23518",
            "lat": "36.925493",
            "lon": "-76.1880817"
        },
        "locations": "Retail",
        "wines": [
            "Chardonnay"
        ]
    },
    {
        "id": "K5J5l61tlPHZYt5BlS9v2",
        "name": "Crystal City Wine Shop",
        "address": {
            "street": "220 20th St. South, Arlington, VA 22202",
            "lat": "38.85597",
            "lon": "-77.0500304"
        },
        "locations": "Retail",
        "wines": [
            "Petit Manseng",
            "Pétillant Naturel White",
            "Rosé",
            "Young Wine"
        ]
    },
    {
        "id": "m8bSmtgZReFOi6jV96yCK",
        "name": "Department of Beer & Wine",
        "address": {
            "street": "2724 Richmond Hwy, Alexandria, VA 22301",
            "lat": "38.830645",
            "lon": "-77.051175"
        },
        "locations": "Retail",
        "wines": [
            "Rosé",
            "Pétillant Naturel White"
        ]
    },
    {
        "id": "6MykTU5MVH86LMtNjYfbK",
        "name": "Ellwood Thompson",
        "address": {
            "street": "4 N Thompson St, Richmond, VA 23221",
            "lat": "37.5574421",
            "lon": "-77.4886194"
        },
        "locations": "Retail",
        "wines": [
            "Foothills",
            "Shenandoah Valley Cabernet Franc",
            "Petit Manseng",
            "Quaker Run Chardonnay"
        ]
    },
    {
        "id": "ha4dckQZVro5nznKHfEjc",
        "name": "Dominion Wine and Beer",
        "address": {
            "street": "107 Rowell Ct., Falls Church, VA 22046-3126",
            "lat": "38.8897048",
            "lon": "-77.183834"
        },
        "locations": "Restaurant/Retail",
        "wines": [
            "Petit Manseng",
            "Rosé",
            "Foothills"
        ]
    },
    {
        "id": "DJWXXNnRSb97BHyNJfM5k",
        "name": "Founding Farmers - Reston",
        "address": {
            "street": "1904 Reston Metro Plaza, Suite 100, Reston, VA 20190",
            "lat": "38.9488917",
            "lon": "-77.3383807"
        },
        "locations": "Restaurant",
        "wines": [
            "Rosé"
        ]
    },
    {
        "id": "ozRGiUEb4SwpqIsNWdJ3j",
        "name": "Founding Farmers - Tyson's Corner",
        "address": {
            "street": "1800 Tyson's Blvd., McLean, VA 22102",
            "lat": "38.9488917",
            "lon": "-77.3383807"
        },
        "locations": "Restaurant",
        "wines": [
            "Rosé"
        ]
    },
    {
        "id": "905pNwy4EeVLlpPD9_32H",
        "name": "Glen's Garden Market",
        "address": {
            "street": "2001 S St. NW, Washington, DC 20009",
            "lat": "38.9143274",
            "lon": "-77.0451575"
        },
        "locations": "Restaurant/Retail",
        "wines": [
            "Rosé",
            "Shenandoah Valley Cabernet Franc"
        ]
    },
    {
        "id": "TWcaAALLVZ6JbQl8xxjzT",
        "name": "Greenwood",
        "address": {
            "street": "6701 Rockfish Gap TPK, Crozet, VA 22932",
            "lat": "38.0413202",
            "lon": "-78.732343"
        },
        "locations": "Retail",
        "wines": [
            "Rosé",
            "Young Wine Chambourcin",
            "Petit Manseng"
        ]
    },
    {
        "id": "OI_PLxxNTciEG92z0HC6e",
        "name": "J Emerson",
        "address": {
            "street": "5716 Grove Ave, Richmond, VA 23226",
            "lat": "37.5733362",
            "lon": "-77.5180274"
        },
        "locations": "Retail",
        "wines": [
            "Rosé"
        ]
    },
    {
        "id": "Bm5TC0mAxWKbvI6zBPrCG",
        "name": "Perch",
        "address": {
            "street": "2918 W. Broad Street, Richmond, VA 23230",
            "lat": "37.5640539",
            "lon": "-77.4719183"
        },
        "locations": "Restaurant",
        "wines": [
            "Petit Manseng",
            "Rosé"
        ]
    },
    {
        "id": "8MeF561q0yvKme5FGN9YC",
        "name": "Planet Wine",
        "address": {
            "street": "2000-2004 Mount Vernon Ave, Alexandria, VA 22301",
            "lat": "38.8239944",
            "lon": "-77.0585361"
        },
        "locations": "Retail",
        "wines": [
            "Rosé",
            "Shenandoah Valley Cabernet Franc",
            "Young Wine"
        ]
    },
    {
        "id": "2grzjWK4CLwLncYIbh_g5",
        "name": "Montgomery Co. Dept. of Liquor Control",
        "address": {
            "street": "Division of Financial, Gaithersburg, MD 20878",
            "lat": "39.139876",
            "lon": "-77.1926495"
        },
        "locations": "Retail",
        "wines": [
            "Rosé"
        ]
    },
    {
        "id": "0EPTE34qWCmcZaBPQP8iy",
        "name": "Rustico - Ballston",
        "address": {
            "street": "4075 Wilson Blvd., Arlington, VA 22203",
            "lat": "38.8803079",
            "lon": "-77.1085112"
        },
        "locations": "Restaurant",
        "wines": [
            "Rosé"
        ]
    },
    {
        "id": "1_MX1YWQfKor8wqfo16rr",
        "name": "Prosperity Kitchen & Pantry",
        "address": {
            "street": "532 Virginia Beach Blvd Ste B, Virginia Beach, VA 23451",
            "lat": "36.8444829",
            "lon": "-75.9806406"
        },
        "locations": "Restaurant",
        "wines": [
            "Foothills"
        ]
    },
    {
        "id": "0bvsXMRNFBV2oieWoHfNK",
        "name": "Salisbury Country Club",
        "address": {
            "street": "13620 W. Salisbury Rd, Midlothian, VA 23113",
            "lat": "37.5278854",
            "lon": "-77.6533788"
        },
        "locations": "Restaurant",
        "wines": [
            "Foothills",
            "Petit Manseng",
            "Rosé",
            "Pétillant Naturel White",
            "Five Forks",
            "Young Wine",
            "RISE"
        ]
    },
    {
        "id": "X1M9PmDWAssXU7j7IxfiV",
        "name": "Saison",
        "address": {
            "street": "23 W Marshall St. Suite A, Richmond, VA 23220",
            "lat": "37.546819",
            "lon": "-77.4420934"
        },
        "locations": "Restaurant",
        "wines": [
            "Rosé",
            "Pétillant Naturel White"
        ]
    },
    {
        "id": "4yQDPyXAyYw2GShAeplYF",
        "name": "Stone Tower Winery",
        "address": {
            "street": "19925 Hogback Mountain Road, Leesburg, VA 20175",
            "lat": "39.063064",
            "lon": "-77.635397"
        },
        "locations": "Restaurant/Retail",
        "wines": [
            "Shenandoah Valley Cabernet Franc"
        ]
    },
    {
        "id": "jeIeM5ItUjvAGjUkbM7qR",
        "name": "Taste - Headquarters",
        "address": {
            "street": "1391 Air Rail Avenue, Virginia Beach, VA 23455",
            "lat": "36.8929573",
            "lon": "-76.1918905"
        },
        "locations": "Restaurant/Retail",
        "wines": [
            "Rosé"
        ]
    },
    {
        "id": "K_BC8RDVjn8oPNljj0TO7",
        "name": "Thornton River Grille",
        "address": {
            "street": "Thornton River Grille, Sperryville, VA 22740",
            "lat": "38.6525114",
            "lon": "-78.2667447"
        },
        "locations": "Restaurant",
        "wines": [
            "Rosé"
        ]
    },
    {
        "id": "sWeIZZFwb7UIBHok7qZVM",
        "name": "Urban Hang Suite",
        "address": {
            "street": "304 E. Broad Street, Richmond, VA 23219",
            "lat": "37.5441901",
            "lon": "-77.4388111"
        },
        "locations": "Restaurant/Retail",
        "wines": [
            "Foothills"
        ]
    },
    {
        "id": "lGNvauUHVWAOSV9ImzPQA",
        "name": "USA Wine Imports:Good Wine",
        "address": {
            "street": "327 5th Avenue, Brooklyn, NY 11215",
            "lat": "40.6724091",
            "lon": "-73.9833358"
        },
        "locations": "Retail",
        "wines": [
            "Foothills"
        ]
    },
    {
        "id": "fJRwnz2XKpvkr8J9voT8S",
        "name": "USA Wine Imports:Kings County Wines",
        "address": {
            "street": "1420 Cortelyou Road, Brooklyn, NY 11226",
            "lat": "40.6724091",
            "lon": "-73.9833358"
        },
        "locations": "Retail",
        "wines": [
            "Rosé"
        ]
    },
    {
        "id": "fkHGvAi8CCDk7jrJ83r19",
        "name": "USA Wine Imports:Sorso Wine Boutique",
        "address": {
            "street": "1069 Bedford Avenue, Brooklyn, NY 11216",
            "lat": "40.6724091",
            "lon": "-73.9833358"
        },
        "locations": "Retail",
        "wines": [
            "Rosé"
        ]
    },
    {
        "id": "92XTE8r6JK9txKkwlsbW5",
        "name": "W2 Wines, LLC",
        "address": {
            "street": "16031 Hillsboro Road, Purcellville, VA 20132",
            "lat": "39.173889",
            "lon": "-77.725546"
        },
        "locations": "Retail",
        "wines": [
            "Petit Manseng",
            "Rosé",
            "Shenandoah Valley Cabernet Franc"
        ]
    },
    {
        "id": "KgHxvmaJ6wxoV9QFa-n3B",
        "name": "USA Wine Imports:Zap Wines & Spirits",
        "address": {
            "street": "105 Court Street, Brooklyn, NY 11201",
            "lat": "40.6724091",
            "lon": "-73.9833358"
        },
        "locations": "Retail",
        "wines": [
            "Foothills"
        ]
    },
    {
        "id": "cbwChcTIXEeca0pkBfTrR",
        "name": "Westside Produce & Provisions",
        "address": {
            "street": "5015 Colley Ave., Norfolk, VA 23508-2039",
            "lat": "36.8890919",
            "lon": "-76.2954496"
        },
        "locations": "Retail",
        "wines": [
            "Eluvium",
            "Foothills",
            "Rosé",
            "Shenandoah Valley Cabernet Franc",
            "Five Forks"
        ]
    },
    {
        "id": "AxwJEZwP7SZczIwVjLAse",
        "name": "Washington Street Purveyors",
        "address": {
            "street": "9 E Washington St, Lexington, VA 24450",
            "lat": "37.7845823",
            "lon": "-79.441534"
        },
        "locations": "Retail",
        "wines": [
            "Chardonnay"
        ]
    },
    {
        "id": "JE-jfVrL2oYTDbaGFA0JB",
        "name": "Whole Foods - Ashburn",
        "address": {
            "street": "19800 Belmont Chase Dr, Ashburn, VA 20147",
            "lat": "39.0684834",
            "lon": "-77.4843963"
        },
        "locations": "Restaurant/Retail",
        "wines": [
            "Foothills"
        ]
    },
    {
        "id": "E80otf7Z4Gyfhf2rHhBzP",
        "name": "Whole Foods - Charlottesville",
        "address": {
            "street": "1797 Hydraulic Road, Charlottesville, VA 22901",
            "lat": "38.059773",
            "lon": "-78.4891351"
        },
        "locations": "Restaurant/Retail",
        "wines": [
            "Foothills",
            "Rosé"
        ]
    },
    {
        "id": "jPGayeiXPR_8qyYufFo9H",
        "name": "Wine Gourmet",
        "address": {
            "street": "3524 Electric Road, Roanoke, VA 24014-1109",
            "lat": "37.2271841",
            "lon": "-79.9984762"
        },
        "locations": "Retail",
        "wines": [
            "Rosé"
        ]
    },
    {
        "id": "sIKg8Lkdy_8-MkfJvSCp7",
        "name": "Whole Foods - Boro Tysons",
        "address": {
            "street": "1635 Boro Place, McLean, VA 22102",
            "lat": "38.9246153",
            "lon": "-77.2335301"
        },
        "locations": "Restaurant/Retail",
        "wines": [
            "Rosé"
        ]
    },
    {
        "id": "QYdiUg8Jl-JWX7Vf_0jov",
        "name": "67 Liquor Shop",
        "address": {
            "street": "179 Columbus Ave, New York, NY 10023",
            "lat": "40.7746082",
            "lon": "-73.9805925"
        },
        "locations": "Retail",
        "wines": [
            "Rosé"
        ]
    },
    {
        "id": "5xrV7BZJ1dG-Ebt8v8Owq",
        "name": "Alewife",
        "address": {
            "street": "3120 E Marshall St., Richmond, VA 23223-7437",
            "lat": "37.5288799",
            "lon": "-77.4116006"
        },
        "locations": "Restaurant",
        "wines": [
            "Pétillant Naturel White"
        ]
    },
    {
        "id": "QdLYkPgRYh77PVlQCHq38",
        "name": "Arrowine",
        "address": {
            "street": "4508 Lee Hwy, Arlington, VA 22207",
            "lat": "38.8983733",
            "lon": "-77.1183586"
        },
        "locations": "Retail",
        "wines": [
            "Rosé"
        ]
    },
    {
        "id": "gya1IinI0ucI3p1RI5AbC",
        "name": "Broken Tulip",
        "address": {
            "street": "3129 W. Cary Street, Richmond, VA 23221",
            "lat": "37.5532674",
            "lon": "-77.481503"
        },
        "locations": "Restaurant",
        "wines": [
            "Pétillant Naturel White",
            "Young Wine Chambourcin"
        ]
    },
    {
        "id": "Dlvf-wOkfO_hYzlzFL2xS",
        "name": "Blacksburg Wine Lab",
        "address": {
            "street": "400 Turner St. NW, Blacksburg, VA 24060",
            "lat": "37.2331938",
            "lon": "-80.421742"
        },
        "locations": "Restaurant",
        "wines": [
            "Foothills"
        ]
    },
    {
        "id": "nJ9NQJ7qro7Y2g70Evk3J",
        "name": "Buck's Fishing",
        "address": {
            "street": "5031 Connecticut Ave NW, Washington, DC 20008",
            "lat": "38.955832",
            "lon": "-77.0698701"
        },
        "locations": "Restaurant",
        "wines": [
            "Rosé"
        ]
    },
    {
        "id": "Ffc4MX6c2uj7UoR1NZxqb",
        "name": "Common House",
        "address": {
            "street": "206 West Market Street, Charlottesville, VA 22902",
            "lat": "38.0317194",
            "lon": "-78.4822538"
        },
        "locations": "Restaurant",
        "wines": [
            "Eluvium",
            "Petit Manseng",
            "Rosé",
            "Pétillant Naturel White"
        ]
    },
    {
        "id": "hFj54YqFPkd--laFuYUY5",
        "name": "Chain Bridge Cellars",
        "address": {
            "street": "1351 Chain Bridge Rd, McLean, VA 22101",
            "lat": "38.9385421",
            "lon": "-77.1746454"
        },
        "locations": "Retail",
        "wines": [
            "Foothills"
        ]
    },
    {
        "id": "dph9mA5bKGcsfMhdFmV7V",
        "name": "Crystal City Wine Shop",
        "address": {
            "street": "220 20th St. South, Arlington, VA 22202",
            "lat": "38.85597",
            "lon": "-77.0500304"
        },
        "locations": "Retail",
        "wines": [
            "Rosé"
        ]
    },
    {
        "id": "FhBIIsUxNShhYy1_CKU0N",
        "name": "Ellwood Thompson",
        "address": {
            "street": "4 N Thompson St, Richmond, VA 23221",
            "lat": "37.5574421",
            "lon": "-77.4886194"
        },
        "locations": "Retail",
        "wines": [
            "Rosé"
        ]
    },
    {
        "id": "vaCjY-OfWtG5526Qedq7A",
        "name": "Grisette",
        "address": {
            "street": "3119 East Marshall Street, Richmond, VA 23223",
            "lat": "37.528621",
            "lon": "-77.4119182"
        },
        "locations": "Restaurant",
        "wines": [
            "Petit Manseng"
        ]
    },
    {
        "id": "spDIAT-dGT1PZzSuK366Q",
        "name": "Heirloom Café",
        "address": {
            "street": "815 N Chase St, Athens, GA 30601",
            "lat": "33.9663133",
            "lon": "-83.3931064"
        },
        "locations": "Restaurant/Retail",
        "wines": [
            "Rosé"
        ]
    },
    {
        "id": "EY5Kdn82vMMvY6hsYtSZF",
        "name": "La Fromagerie",
        "address": {
            "street": "1222 King St, Alexandria, VA 22314-2927",
            "lat": "38.805648",
            "lon": "-77.053429"
        },
        "locations": "Restaurant/Retail",
        "wines": [
            "Pétillant Naturel White",
            "Quaker Run Chardonnay",
            "Rosé"
        ]
    },
    {
        "id": "V5ozwNG69sDqNa5fGNUkn",
        "name": "Libbie Market",
        "address": {
            "street": "400 Libbie Ave., Richmond, VA 23226",
            "lat": "37.5746309",
            "lon": "-77.5183971"
        },
        "locations": "Retail",
        "wines": [
            "Eluvium",
            "Rosé"
        ]
    },
    {
        "id": "TSg17cX2U0Jk_wBPLx-k_",
        "name": "Kings County Wines",
        "address": {
            "street": "1420 Cortelyou Rd, Brooklyn, NY 11226",
            "lat": "40.6409745",
            "lon": "-73.9644848"
        },
        "locations": "Retail",
        "wines": [
            "Foothills"
        ]
    },
    {
        "id": "g4WOkt_DZgWMCcBZnYE4d",
        "name": "Market Street Wine Shop",
        "address": {
            "street": "311 East Market St, Charlottesville, VA 22902",
            "lat": "38.0310663",
            "lon": "-78.4789692"
        },
        "locations": "Retail",
        "wines": [
            "Foothills",
            "Pétillant Naturel White",
            "Rosé"
        ]
    },
    {
        "id": "6hngp-xuDtXfsxq_jsmCr",
        "name": "Locke Store",
        "address": {
            "street": "2049 Millwood Rd., Millwood, VA 22646",
            "lat": "39.0695452",
            "lon": "-78.0379379"
        },
        "locations": "Retail",
        "wines": [
            "Pétillant Naturel White"
        ]
    },
    {
        "id": "cDXKVItd4Rkb4_RayOk1V",
        "name": "Mount Airy Winegrowers LLC",
        "address": {
            "street": "1609 Lee Highway, Fort Defiance, VA 24437",
            "lat": "38.2353215",
            "lon": "-78.976582"
        },
        "locations": "Retail",
        "wines": [
            "Pétillant Naturel White"
        ]
    },
    {
        "id": "-rtt96MHhvl-dfqFEeBNv",
        "name": "Newtown Baking",
        "address": {
            "street": "960 W Beverlely Street, Staunton, VA 244001",
            "lat": "38.1496916",
            "lon": "-79.0738108"
        },
        "locations": "Retail",
        "wines": [
            "Foothills"
        ]
    },
    {
        "id": "__jq_oKvtEMTgJw5K0NpH",
        "name": "Rio Hill Wine & Beer",
        "address": {
            "street": "1908 Rio Hill Center, Charlottesville, VA 22901",
            "lat": "38.0877905",
            "lon": "-78.4749043"
        },
        "locations": "Retail",
        "wines": [
            "Foothills",
            "Shenandoah Valley Cabernet Franc"
        ]
    },
    {
        "id": "K1We-lCigeCUgasLRqlFn",
        "name": "Odd Provisions",
        "address": {
            "street": "3301 11th Street NW, Washington, DC 20010",
            "lat": "38.9309006",
            "lon": "-77.0278015"
        },
        "locations": "Retail",
        "wines": [
            "Rosé",
            "Pétillant Naturel White"
        ]
    },
    {
        "id": "Sw_9Tz0yjWlTTt_k3sts9",
        "name": "Salisbury Country Club",
        "address": {
            "street": "13620 W. Salisbury Rd, Midlothian, VA 23113",
            "lat": "37.5278854",
            "lon": "-77.6533788"
        },
        "locations": "Restaurant",
        "wines": [
            "Rosé",
            "Shenandoah Valley Cabernet Franc"
        ]
    },
    {
        "id": "ty3iaoPNHqA8X5h8BJX31",
        "name": "Screwtop",
        "address": {
            "street": "1025 Fillmore St. N, Arlington, VA 22201",
            "lat": "38.8859072",
            "lon": "-77.0926894"
        },
        "locations": "Restaurant/Retail",
        "wines": [
            "Rosé",
            "Eluvium"
        ]
    },
    {
        "id": "QWNLFToa7t7XeMy73dSs4",
        "name": "Unwined Belle View",
        "address": {
            "street": "1600 Belle View Blvd., Alexandria, VA 22307",
            "lat": "38.7761672",
            "lon": "-77.0597746"
        },
        "locations": "Retail",
        "wines": [
            "Shenandoah Valley Cabernet Franc",
            "Eluvium"
        ]
    },
    {
        "id": "7KdaTiuxCsJ6jhO9ttiuG",
        "name": "Unwined Bradlee Shopping Center",
        "address": {
            "street": "3690-J King St, Alexandria, VA 22302",
            "lat": "38.8296628",
            "lon": "-77.0921948"
        },
        "locations": "Retail",
        "wines": [
            "Rosé"
        ]
    },
    {
        "id": "vcr03WS7TUo5pfsYpqs5T",
        "name": "Vino Market",
        "address": {
            "street": "3730 Winterfield Rd., Midlothian, VA 23113",
            "lat": "37.5535346",
            "lon": "-77.6685934"
        },
        "locations": "Retail",
        "wines": [
            "Rosé"
        ]
    },
    {
        "id": "NM24xnXxy1_pU2gxVDBmI",
        "name": "Vintage Cellar",
        "address": {
            "street": "1338 South Main St., Blacksburg, VA 24060",
            "lat": "37.215963",
            "lon": "-80.402101"
        },
        "locations": "Retail",
        "wines": [
            "Foothills"
        ]
    },
    {
        "id": "03Svv37tECtCtSmDJaHag",
        "name": "Vyne Yard",
        "address": {
            "street": "594 Rogers Ave, Brooklyn, NY 11225",
            "lat": "40.6571942",
            "lon": "-73.9534567"
        },
        "locations": "Retail",
        "wines": [
            "Rosé"
        ]
    },
    {
        "id": "HjPPsvjM6CIDBrqNvtW7x",
        "name": "Whole Foods - West Broad",
        "address": {
            "street": "2024 W Broad Street, Richmond, VA 23220",
            "lat": "37.5581958",
            "lon": "-77.4612166"
        },
        "locations": "Restaurant/Retail",
        "wines": [
            "Rosé"
        ]
    },
    {
        "id": "7O3gIol_twuUMPfp3kwgC",
        "name": "Wine Seller - Williamsburg",
        "address": {
            "street": "4680 Monticello Ave Suite 15, Williamsburg, VA 23188",
            "lat": "37.2719211",
            "lon": "-76.7595155"
        },
        "locations": "Retail",
        "wines": [
            "Rosé"
        ]
    },
    {
        "id": "8z3OmdQr6vymjd3XI8wki",
        "name": "Barrel Chest",
        "address": {
            "street": "4035 Electric Rd. #B, Roanoke, VA 24018",
            "lat": "37.2235279",
            "lon": "-79.982868"
        },
        "locations": "Retail",
        "wines": [
            "Five Forks"
        ]
    },
    {
        "id": "Y8FATN7sevYgypLlseoa_",
        "name": "Blanca",
        "address": {
            "street": "4117 Granby St Ste A, Norfolk, VA 23504",
            "lat": "36.8846514",
            "lon": "-76.2818304"
        },
        "locations": "Restaurant",
        "wines": [
            "Petit Manseng"
        ]
    },
    {
        "id": "yrhe8qMZFJA1jbQu6KYp0",
        "name": "City Vino",
        "address": {
            "street": "810 Caroline St Suite 101, Fredericksburg, VA 22401",
            "lat": "38.3019961",
            "lon": "-77.4590376"
        },
        "locations": "Retail",
        "wines": [
            "Rosé",
            "Eluvium",
            "Young Wine",
            "Five Forks"
        ]
    },
    {
        "id": "Iqae4esXUSgg7IqH6gX4B",
        "name": "Caboose",
        "address": {
            "street": "108 S. Railroad Ave., Ashland, VA 23005",
            "lat": "37.758286",
            "lon": "-77.4816338"
        },
        "locations": "Restaurant/Retail",
        "wines": [
            "Foothills"
        ]
    },
    {
        "id": "gBv0WNrtFunv4P9QxzdPi",
        "name": "Common House",
        "address": {
            "street": "206 West Market Street, Charlottesville, VA 22902",
            "lat": "38.0317194",
            "lon": "-78.4822538"
        },
        "locations": "Restaurant",
        "wines": [
            "Rosé"
        ]
    },
    {
        "id": "L1r-TebnXXW88uz5BG3QR",
        "name": "Commune - Virginia Beach",
        "address": {
            "street": "501 Virginia Beach Blvd. Ste. B, Virginia Beach, VA 23451",
            "lat": "36.8441296",
            "lon": "-75.9793877"
        },
        "locations": "Restaurant",
        "wines": [
            "Foothills"
        ]
    },
    {
        "id": "9WG-spRlAYYjokh6Fi9LL",
        "name": "Fat Canary",
        "address": {
            "street": "The Cheese Shop of VA, Inc., Williamsburg, VA 23185",
            "lat": "37.2706994",
            "lon": "-76.7061859"
        },
        "locations": "Restaurant",
        "wines": [
            "Five Forks"
        ]
    },
    {
        "id": "jC_QSpghSsGW98sF5R9Df",
        "name": "Field & Main",
        "address": {
            "street": "8369 W. Main St., Marshall, VA 20115",
            "lat": "38.8647631",
            "lon": "-77.8574303"
        },
        "locations": "Restaurant/Retail",
        "wines": [
            "Red Vine"
        ]
    },
    {
        "id": "dfeIdGKGqTOafAdHAfoN-",
        "name": "Foods of All Nations",
        "address": {
            "street": "2121 Ivy Rd, Charlottesville, VA 22903",
            "lat": "38.0432978",
            "lon": "-78.5119067"
        },
        "locations": "Retail",
        "wines": [
            "Foothills"
        ]
    },
    {
        "id": "m1HdRxif2bu2wW0DZnJbl",
        "name": "Founding Farmers - DC",
        "address": {
            "street": "1924 Pennsylvania Ave. NW, Washington, DC 20006",
            "lat": "38.9002854",
            "lon": "-77.0445269"
        },
        "locations": "Restaurant",
        "wines": [
            "Rosé"
        ]
    },
    {
        "id": "3PjIsE4BwO5G89AUAaSIC",
        "name": "Fort Lewis Lodge",
        "address": {
            "street": "603 Old Plantation Way, Millboro, VA 24460",
            "lat": "38.114054",
            "lon": "-79.6110139"
        },
        "locations": "Retail",
        "wines": [
            "Foothills",
            "Young Wine"
        ]
    },
    {
        "id": "ZmR6UNOdt4d6lgKPxAwti",
        "name": "Founding Farmers - Tyson's Corner",
        "address": {
            "street": "1800 Tyson's Blvd., McLean, VA 22102",
            "lat": "38.9223637",
            "lon": "-77.2224625"
        },
        "locations": "Restaurant",
        "wines": [
            "Rosé"
        ]
    },
    {
        "id": "kQNmO3KVm-BMZR4Lk7qhB",
        "name": "Frankly Wines",
        "address": {
            "street": "66 West Broadway, New York, NY 10007",
            "lat": "40.7146846",
            "lon": "-74.0101186"
        },
        "locations": "Retail",
        "wines": [
            "Rosé"
        ]
    },
    {
        "id": "7FWkUEV3Td7WeZGIsn9bz",
        "name": "Friendly City Food Co-op",
        "address": {
            "street": "150 E Wolfe St, Harrisonburg, VA 22802",
            "lat": "38.4516609",
            "lon": "-78.8665291"
        },
        "locations": "Retail",
        "wines": [
            "Pétillant Naturel White"
        ]
    },
    {
        "id": "mele-ZhxXTgR2ikfMrJnl",
        "name": "Jackson River Cellars",
        "address": {
            "street": "180 Oakley Farm Ln, Warm Springs, VA 24484",
            "lat": "38.0425248",
            "lon": "-79.7906726"
        },
        "locations": "Retail",
        "wines": [
            "Young Wine",
            "Pétillant Naturel White"
        ]
    },
    {
        "id": "O92nV4J8Xe1gb2Fal619e",
        "name": "Good Wine",
        "address": {
            "street": "327 5th Avenue, Brooklyn, NY 11215",
            "lat": "40.6724091",
            "lon": "-73.9833358"
        },
        "locations": "Retail",
        "wines": [
            "Rosé"
        ]
    },
    {
        "id": "8BPDGmbjA1ldHoFIgx0Qm",
        "name": "Libbie Market",
        "address": {
            "street": "400 Libbie Ave., Richmond, VA 23226",
            "lat": "37.5746309",
            "lon": "-77.5183971"
        },
        "locations": "Retail",
        "wines": [
            "Eluvium"
        ]
    },
    {
        "id": "rDL4cNLJh50aiApLSGiY3",
        "name": "Little Red Fox",
        "address": {
            "street": "5035 Connecticut Ave. NW, Washington, DC 20008",
            "lat": "38.9558822",
            "lon": "-77.0699601"
        },
        "locations": "Restaurant/Retail",
        "wines": [
            "Pétillant Naturel White"
        ]
    },
    {
        "id": "2pW758cdzb_kzu8XKmpff",
        "name": "Norm's Beer & Wine",
        "address": {
            "street": "136 Branch Rd SE, Vienna, VA 22180",
            "lat": "38.9062317",
            "lon": "-77.257151"
        },
        "locations": "Retail",
        "wines": [
            "Rosé"
        ]
    },
    {
        "id": "7PmMgr_tEmczGl-UyGSDH",
        "name": "Nota Bene",
        "address": {
            "street": "2110 E Main St., Richmond, VA 23223",
            "lat": "37.5311605",
            "lon": "-77.4243981"
        },
        "locations": "Restaurant",
        "wines": [
            "Five Forks"
        ]
    },
    {
        "id": "i-ewDuZ48wSFmWOnonCgZ",
        "name": "Pendulum Fine Meats",
        "address": {
            "street": "820 Shirley Avenue, Norfolk, VA 23517",
            "lat": "36.8683635",
            "lon": "-76.2987524"
        },
        "locations": "Retail",
        "wines": [
            "Rosé"
        ]
    },
    {
        "id": "6ImJF1iSzk18oyZRhnDOY",
        "name": "Red Hen-DC",
        "address": {
            "street": "1822 1st St. NW, Washington, DC 20001",
            "lat": "38.9149738",
            "lon": "-77.0124095"
        },
        "locations": "Restaurant",
        "wines": [
            "Rosé"
        ]
    },
    {
        "id": "8x83Nk43oGcN8Hd_dByuS",
        "name": "Succotash",
        "address": {
            "street": "915 F St. NW, Washington, DC 20004",
            "lat": "38.897644",
            "lon": "-77.02474"
        },
        "locations": "Restaurant",
        "wines": [
            "Five Forks"
        ]
    },
    {
        "id": "5QBrH1igyDAErYYg-aYXL",
        "name": "The Inn at Meander Plantation",
        "address": {
            "street": "2333 N James Madison Hwy, Locust Dale, VA 22948",
            "lat": "38.3494656",
            "lon": "-78.118313"
        },
        "locations": "Restaurant",
        "wines": [
            "Rosé",
            "Petit Manseng",
            "Foothills",
            "Shenandoah Valley Cabernet Franc"
        ]
    },
    {
        "id": "6vQCMfg4dE7ae4kdl6e-C",
        "name": "The Market at Grelen",
        "address": {
            "street": "15091 Yager Rd, Somerset, VA 22972",
            "lat": "38.199417",
            "lon": "-78.194607"
        },
        "locations": "Restaurant/Retail",
        "wines": [
            "Rosé",
            "Chardonnay"
        ]
    },
    {
        "id": "hmer4R7EuYCXlYmkt7R80",
        "name": "Town Duck",
        "address": {
            "street": "100 Main St, Warrenton, VA 20186",
            "lat": "38.7122701",
            "lon": "-77.7930779"
        },
        "locations": "Retail",
        "wines": [
            "Foothills",
            "Five Forks"
        ]
    },
    {
        "id": "hw97S3h8xeHktM1IWCn2n",
        "name": "Thamee",
        "address": {
            "street": "1320 H St NE, Washington, DC 20002",
            "lat": "38.9004226",
            "lon": "-76.9874602"
        },
        "locations": "Restaurant",
        "wines": [
            "Young Wine"
        ]
    },
    {
        "id": "4nCtX73CQl4AbCdHaqbde",
        "name": "Westside Produce & Provisions",
        "address": {
            "street": "5015 Colley Ave., Norfolk, VA 23508",
            "lat": "36.8890919",
            "lon": "-76.2954496"
        },
        "locations": "Retail",
        "wines": [
            "Chardonnay"
        ]
    },
    {
        "id": "xPad1Jd83JLJagOjMfrjX",
        "name": "Whole Foods - Arlington",
        "address": {
            "street": "2700 Wilson Blvd., Arlington, VA 22201",
            "lat": "38.8892254",
            "lon": "-77.0912401"
        },
        "locations": "Restaurant/Retail",
        "wines": [
            "Five Forks"
        ]
    },
    {
        "id": "G36FrF29h8CogKGWAFUl_",
        "name": "Whole Foods - Short Pump",
        "address": {
            "street": "11173 West Broad St., Richmond, VA 23060",
            "lat": "37.6475665",
            "lon": "-77.5997292"
        },
        "locations": "Restaurant/Retail",
        "wines": [
            "Foothills"
        ]
    },
    {
        "id": "OU0jz5TGiTWURq2SaLXm6",
        "name": "Whole Foods - South Capitol Hill",
        "address": {
            "street": "101 H St. SE, Washington, DC 20003",
            "lat": "38.8802819",
            "lon": "-77.005121"
        },
        "locations": "Restaurant/Retail",
        "wines": [
            "Rosé",
            "Five Forks"
        ]
    },
    {
        "id": "VhJA7_9UxdctIDaZ6TCe9",
        "name": "Wine Guild",
        "address": {
            "street": "221 Carlton Rd, Suite 1, Charlottesville, VA 22902",
            "lat": "38.0236619",
            "lon": "-78.4696887"
        },
        "locations": "Retail",
        "wines": [
            "Young Wine",
            "Rosé"
        ]
    },
    {
        "id": "2Qwe7f1XH5zaVuLCokuAH",
        "name": "Wool Factory, The",
        "address": {
            "street": "1837 Broadway Street, Charlottesville, VA 22902",
            "lat": "38.0201796",
            "lon": "-78.4580027"
        },
        "locations": "Restaurant/Retail",
        "wines": [
            "Foothills",
            "Rosé",
            "Eluvium",
            "Five Forks",
            "Pétillant Naturel White",
            "Young Wine"
        ]
    },
    {
        "id": "e1kDxzq3VFlKxQr-yj6Ng",
        "name": "Williamsburg Winery",
        "address": {
            "street": "5800 Wessex Hundred, Williamsburg, VA 23185",
            "lat": "37.2315138",
            "lon": "-76.718275"
        },
        "locations": "Restaurant/Retail",
        "wines": [
            "Rosé",
            "Eluvium"
        ]
    },
    {
        "id": "6pvPrGGCGr1A9dDleClIF",
        "name": "Copake Wine Works",
        "address": {
            "street": "69 Main St, Copake, NY 12516",
            "lat": "42.1040725",
            "lon": "-73.5494551"
        },
        "locations": "Restaurant/Retail",
        "wines": [
            "Chardonnay"
        ]
    },
    {
        "id": "36AxSq1xDUNG6PCAP6yQ6",
        "name": "Olivino",
        "address": {
            "street": "905 Fulton Street, Broooklyn, NY 11238",
            "lat": "40.6837237",
            "lon": "-73.9671635"
        },
        "locations": "Retail",
        "wines": [
            "Chardonnay",
            "Rosé"
        ]
    },
    {
        "id": "Kr7OO50DGcUI1Oa3HWA1T",
        "name": "Buckhead's Chop House",
        "address": {
            "street": "8510 Patterson Ave., Richmond, VA 23229",
            "lat": "37.5951667",
            "lon": "-77.5639423"
        },
        "locations": "Restaurant",
        "wines": [
            "Eluvium"
        ]
    },
    {
        "id": "BfJ3MxnAuFR54UYYUkHxq",
        "name": "Lafayette Inn",
        "address": {
            "street": "146 Main St, Stanardsville, VA 22973",
            "lat": "38.2973151",
            "lon": "-78.4385435"
        },
        "locations": "Restaurant",
        "wines": [
            "Eluvium",
            "Five Forks",
            "Shenandoah Valley Cabernet Franc"
        ]
    },
    {
        "id": "oygrZIzaZnpns9KtoA-Qj",
        "name": "Mom's Apple Pie",
        "address": {
            "street": "126 A Commerce St, Occoquan Historic Dist., VA 22125",
            "lat": "38.6822873",
            "lon": "-77.2600693"
        },
        "locations": "Retail",
        "wines": [
            "Eluvium",
            "Pétillant Naturel White",
            "Petit Manseng"
        ]
    },
    {
        "id": "382o_em_264SNXYcgReLm",
        "name": "Mom's Apple Pie Hill High",
        "address": {
            "street": "35246 Harry Byrd Hwy Ste. 100, Round Hill, VA 20141",
            "lat": "39.1277991",
            "lon": "-77.7873132"
        },
        "locations": "Retail",
        "wines": [
            "Eluvium",
            "Pétillant Naturel White"
        ]
    },
    {
        "id": "B8w4bXF-xEhLUO3KmjLIX",
        "name": "Roosevelt",
        "address": {
            "street": "623 N. 25th St., Richmond, VA 23223",
            "lat": "37.534897",
            "lon": "-77.4154189"
        },
        "locations": "Restaurant",
        "wines": [
            "Five Forks"
        ]
    },
    {
        "id": "pEG97gCJ64D9CfC2jTqZR",
        "name": "Tall Boy Beverage Co.",
        "address": {
            "street": "2095 South Milledge, Athens, GA 30605",
            "lat": "33.9229175",
            "lon": "-83.377894"
        },
        "locations": "Restaurant/Retail",
        "wines": [
            "Five Forks",
            "Rosé"
        ]
    },
    {
        "id": "RPHdm726yJuLOeQ8T5RHz",
        "name": "Whole Foods - Florida Ave",
        "address": {
            "street": "FAV - BU# 10651, Washington, DC 20001",
            "lat": "38.912068",
            "lon": "-77.0190228"
        },
        "locations": "Restaurant/Retail",
        "wines": [
            "Five Forks",
            "Rosé"
        ]
    },
    {
        "id": "wizNYuGDcXAaGE8pF9N-o",
        "name": "Whole Foods - Tenley",
        "address": {
            "street": "4530 40th Street NW, Washington, DC 20016",
            "lat": "38.9490789",
            "lon": "-77.0792007"
        },
        "locations": "Restaurant/Retail",
        "wines": [
            "Five Forks"
        ]
    },
    {
        "id": "7wWRNFZJ-_vxP7oSrDnvk",
        "name": "Wool Factory, The",
        "address": {
            "street": "1837 Broadway Street, Charlottesville, VA 22902",
            "lat": "38.0195964",
            "lon": "-78.4553634"
        },
        "locations": "Restaurant/Retail",
        "wines": [
            "Five Forks",
            "Foothills",
            "Rosé",
            "Young Wine"
        ]
    },
    {
        "id": "IbsNtn7m098ufUbRjE9ej",
        "name": "Shields Market",
        "address": {
            "street": "206 North Shields Avenue, Richmond, VA 23220",
            "lat": "37.5530887",
            "lon": "-77.4668696"
        },
        "locations": "Restaurant/Retail",
        "wines": [
            "Foothills"
        ]
    },
    {
        "id": "Vlx1tePS61kEWNMGTJS--",
        "name": "Irving Bottle",
        "address": {
            "street": "155 Irving Ave, Brooklyn, NY 11237",
            "lat": "40.7026833",
            "lon": "-73.9205791"
        },
        "locations": "Retail",
        "wines": [
            "Pétillant Naturel White",
            "Young Wine"
        ]
    },
    {
        "id": "3IcJ8GCTq9-c1BUwmABve",
        "name": "Mom's Apple Pie Hill High",
        "address": {
            "street": "35246 Harry Byrd Hwy Ste. 100, Round Hill, VA 20141",
            "lat": "39.1277991",
            "lon": "-77.7873132"
        },
        "locations": "Retail",
        "wines": [
            "Petit Manseng"
        ]
    },
    {
        "id": "HEaENmJqLbWYMD6cfQ3jE",
        "name": "Slope Cellars",
        "address": {
            "street": "436 7th Ave, Brooklyn, NY 11215",
            "lat": "40.6635697",
            "lon": "-73.9846443"
        },
        "locations": "Restaurant/Retail",
        "wines": [
            "Quaker Run Chardonnay",
            "Young Wine"
        ]
    },
    {
        "id": "HG4gNYBsOGNdhPMphW01M",
        "name": "All Purpose Pizzeria - Waterfront",
        "address": {
            "street": "79 Potomac Ave SE, Washington, DC 20003",
            "lat": "38.871234",
            "lon": "-77.0072947"
        },
        "locations": "Restaurant",
        "wines": [
            "Rosé"
        ]
    },
    {
        "id": "PGCVEpfZGzUlyTUwCw7QQ",
        "name": "Barcelona Wine Store",
        "address": {
            "street": "280 Elizabeth Street, Atlanta, GA 30307",
            "lat": "33.7620933",
            "lon": "-84.3583112"
        },
        "locations": "Restaurant/Retail",
        "wines": [
            "Rosé"
        ]
    },
    {
        "id": "_1BrL3UngkrC9yFSRBTSl",
        "name": "Glen Manor Vineyards LLC",
        "address": {
            "street": "2244 Browntown Road, Front Royal, VA 22630",
            "lat": "38.840197",
            "lon": "-78.228299"
        },
        "locations": "Restaurant",
        "wines": [
            "Rosé"
        ]
    },
    {
        "id": "nfTXKvmb7AmoAMG9jRudm",
        "name": "Kinship",
        "address": {
            "street": "1015 7th St NW, Washington, DC 20001",
            "lat": "38.9035135",
            "lon": "-77.0216296"
        },
        "locations": "Restaurant",
        "wines": [
            "Rosé"
        ]
    },
    {
        "id": "AInzCwdPrqKW93RHXLqrn",
        "name": "My Friends Bottle Shop",
        "address": {
            "street": "275 Memorial Drive SE, Atlanta, GA 30312",
            "lat": "33.7464701",
            "lon": "-84.3784358"
        },
        "locations": "Restaurant/Retail",
        "wines": [
            "Rosé"
        ]
    },
    {
        "id": "tosvOt7Q9G5RyC1kYu1lA",
        "name": "Sorso Wine Boutique",
        "address": {
            "street": "1069 Bedford Ave, Brooklyn, NY 11216",
            "lat": "40.6874318",
            "lon": "-73.954402"
        },
        "locations": "Retail",
        "wines": [
            "Rosé",
            "RISE"
        ]
    },
    {
        "id": "MKD9PMYXM8zy7hlHJyPwH",
        "name": "Red Hen-DC",
        "address": {
            "street": "1822 1st St. NW, Washington, DC 20001",
            "lat": "38.9149738",
            "lon": "-77.0124095"
        },
        "locations": "Restaurant",
        "wines": [
            "Rosé"
        ]
    },
    {
        "id": "5VFu4UK5sH-BazV6EhgTU",
        "name": "Whole Foods - Charlottesville",
        "address": {
            "street": "1797 Hydraulic Road, Charlottesville, VA 22901",
            "lat": "38.059773",
            "lon": "-78.4891351"
        },
        "locations": "Restaurant/Retail",
        "wines": [
            "Rosé"
        ]
    },
    {
        "id": "dEqNjXoJhKLIQoLrI69iJ",
        "name": "Whole Foods - Old Town",
        "address": {
            "street": "1700 Duke Street, Alexandria, VA 22314",
            "lat": "38.8041416",
            "lon": "-77.0600615"
        },
        "locations": "Restaurant/Retail",
        "wines": [
            "Rosé"
        ]
    },
    {
        "id": "pk49qXlRIrrA4Gfh6k0cz",
        "name": "Whole Foods - Florida Ave",
        "address": {
            "street": "FAV - BU# 10651, Washington, DC 20001",
            "lat": "38.912068",
            "lon": "-77.0190228"
        },
        "locations": "Restaurant/Retail",
        "wines": [
            "Rosé"
        ]
    },
    {
        "id": "-S1cq45xbil9ZYg_lp2hY",
        "name": "Whole Foods - South Capitol Hill",
        "address": {
            "street": "101 H St. SE, Washington, DC 20003",
            "lat": "38.8802819",
            "lon": "-77.005121"
        },
        "locations": "Restaurant/Retail",
        "wines": [
            "Rosé"
        ]
    },
    {
        "id": "UddWqz2z-60JljpabJCwk",
        "name": "Primland Resort",
        "address": {
            "street": "2000 Busted Rock Road, Meadows of Dan, VA 24120",
            "lat": "36.6617827",
            "lon": "-80.4318697"
        },
        "locations": "Restaurant",
        "wines": [
            "Shenandoah Valley Cabernet Franc"
        ]
    },