[
    {
        "id": "hHvFr-KdtPTEWLB5FddmB",
        "name": "Green Room, The",
        "address": {
            "street": "130 W Beverly St, Staunton, VA 24401",
            "lat": "38.1492957",
            "lon": "-79.0744866"
        },
        "locations": "Restaurant",
        "wines": [
            "Rosé",
            "Young Wine White",
            "Young Wine Red"
        ]
    },
    {
        "id": "I5sI3Ugtuxq6bsA5T3lNi",
        "name": "Le Vintage",
        "address": {
            "street": "1218 King Street, Alexandria, VA 22314",
            "lat": "38.8057139",
            "lon": "-77.0533207"
        },
        "locations": "Retail",
        "wines": [
            "Shenandoah Valley Cabernet Franc",
            "Eluvium",
            "Pétillant Naturel White",
            "Rosé",
            "Chardonnay"
        ]
    },
    {
        "id": "NYm_lghgnrRLUMfZns9XI",
        "name": "Prosperity Kitchen & Pantry",
        "address": {
            "street": "532 Virginia Beach Blvd Ste B, Virginia Beach, VA 23451",
            "lat": "36.8444829",
            "lon": "-75.9806406"
        },
        "locations": "Restaurant",
        "wines": [
            "Foothills",
            "Rosé"
        ]
    },
    {
        "id": "I6DcdsKcCXmsmWmx-KugM",
        "name": "Roosevelt",
        "address": {
            "street": "623 N. 25th St., Richmond, VA 23223",
            "lat": "37.534897",
            "lon": "-77.4154189"
        },
        "locations": "Restaurant",
        "wines": [
            "Foothills",
            "Five Forks"
        ]
    },
    {
        "id": "nRt55PCySkoSRSDTtTjf2",
        "name": "Balducci's - Alexandria",
        "address": {
            "street": "600 Franklin St, Alexandria, VA 22314",
            "lat": "38.7979287",
            "lon": "-77.0481142"
        },
        "locations": "Restaurant/Retail",
        "wines": [
            "Shenandoah Valley Cabernet Franc",
            "Young Wine Red",
            "Chardonnay",
            "Eluvium"
        ]
    },
    {
        "id": "rrWI9EWJJvRHhKcHB44mw",
        "name": "Capital Ale House - Fairfax",
        "address": {
            "street": "4069 Chain Bridge Rd, Fairfax, VA 22030",
            "lat": "38.8443059",
            "lon": "-77.307364"
        },
        "locations": "Restaurant",
        "wines": [
            "Foothills",
            "Five Forks",
            "Rosé"
        ]
    },
    {
        "id": "r8ZokZR98ru-ciRFRyqHr",
        "name": "Taste - Harbour View",
        "address": {
            "street": "5911 Harbour View Blvd Suite 100, Suffolk, VA 23435",
            "lat": "36.8775617",
            "lon": "-76.4385251"
        },
        "locations": "Retail",
        "wines": [
            "Foothills",
            "Five Forks",
            "Rosé",
            "Eluvium"
        ]
    },
    {
        "id": "76FncRS_pB15lB63yp2Vw",
        "name": "Montgomery Co. Dept. of Liquor Control",
        "address": {
            "street": "Division of Financial, Gaithersburg, MD 20878",
            "lat": "39.1048032",
            "lon": "-77.2520101"
        },
        "locations": "Restaurant",
        "wines": [
            "Rosé"
        ]
    },
    {
        "id": "eAtRuFcM_KVztYeB9CkwA",
        "name": "Norm's Beer & Wine",
        "address": {
            "street": "136 Branch Rd SE, Vienna, VA 22180",
            "lat": "38.9062317",
            "lon": "-77.257151"
        },
        "locations": "Retail",
        "wines": [
            "Quaker Run Chardonnay",
            "Five Forks",
            "Shenandoah Valley Cabernet Franc",
            "Eluvium",
            "Chardonnay",
            "Foothills",
            "Rosé"
        ]
    },
    {
        "id": "cT2dsUHCzABso_hRRsljp",
        "name": "Organic Butcher of McLean",
        "address": {
            "street": "6712 Old Dominion Drive, McLean, VA 22101",
            "lat": "38.9335412",
            "lon": "-77.1758584"
        },
        "locations": "Retail",
        "wines": [
            "Shenandoah Valley Cabernet Franc",
            "Foothills",
            "Quaker Run Cabernet Franc",
            "Petit Manseng",
            "RISE",
            "Rosé",
            "Young Wine Red"
        ]
    },
    {
        "id": "FPVuaO-2X8-bfDgdj1E1F",
        "name": "Alewife",
        "address": {
            "street": "3120 E Marshall St., Richmond, VA 23223",
            "lat": "37.5288308",
            "lon": "-77.4116311"
        },
        "locations": "Restaurant/Retail",
        "wines": [
            "Young Wine White",
            "Five Forks",
            "Pétillant Naturel White",
            "Young Wine Red",
            "Foothills",
            "Rosé"
        ]
    },
    {
        "id": "KrQMsvn0RZHA8k8MYBDSC",
        "name": "NRG - Rustico - Alexandria",
        "address": {
            "street": "827 Slaters Lane, Alexandria, VA 22314",
            "lat": "38.8216366",
            "lon": "-77.0471365"
        },
        "locations": "Restaurant",
        "wines": [
            "Foothills",
            "Rosé"
        ]
    },
    {
        "id": "OUXA4ottB_kPzoWcB2o9C",
        "name": "Whole Foods - Old Town",
        "address": {
            "street": "1700 Duke Street, Alexandria, VA 22314",
            "lat": "38.8041416",
            "lon": "-77.0600615"
        },
        "locations": "Restaurant/Retail",
        "wines": [
            "Young Wine Red",
            "Five Forks",
            "Foothills",
            "Rosé"
        ]
    },
    {
        "id": "clvRWa724nIjfrI_zwG-a",
        "name": "Whole Foods - Glover Park",
        "address": {
            "street": "2323 Wisconsin Ave NW, Washington, DC 20007",
            "lat": "38.9208932",
            "lon": "-77.0711068"
        },
        "locations": "Restaurant/Retail",
        "wines": [
            "Foothills",
            "Five Forks",
            "Rosé"
        ]
    },
    {
        "id": "FC4V5iicRgSwG_d9Ynpf9",
        "name": "Barrel Chest",
        "address": {
            "street": "2601 Franklin Rd. Suite A, Roanoke, VA 24014",
            "lat": "37.2489661",
            "lon": "-79.9590297"
        },
        "locations": "Restaurant/Retail",
        "wines": [
            "Five Forks",
            "Quaker Run Cabernet Franc",
            "Chardonnay",
            "Eluvium",
            "Pétillant Naturel White",
            "Shenandoah Valley Cabernet Franc",
            "Foothills",
            "Petit Manseng",
            "Rosé"
        ]
    },
    {
        "id": "vbVgGFwjnMyYdebhjMwhk",
        "name": "City Vino",
        "address": {
            "street": "810 Caroline St Ste 101, Fredericksburg, VA 22407",
            "lat": "38.3020808",
            "lon": "-77.4587685"
        },
        "locations": "Retail",
        "wines": [
            "Eluvium",
            "Foothills",
            "Five Forks",
            "Shenandoah Valley Cabernet Franc",
            "Chardonnay",
            "RISE"
        ]
    },
    {
        "id": "09TXghjKH4e903-_gncOh",
        "name": "Bluejacket",
        "address": {
            "street": "300 Tingey St. SE, Washington, DC 20374",
            "lat": "38.8751743",
            "lon": "-77.0014763"
        },
        "locations": "Restaurant",
        "wines": [
            "Eluvium",
            "Rosé"
        ]
    },
    {
        "id": "ZHbVePkMJCX1BQdMRU7wD",
        "name": "Friendly City Food Co-op",
        "address": {
            "street": "150 E Wolfe St, Harrisonburg, VA 22802",
            "lat": "38.4516609",
            "lon": "-78.8665291"
        },
        "locations": "Retail",
        "wines": [
            "Foothills",
            "Rosé",
            "Petit Manseng",
            "Pétillant Naturel White"
        ]
    },
    {
        "id": "U-NP-77egIhqPTTDgtry6",
        "name": "Mr. Bill's Wine Cellar",
        "address": {
            "street": "2825 B Brambleton Ave., Roanoke, VA 24015",
            "lat": "37.2438675",
            "lon": "-79.9909672"
        },
        "locations": "Retail",
        "wines": [
            "Young Wine Red"
        ]
    },
    {
        "id": "xBlej6zMNZrjvy0gDd9TH",
        "name": "Roanoke Natural Foods Co-op",
        "address": {
            "street": "1319 Grandin Rd SW, Roanoke, VA 24015",
            "lat": "37.2652232",
            "lon": "-79.9776246"
        },
        "locations": "Retail",
        "wines": [
            "Young Wine White",
            "Foothills",
            "Rosé"
        ]
    },
    {
        "id": "blX2KCWaS0xaezHmksVIu",
        "name": "Organic Butcher of McLean",
        "address": {
            "street": "6712 Old Dominion Drive, McLean, VA 22101",
            "lat": "38.9335412",
            "lon": "-77.1758584"
        },
        "locations": "Retail",
        "wines": [
            "Quaker Run Cabernet Franc",
            "Five Forks",
            "Petit Manseng",
            "Pétillant Naturel Red",
            "Rosé",
            "Young Wine Red"
        ]
    },
    {
        "id": "624TkPdi2VnJTubfoI8yO",
        "name": "Whole Foods - Arlington",
        "address": {
            "street": "2700 Wilson Blvd., Arlington, VA 22201",
            "lat": "38.8890982",
            "lon": "-77.0910708"
        },
        "locations": "Restaurant/Retail",
        "wines": [
            "Five Forks",
            "Rosé"
        ]
    },
    {
        "id": "uGFS3lOipJsmgzFbFCpVF",
        "name": "Whole Foods - Ashburn",
        "address": {
            "street": "19800 Belmont Chase Dr, Ashburn, VA 20147",
            "lat": "39.0686101",
            "lon": "-77.4843579"
        },
        "locations": "Restaurant/Retail",
        "wines": [
            "Foothills",
            "Rosé"
        ]
    },
    {
        "id": "ouG11fxb2tnpL5iyQyXZu",
        "name": "Whole Foods - Fair Lakes",
        "address": {
            "street": "4501 Market Commons Drive, Fairfax, VA 22033",
            "lat": "38.8578497",
            "lon": "-77.377751"
        },
        "locations": "Restaurant/Retail",
        "wines": [
            "Five Forks",
            "Foothills",
            "Rosé",
            "Young Wine Red"
        ]
    },
    {
        "id": "6nIG7ZNg8HgKPg2eaiVvN",
        "name": "Whole Foods - H Street",
        "address": {
            "street": "600-A H Street, NE, Washington, DC 20002",
            "lat": "38.8995727",
            "lon": "-77.0201171"
        },
        "locations": "Restaurant/Retail",
        "wines": [
            "Foothills",
            "Five Forks"
        ]
    },
    {
        "id": "naC3JwdImwL7bPv0K6YdC",
        "name": "Whole Foods - South Capitol Hill",
        "address": {
            "street": "101 H St. SE, Washington, DC 20003",
            "lat": "38.8802819",
            "lon": "-77.005121"
        },
        "locations": "Restaurant/Retail",
        "wines": [
            "Foothills",
            "Five Forks",
            "Rosé"
        ]
    },
    {
        "id": "4nSjZQxDRNbJDa43BR9_6",
        "name": "Barrel Thief",
        "address": {
            "street": "5805 Patterson Ave, Richmond, VA 23226",
            "lat": "37.5794435",
            "lon": "-77.5149812"
        },
        "locations": "Restaurant/Retail",
        "wines": [
            "Chardonnay",
            "Foothills",
            "Young Wine Red",
            "Rosé"
        ]
    },
    {
        "id": "IOP9uEKkwd6d2KRDx2M-D",
        "name": "Blanca",
        "address": {
            "street": "4117 Granby St Ste A, Norfolk, VA 23504",
            "lat": "36.8846487",
            "lon": "-76.2817798"
        },
        "locations": "Restaurant",
        "wines": [
            "Young Wine Red",
            "Young Wine White"
        ]
    },
    {
        "id": "7cgkIKqHyr14a_pAVZuGU",
        "name": "Whole Foods - Tenley",
        "address": {
            "street": "4530 40th Street NW, Washington, DC 20016",
            "lat": "38.9490789",
            "lon": "-77.0792007"
        },
        "locations": "Restaurant/Retail",
        "wines": [
            "Foothills",
            "Five Forks",
            "Rosé"
        ]
    },
    {
        "id": "Bj9ET25YxhSR9zU12UPxV",
        "name": "Corkbuzz",
        "address": {
            "street": "13 E 13th St, New York, NY 10003",
            "lat": "40.7350753",
            "lon": "-73.9931377"
        },
        "locations": "Restaurant",
        "wines": [
            "Young Wine White"
        ]
    },
    {
        "id": "wb_4TQiSEYdZC6hi7GQxc",
        "name": "Fat Canary",
        "address": {
            "street": "The Cheese Shop of VA, Inc. 410 W Duke of Gloucester St, Williamsburg, VA 23185",
            "lat": "37.2706994",
            "lon": "-76.7061859"
        },
        "locations": "Restaurant",
        "wines": [
            "Shenandoah Valley Cabernet Franc",
            "Foothills",
            "Petit Manseng",
            "Eluvium",
            "Rosé",
            "Chardonnay",
            "Five Forks",
            "RISE",
            "Young Wine White",
            "Pétillant Naturel White",
            "Young Wine Red",
            "Pétillant Naturel Red"
        ]
    },
    {
        "id": "iOe18mYa2Qi8oKj9D0Fx_",
        "name": "Ellwood Thompson",
        "address": {
            "street": "4 N Thompson St, Richmond, VA 23221",
            "lat": "37.5574138",
            "lon": "-77.4884332"
        },
        "locations": "Retail",
        "wines": [
            "Shenandoah Valley Cabernet Franc",
            "Eluvium",
            "Foothills",
            "Petit Manseng",
            "Young Wine Red",
            "Chardonnay",
            "Rosé",
            "Young Wine White",
            "Quaker Run Chardonnay",
            "Pétillant Naturel White",
            "Pétillant Naturel Red"
        ]
    },
    {
        "id": "uFmYL6EUdEuALcrJDPS1b",
        "name": "Heirloom",
        "address": {
            "street": "2484 N Landing Rd #113, Virginia Beach, VA 23456",
            "lat": "36.7493526",
            "lon": "-76.0582733"
        },
        "locations": "Restaurant",
        "wines": [
            "Shenandoah Valley Cabernet Franc",
            "Quaker Run Cabernet Franc"
        ]
    },
    {
        "id": "CgKou2m0opIIVAT454up-",
        "name": "Greenwood",
        "address": {
            "street": "6701 Rockfish Gap TPK, Crozet, VA 22932",
            "lat": "38.0413202",
            "lon": "-78.732343"
        },
        "locations": "Retail",
        "wines": [
            "Five Forks",
            "Shenandoah Valley Cabernet Franc",
            "Petit Manseng",
            "Pétillant Naturel White",
            "Foothills",
            "Young Wine White",
            "Eluvium",
            "Pétillant Naturel Red",
            "Rosé",
            "Chardonnay",
            "Young Wine Red",
            "RISE"
        ]
    },
    {
        "id": "oGEKNq0E7LlsMVVSZGAhP",
        "name": "J Emerson",
        "address": {
            "street": "5716 Grove Ave, Richmond, VA 23226",
            "lat": "37.5733362",
            "lon": "-77.5180274"
        },
        "locations": "Retail",
        "wines": [
            "Shenandoah Valley Cabernet Franc",
            "Foothills",
            "Chardonnay",
            "Rosé",
            "Pétillant Naturel White"
        ]
    },
    {
        "id": "KZ1nUw7lgz07isOhyKuj3",
        "name": "Market Street Wine Shop",
        "address": {
            "street": "311 East Market St, Charlottesville, VA 22902",
            "lat": "38.031052",
            "lon": "-78.4789971"
        },
        "locations": "Retail",
        "wines": [
            "Eluvium",
            "Foothills",
            "Five Forks",
            "Petit Manseng",
            "Rosé",
            "Young Wine White",
            "Young Wine Red",
            "Pétillant Naturel White",
            "Pétillant Naturel Red"
        ]
    },
    {
        "id": "RQvdRLiXTc4p1tRzLYI2Y",
        "name": "Live Arts",
        "address": {
            "street": "123 East Water St, Charlottesville, VA 22902",
            "lat": "38.0300169",
            "lon": "-78.4812638"
        },
        "locations": "Restaurant",
        "wines": [
            "Five Forks",
            "Foothills",
            "Young Wine White",
            "Rosé",
            "Young Wine Red"
        ]
    },
    {
        "id": "mod0uZSuboVoiGvXNpGEG",
        "name": "Tinto Wine & Cheese - Chesapeake",
        "address": {
            "street": "236 Carmichael Way #308, Chesapeake, VA 23322",
            "lat": "36.660423",
            "lon": "-76.233525"
        },
        "locations": "Restaurant",
        "wines": [
            "Shenandoah Valley Cabernet Franc",
            "Chardonnay"
        ]
    },
    {
        "id": "h6H02sh5aBUgCpQMHZRkb",
        "name": "Tinto Wine & Cheese - Hilltop",
        "address": {
            "street": "640 Hilltop West Shopping Ctr, Virginia Beach, VA 23451",
            "lat": "36.8524094",
            "lon": "-76.0208537"
        },
        "locations": "Restaurant",
        "wines": [
            "Shenandoah Valley Cabernet Franc",
            "Chardonnay"
        ]
    },
    {
        "id": "k-Y9j6yFma8C-lhNGd_OY",
        "name": "Wool Factory",
        "address": {
            "street": "1837 Broadway Street, Charlottesville, VA 22902",
            "lat": "38.0197143",
            "lon": "-78.4557898"
        },
        "locations": "Restaurant/Retail",
        "wines": [
            "Rosé",
            "Foothills",
            "Young Wine Red",
            "Shenandoah Valley Cabernet Franc",
            "Eluvium",
            "Chardonnay",
            "Young Wine White",
            "Pétillant Naturel White"
        ]
    },
    {
        "id": "hh1ryNG2RYD-7AVO0jgJA",
        "name": "Slope Cellars",
        "address": {
            "street": "436 7th Ave, Brooklyn, NY 11215",
            "lat": "40.6635697",
            "lon": "-73.9846443"
        },
        "locations": "Restaurant/Retail",
        "wines": [
            "Rosé",
            "Young Wine White"
        ]
    },
    {
        "id": "K4LxJKm5mJ-bUU18yRBsb",
        "name": "Dominion Wine and Beer",
        "address": {
            "street": "107 Rowell Ct., Falls Church, VA 22046",
            "lat": "38.889851",
            "lon": "-77.1836308"
        },
        "locations": "Retail",
        "wines": [
            "Foothills",
            "Young Wine White",
            "Rosé",
            "Five Forks"
        ]
    },
    {
        "id": "_zX1C3hCARYzl8L2UR1FA",
        "name": "Knead Wine",
        "address": {
            "street": "5 W Washington Street, Middleburg, VA 20117",
            "lat": "38.9687122",
            "lon": "-77.7358083"
        },
        "locations": "Restaurant",
        "wines": [
            "Eluvium"
        ]
    },
    {
        "id": "9-2IkfSvoLIp2C3HvoSwT",
        "name": "Mom's Apple Pie - Occoquan",
        "address": {
            "street": "126 A Commerce St, Occoquan Historic Dist., VA 22125",
            "lat": "38.6823226",
            "lon": "-77.260111"
        },
        "locations": "Retail",
        "wines": [
            "Shenandoah Valley Cabernet Franc",
            "Five Forks",
            "Chardonnay",
            "Young Wine Red",
            "Rosé",
            "Petit Manseng"
        ]
    },
    {
        "id": "apvlzsiuJUxKEDNFvo4yU",
        "name": "Red Fox Inn",
        "address": {
            "street": "2 E. Washington St., Middleburg, VA 20117",
            "lat": "38.9692453",
            "lon": "-77.7354394"
        },
        "locations": "Restaurant",
        "wines": [
            "Five Forks",
            "Shenandoah Valley Cabernet Franc"
        ]
    },
    {
        "id": "zvtjYstUKWBj7qEi017hQ",
        "name": "Thornton River Grille",
        "address": {
            "street": "Thornton River Grille, Sperryville, VA 22740",
            "lat": "38.657256",
            "lon": "-78.22669"
        },
        "locations": "Restaurant",
        "wines": [
            "Chardonnay",
            "Petit Manseng",
            "Foothills",
            "Rosé",
            "Eluvium",
            "RISE"
        ]
    },
    {
        "id": "NgHK8LUNpSNRvw-KEgWdy",
        "name": "Caboose",
        "address": {
            "street": "108 S. Railroad Ave., Ashland, VA 23005",
            "lat": "37.758286",
            "lon": "-77.4816338"
        },
        "locations": "Restaurant",
        "wines": [
            "Chardonnay",
            "Foothills",
            "Rosé"
        ]
    },
    {
        "id": "Z1lPSlu9JZ_2XqXnSrXtA",
        "name": "Common House- Charlottesville",
        "address": {
            "street": "206 West Market Street, Charlottesville, VA 22902",
            "lat": "38.0317194",
            "lon": "-78.4822538"
        },
        "locations": "Restaurant",
        "wines": [
            "Pétillant Naturel White",
            "RISE"
        ]
    },
    {
        "id": "g2K2LZZuDlJ16yjEd0byG",
        "name": "Rice Market",
        "address": {
            "street": "1608 14th Street NW, Washington, DC 20009",
            "lat": "38.9114915",
            "lon": "-77.0322391"
        },
        "locations": "Restaurant",
        "wines": [
            "Young Wine White",
            "Rosé"
        ]
    },
    {
        "id": "OjTawlVn1fWSV2NZOj9NE",
        "name": "Founding Farmers - DC",
        "address": {
            "street": "1924 Pennsylvania Ave. NW, Washington, DC 20006",
            "lat": "38.8999959",
            "lon": "-77.0443929"
        },
        "locations": "Restaurant",
        "wines": [
            "Rosé"
        ]
    },
    {
        "id": "SSkyEkzQNELzumcvRBGf-",
        "name": "Mona Lisa",
        "address": {
            "street": "921 Preston Ave, Charlottesville, VA 22903",
            "lat": "38.0384553",
            "lon": "-78.4899217"
        },
        "locations": "Retail",
        "wines": [
            "Eluvium",
            "Petit Manseng",
            "Chardonnay",
            "Young Wine Red",
            "Young Wine White",
            "Rosé",
            "Foothills"
        ]
    },
    {
        "id": "XFXEpkSZGunep_C6HokX1",
        "name": "Now & Zen",
        "address": {
            "street": "Pinnacle Planning Inc 202 2nd St NW, Charlottesville, VA 22902",
            "lat": "38.0320115",
            "lon": "-78.4816505"
        },
        "locations": "Restaurant",
        "wines": [
            "Young Wine White",
            "Foothills"
        ]
    },
    {
        "id": "VrUV4zAqAytiqHpxSc7yR",
        "name": "Second Bottle Wine",
        "address": {
            "street": "324 N 27th St Apt. A, Richmond, VA 23223",
            "lat": "37.5314274",
            "lon": "-77.4164175"
        },
        "locations": "Retail",
        "wines": [
            "Foothills",
            "Shenandoah Valley Cabernet Franc",
            "Petit Manseng",
            "Rosé"
        ]
    },
    {
        "id": "SFqjsH-5NaRqp_ahkCHKY",
        "name": "Bingo Beer Co.",
        "address": {
            "street": "2900 W Broad Street, Richmond, VA 23230",
            "lat": "37.5637961",
            "lon": "-77.4716025"
        },
        "locations": "Restaurant",
        "wines": [
            "Young Wine White",
            "Foothills",
            "Rosé"
        ]
    },
    {
        "id": "yQnFYyUjmGxLPd1Groc_F",
        "name": "Bottleworks",
        "address": {
            "street": "3078 Stony Point Rd., Richmond, VA 23235",
            "lat": "37.537796",
            "lon": "-77.5651916"
        },
        "locations": "Retail",
        "wines": [
            "Chardonnay",
            "Foothills"
        ]
    },
    {
        "id": "5e0JyOmNlprqMf7gZdp7w",
        "name": "Vitis Fine Wine",
        "address": {
            "street": "1309 5th St NE #20, Washington, DC 20002",
            "lat": "38.9085998",
            "lon": "-76.997517"
        },
        "locations": "Retail",
        "wines": [
            "Shenandoah Valley Cabernet Franc",
            "Young Wine Red",
            "Rosé",
            "Pétillant Naturel Red"
        ]
    },
    {
        "id": "nNY8Lk_hdeu1tTOtqNmZ6",
        "name": "Capital One Hall",
        "address": {
            "street": "7750 Capital One Tower Rd, Tysons, VA 22102",
            "lat": "38.9253451",
            "lon": "-77.2115263"
        },
        "locations": "Restaurant",
        "wines": [
            "Foothills",
            "Five Forks",
            "Petit Manseng"
        ]
    },
    {
        "id": "y2DXcQOd5IA3OUF6c9arE",
        "name": "Foods of All Nations",
        "address": {
            "street": "2121 Ivy Rd, Charlottesville, VA 22903",
            "lat": "38.042995",
            "lon": "-78.5122433"
        },
        "locations": "Retail",
        "wines": [
            "Foothills",
            "Eluvium",
            "Petit Manseng",
            "Chardonnay",
            "Shenandoah Valley Cabernet Franc",
            "Rosé",
            "Young Wine Red",
            "Young Wine White"
        ]
    },
    {
        "id": "VjktkMX0nro3Uohtvdzh1",
        "name": "Ecco Adesso",
        "address": {
            "street": "340 Ecco Adesso Lane, Fairfield, VA 24435",
            "lat": "37.8359279",
            "lon": "-79.3080881"
        },
        "locations": "Restaurant",
        "wines": [
            "Shenandoah Valley Cabernet Franc",
            "Rosé",
            "RISE"
        ]
    },
    {
        "id": "Od7-DGCKakLCIKASUkMr6",
        "name": "Local Chop & Grill House",
        "address": {
            "street": "56 W Gay St #107, Harrisonburg, VA 22802",
            "lat": "38.4539388",
            "lon": "-78.8683985"
        },
        "locations": "Restaurant",
        "wines": [
            "Shenandoah Valley Cabernet Franc",
            "Eluvium",
            "Rosé"
        ]
    },
    {
        "id": "bAex_S1xYZ_z7B898PuKy",
        "name": "Founding Farmers - Reston",
        "address": {
            "street": "1904 Reston Metro Plaza, Suite 100, Reston, VA 20190",
            "lat": "38.9483265",
            "lon": "-77.3384547"
        },
        "locations": "Restaurant",
        "wines": [
            "Rosé"
        ]
    },
    {
        "id": "uHu4HvbiMtuKoclFdaAId",
        "name": "Middleburg Tennis Club",
        "address": {
            "street": "1777 Zulla Road, Middleburg, VA 20117",
            "lat": "38.9580633",
            "lon": "-77.7638489"
        },
        "locations": "Restaurant",
        "wines": [
            "Foothills",
            "Rosé",
            "Shenandoah Valley Cabernet Franc"
        ]
    },
    {
        "id": "w1gn1-MKc0vcYPfOTUbQA",
        "name": "Succotash",
        "address": {
            "street": "915 F St. NW, Washington, DC 20004",
            "lat": "38.897644",
            "lon": "-77.02474"
        },
        "locations": "Restaurant",
        "wines": [
            "Five Forks"
        ]
    },
    {
        "id": "0g6eHr02Ux11V5f_nB462",
        "name": "Thornton River Grille",
        "address": {
            "street": "Thornton River Grille, Sperryville, VA 22740",
            "lat": "38.657256",
            "lon": "-78.22669"
        },
        "locations": "Restaurant",
        "wines": [
            "Petit Manseng",
            "Rosé",
            "Eluvium",
            "Chardonnay",
            "Foothills",
            "Young Wine White"
        ]
    },
    {
        "id": "DT80TDdP_ltYAFa9U4GN6",
        "name": "Unwined - King St",
        "address": {
            "street": "Bradlee Shopping Center, Alexandria, VA 22302",
            "lat": "38.8286279",
            "lon": "-77.091689"
        },
        "locations": "Retail",
        "wines": [
            "Foothills",
            "Rosé",
            "Eluvium",
            "Shenandoah Valley Cabernet Franc"
        ]
    },
    {
        "id": "_GfIt1_G_n8S8iujSKkg-",
        "name": "Basic City Beer Co.",
        "address": {
            "street": "1010 E Main St, Waynesboro, VA 22980",
            "lat": "38.0634845",
            "lon": "-78.873384"
        },
        "locations": "Restaurant/Retail",
        "wines": [
            "Five Forks"
        ]
    },
    {
        "id": "DDhvWQUB7nqge3Odd-Qm1",
        "name": "Screwtop",
        "address": {
            "street": "1025 Fillmore St. N, Arlington, VA 22201",
            "lat": "38.8859072",
            "lon": "-77.0926894"
        },
        "locations": "Restaurant",
        "wines": [
            "Rosé",
            "Five Forks",
            "Shenandoah Valley Cabernet Franc"
        ]
    },
    {
        "id": "Fxh35NRLsmMaCeitRQgGg",
        "name": "Mona Lisa",
        "address": {
            "street": "921 Preston Ave, Charlottesville, VA 22903",
            "lat": "38.0384553",
            "lon": "-78.4899217"
        },
        "locations": "Retail",
        "wines": [
            "Foothills",
            "Eluvium",
            "Chardonnay"
        ]
    },
    {
        "id": "5BwjU9YPzkfFeX4WFacqX",
        "name": "Barrel Chest",
        "address": {
            "street": "2601 Franklin Rd. Suite A, Roanoke, VA 24014",
            "lat": "37.2489661",
            "lon": "-79.9590297"
        },
        "locations": "Restaurant/Retail",
        "wines": [
            "Petit Manseng",
            "Foothills",
            "Rosé",
            "Eluvium",
            "Pétillant Naturel Red",
            "Five Forks"
        ]
    },
    {
        "id": "ia83P4ZutINPY_huGaY83",
        "name": "Bloom",
        "address": {
            "street": "1109 Main St. SW, Roanoke, VA 24015",
            "lat": "37.264562",
            "lon": "-79.958762"
        },
        "locations": "Restaurant",
        "wines": [
            "Petit Manseng",
            "Shenandoah Valley Cabernet Franc"
        ]
    },
    {
        "id": "XudqvcXPw-f2F5yiL7tha",
        "name": "Chain Bridge Cellars",
        "address": {
            "street": "1351 Chain Bridge Rd, McLean, VA 22101",
            "lat": "38.9385421",
            "lon": "-77.1746454"
        },
        "locations": "Retail",
        "wines": [
            "Foothills"
        ]
    },
    {
        "id": "U7gNYZ74s-RO3nk3uDhN1",
        "name": "Fortunato",
        "address": {
            "street": "301 1st Street SW #300, Roanoke, VA 24011",
            "lat": "37.2710089",
            "lon": "-79.942552"
        },
        "locations": "Restaurant",
        "wines": [
            "Petit Manseng"
        ]
    },
    {
        "id": "I9JonVGTxkmDsorEqzJvo",
        "name": "Town Duck",
        "address": {
            "street": "100 Main St, Warrenton, VA 20186",
            "lat": "38.7122701",
            "lon": "-77.7930779"
        },
        "locations": "Restaurant",
        "wines": [
            "Chardonnay",
            "Petit Manseng",
            "Foothills",
            "Five Forks",
            "Eluvium",
            "Rosé"
        ]
    },
    {
        "id": "qAnVEebJPd4D5AojNtj1E",
        "name": "Founding Farmers - Tyson's Corner",
        "address": {
            "street": "1800 Tyson's Blvd., McLean, VA 22102",
            "lat": "38.9223637",
            "lon": "-77.2224625"
        },
        "locations": "Restaurant",
        "wines": [
            "Rosé"
        ]
    },
    {
        "id": "uodqafYCGHh2ip7PJeD0W",
        "name": "Vanderbilt Wine Merchants",
        "address": {
            "street": "573 Vanderbilt Ave, Broooklyn, NY 11238",
            "lat": "40.6805744",
            "lon": "-73.9674946"
        },
        "locations": "Retail",
        "wines": [
            "Young Wine Red",
            "Young Wine White"
        ]
    },
    {
        "id": "IJ-yW2N7sIMUo_avzxin_",
        "name": "Whole Foods - P Street",
        "address": {
            "street": "1440 P Street NW, Washington, DC 20005",
            "lat": "38.9092854",
            "lon": "-77.0335078"
        },
        "locations": "Restaurant/Retail",
        "wines": [
            "Five Forks",
            "Rosé",
            "Foothills",
            "Young Wine Red"
        ]
    },
    {
        "id": "yMhKRe4S18LUq4GY2VTjZ",
        "name": "Whole Foods - Vienna",
        "address": {
            "street": "143 Maple Ave East, Vienna, VA 22180",
            "lat": "38.9022469",
            "lon": "-77.2626957"
        },
        "locations": "Restaurant/Retail",
        "wines": [
            "Five Forks",
            "Rosé"
        ]
    },
    {
        "id": "L0xnkgQzqQUL_GVEAUp0T",
        "name": "Alley Light",
        "address": {
            "street": "108 2nd St. SW, Charlottesville, VA 22902",
            "lat": "38.0305995",
            "lon": "-78.482276"
        },
        "locations": "Restaurant/Retail",
        "wines": [
            "Shenandoah Valley Cabernet Franc",
            "RISE",
            "Young Wine Red",
            "Foothills"
        ]
    },
    {
        "id": "gm8Zd_9hHeDbaR_0LgbNU",
        "name": "Zynodoa",
        "address": {
            "street": "115 E Beverly St, Staunton, VA 24401",
            "lat": "38.1498169",
            "lon": "-79.0709815"
        },
        "locations": "Restaurant",
        "wines": [
            "Petit Manseng",
            "Eluvium"
        ]
    },
    {
        "id": "Ug6w0oGl5xLu1DKrVNU0O",
        "name": "Ellwood Thompson",
        "address": {
            "street": "4 N Thompson St, Richmond, VA 23221",
            "lat": "37.5574138",
            "lon": "-77.4884332"
        },
        "locations": "Retail",
        "wines": [
            "Foothills",
            "Petit Manseng",
            "Shenandoah Valley Cabernet Franc",
            "Young Wine White",
            "Chardonnay",
            "Rosé",
            "Eluvium",
            "RISE"
        ]
    },
    {
        "id": "vofCIOL0CfaI9oYEd5qN4",
        "name": "Fat Canary",
        "address": {
            "street": "The Cheese Shop of VA, Inc. 410 W Duke of Gloucester St, Williamsburg, VA 23185",
            "lat": "37.2706994",
            "lon": "-76.7061859"
        },
        "locations": "Restaurant",
        "wines": [
            "Eluvium",
            "Rosé",
            "Five Forks",
            "Foothills",
            "Shenandoah Valley Cabernet Franc",
            "Petit Manseng",
            "Chardonnay",
            "Young Wine Red",
            "Pétillant Naturel White",
            "Young Wine White",
            "RISE"
        ]
    },
    {
        "id": "b8OJ5DfVeFg-T0cVutPAS",
        "name": "Four Eleven York",
        "address": {
            "street": "409 W York St, Norfolk, VA 23510",
            "lat": "36.8532742",
            "lon": "-76.2964346"
        },
        "locations": "Restaurant",
        "wines": [
            "Petit Manseng"
        ]
    },
    {
        "id": "ER60-mS4Wz7axk59p65Fy",
        "name": "Mena",
        "address": {
            "street": "28 Cortland Alley, New York, NY 10013",
            "lat": "40.7178922",
            "lon": "-74.0026077"
        },
        "locations": "Restaurant",
        "wines": [
            "Quaker Run Chardonnay",
            "Petit Manseng"
        ]
    },
    {
        "id": "b44qW7n31V5GxIagn4Ofa",
        "name": "Vino Market",
        "address": {
            "street": "3730 Winterfield Rd., Midlothian, VA 23113",
            "lat": "37.5535346",
            "lon": "-77.6685934"
        },
        "locations": "Retail",
        "wines": [
            "Foothills",
            "Five Forks",
            "Rosé"
        ]
    },
    {
        "id": "Ryufmu0VlX2d5XGuSXCTW",
        "name": "Outpost",
        "address": {
            "street": "4813 Forest Hill Ave., Richmond, VA 23225",
            "lat": "37.5211852",
            "lon": "-77.4878087"
        },
        "locations": "Retail",
        "wines": [
            "Foothills",
            "Young Wine White",
            "Shenandoah Valley Cabernet Franc",
            "Young Wine Red",
            "Rosé"
        ]
    },
    {
        "id": "2OEzbK3HynTytz3eXXPde",
        "name": "Whole Foods - Short Pump",
        "address": {
            "street": "11173 West Broad St., Richmond, VA 23060",
            "lat": "37.6475262",
            "lon": "-77.5994359"
        },
        "locations": "Restaurant/Retail",
        "wines": [
            "Five Forks",
            "Rosé",
            "Foothills"
        ]
    },
    {
        "id": "2xPcd8ZhfyG8g2pSZPrZ_",
        "name": "In Vino Veritas",
        "address": {
            "street": "3015 Louisa Rd, Keswick, VA 22947",
            "lat": "38.0134664",
            "lon": "-78.3951928"
        },
        "locations": "Retail",
        "wines": [
            "Foothills",
            "Five Forks"
        ]
    },
    {
        "id": "j2ZRMtu317rWIY3sgrld8",
        "name": "Wine Warehouse",
        "address": {
            "street": "1804 Hydraulic Rd, Charlottesville, VA 22902",
            "lat": "38.0602142",
            "lon": "-78.4904013"
        },
        "locations": "Retail",
        "wines": [
            "Foothills",
            "Shenandoah Valley Cabernet Franc",
            "Quaker Run Chardonnay",
            "Rosé"
        ]
    },
    {
        "id": "MHIS288rgL7uSvSdH7B64",
        "name": "Mae's Market",
        "address": {
            "street": "277 S. Washington Street, Alexandria, VA 22314",
            "lat": "38.80318",
            "lon": "-77.047832"
        },
        "locations": "Retail",
        "wines": [
            "Young Wine Red",
            "Rosé",
            "Young Wine White",
            "Chardonnay",
            "Quaker Run Chardonnay",
            "Eluvium"
        ]
    },
    {
        "id": "1DPYcc0M7qFoEGyHyHGfo",
        "name": "Jefferson Hotel",
        "address": {
            "street": "101 W Franklin St, Richmond, VA 23220",
            "lat": "37.5442669",
            "lon": "-77.4454199"
        },
        "locations": "Restaurant",
        "wines": [
            "Foothills",
            "Eluvium"
        ]
    },
    {
        "id": "OMd8Af8vg5GXDQre-GEzv",
        "name": "Rio Hill Wine & Beer",
        "address": {
            "street": "1908 Rio Hill Center, Charlottesville, VA 22901",
            "lat": "38.0877905",
            "lon": "-78.4749043"
        },
        "locations": "Retail",
        "wines": [
            "Shenandoah Valley Cabernet Franc",
            "Foothills",
            "Eluvium",
            "Rosé",
            "Chardonnay"
        ]
    },
    {
        "id": "vJZ9XroKPjynIljVI4Tbw",
        "name": "Olmsted",
        "address": {
            "street": "659 Vanderbilt Ave, Brooklyn, NY 11238",
            "lat": "40.677064",
            "lon": "-73.9687578"
        },
        "locations": "Restaurant/Retail",
        "wines": [
            "Eluvium"
        ]
    },
    {
        "id": "W6aPrnuPfdix8Aqh7cfm1",
        "name": "Whole Foods - Florida Ave",
        "address": {
            "street": "967 Florida Ave NW, Washington, DC 20001",
            "lat": "38.9196906",
            "lon": "-77.0244673"
        },
        "locations": "Restaurant/Retail",
        "wines": [
            "Young Wine Red",
            "Rosé",
            "Five Forks",
            "Foothills"
        ]
    },
    {
        "id": "vTekyf5an8-uGJxT80SLO",
        "name": "Hop City Krog Market",
        "address": {
            "street": "99 Krog St NE Suite D, Atlanta, GA 30307",
            "lat": "33.7567769",
            "lon": "-84.3639806"
        },
        "locations": "Restaurant",
        "wines": [
            "Young Wine Red"
        ]
    },
    {
        "id": "jkgo0wV--IdlohZVP6-PJ",
        "name": "Holeman & Finch Bottle Shop",
        "address": {
            "street": "2357 Peachtree Rd, Atlanta, GA 30305",
            "lat": "33.8201054",
            "lon": "-84.3864526"
        },
        "locations": "Retail",
        "wines": [
            "Petit Manseng",
            "Young Wine Red"
        ]
    },
    {
        "id": "r-DRcliMlb1K54ctCobDs",
        "name": "Bottle Shop",
        "address": {
            "street": "101 Southern Way, Columbus, GA 31904",
            "lat": "32.532935",
            "lon": "-84.9629348"
        },
        "locations": "Restaurant/Retail",
        "wines": [
            "Petit Manseng",
            "Shenandoah Valley Cabernet Franc",
            "Young Wine White"
        ]
    },
    {
        "id": "oMzUQ1ofY-BUDWOwwAobP",
        "name": "Gunshow",
        "address": {
            "street": "924 Garrett St, Atlanta, GA 30316",
            "lat": "33.7407235",
            "lon": "-84.3578402"
        },
        "locations": "Restaurant",
        "wines": [
            "Young Wine White"
        ]
    },
    {
        "id": "vgcLEGEsGnsbPvCT0vQDM",
        "name": "Elemental Spirits Co",
        "address": {
            "street": "02 North Highland Avenue Northeast suite a & b, Atlanta, GA 30307",
            "lat": "33.7788316",
            "lon": "-84.3530298"
        },
        "locations": "Retail",
        "wines": [
            "Young Wine Red",
            "Young Wine White"
        ]
    },
    {
        "id": "ZHsgCOJz4HqPIDnoBkA6R",
        "name": "Murphy's",
        "address": {
            "street": "997 Virginia Ave NE, Atlanta, GA 30306",
            "lat": "33.7820546",
            "lon": "-84.354747"
        },
        "locations": "Restaurant",
        "wines": [
            "Petit Manseng",
            "Foothills",
            "Young Wine Red"
        ]
    },
    {
        "id": "FxkKwkpmRQ4aRfEhd060T",
        "name": "Savannah Wine Cellar",
        "address": {
            "street": "5500 Abercorn St, Savannah, GA 31405",
            "lat": "32.0231803",
            "lon": "-81.1084269"
        },
        "locations": "Retail",
        "wines": [
            "Foothills"
        ]
    },
    {
        "id": "TC1wgY2kd-GkfED2wngvh",
        "name": "& Sons Ham Bar",
        "address": {
            "street": "447 Rogers Avenue, Brooklyn, NY 11225",
            "lat": "40.6616172",
            "lon": "-73.9534096"
        },
        "locations": "Restaurant",
        "wines": [
            "Young Wine White"
        ]
    },
    {
        "id": "w-5wUCe670wAQ6tja579d",
        "name": "Artisan Wine Shop",
        "address": {
            "street": "180 Main Street, Beacon, NY 12508",
            "lat": "41.5080341",
            "lon": "-73.9748793"
        },
        "locations": "Retail",
        "wines": [
            "Young Wine Red"
        ]
    },
    {
        "id": "50GJWDlImlrKsHvdF8L-C",
        "name": "Aviary Kinderhook",
        "address": {
            "street": "8 Hudson St, Kinderhook, NY 12106",
            "lat": "42.3945567",
            "lon": "-73.6983591"
        },
        "locations": "Restaurant",
        "wines": [
            "Petit Manseng"
        ]
    },
    {
        "id": "3AhYi3_oq09WyeKo3VCq9",
        "name": "Bibber & Bell Wines & Spirits",
        "address": {
            "street": "418 Union Ave, Brooklyn, NY 11211",
            "lat": "40.7128902",
            "lon": "-73.9512436"
        },
        "locations": "Retail",
        "wines": [
            "Foothills",
            "Five Forks"
        ]
    },
    {
        "id": "4qAX3E1vLDS6AW4LHN2Ta",
        "name": "Field & Main",
        "address": {
            "street": "8369 W. Main St., Marshall, VA 20115",
            "lat": "38.8647631",
            "lon": "-77.8574303"
        },
        "locations": "Restaurant",
        "wines": [
            "Rosé",
            "Petit Manseng",
            "Chardonnay",
            "RISE",
            "Quaker Run Cabernet Franc"
        ]
    },
    {
        "id": "0I7n0cZw5N6uEDS_0J1bl",
        "name": "Brew Shop, The",
        "address": {
            "street": "2004 Wilson Blvd, Arlington, VA 22201",
            "lat": "38.8921709",
            "lon": "-77.0822744"
        },
        "locations": "Retail",
        "wines": [
            "Shenandoah Valley Cabernet Franc",
            "Rosé",
            "Pétillant Naturel White"
        ]
    },
    {
        "id": "TLc4PobTVusA_Ck7zk-Cn",
        "name": "Gladheart",
        "address": {
            "street": "2825 B Brambleton Ave., Roanoke, VA 24015",
            "lat": "37.2438675",
            "lon": "-79.9909672"
        },
        "locations": "Retail",
        "wines": [
            "Young Wine Red",
            "Petit Manseng",
            "Foothills",
            "Five Forks"
        ]
    },
    {
        "id": "qlHe2ISulQVSjH1I0cDc1",
        "name": "Moon Rabbit",
        "address": {
            "street": "801 Wharf St SW, Washington, DC 20024",
            "lat": "38.8793364",
            "lon": "-77.0247885"
        },
        "locations": "Restaurant",
        "wines": [
            "Rosé",
            "Petit Manseng"
        ]
    },
    {
        "id": "jEh7_F-lGq-CfBBF1kfiC",
        "name": "Omni - Homestead Resort",
        "address": {
            "street": "7696 Sam Snead Highway, Hot Springs, VA 24445",
            "lat": "37.9970692",
            "lon": "-79.8305868"
        },
        "locations": "Restaurant",
        "wines": [
            "Young Wine Red",
            "Chardonnay",
            "Shenandoah Valley Cabernet Franc",
            "Eluvium"
        ]
    },
    {
        "id": "aSWPzJKFxfbCkth0iBfuN",
        "name": "Oyster Oyster",
        "address": {
            "street": "1440 8th Street NW, Washington, DC 20001",
            "lat": "38.9093214",
            "lon": "-77.0231821"
        },
        "locations": "Restaurant",
        "wines": [
            "Petit Manseng",
            "Pétillant Naturel White"
        ]
    },
    {
        "id": "XBx0IPT-ldT6urDKPAv_U",
        "name": "Red Hen-DC",
        "address": {
            "street": "1822 1st St. NW, Washington, DC 20001",
            "lat": "38.9149738",
            "lon": "-77.0124095"
        },
        "locations": "Restaurant",
        "wines": [
            "Young Wine White",
            "Petit Manseng"
        ]
    },
    {
        "id": "DGQA6Wzlu2A0kRw6JIy_l",
        "name": "Roanoke Natural Foods Co-op",
        "address": {
            "street": "1319 Grandin Rd SW, Roanoke, VA 24015",
            "lat": "37.2652232",
            "lon": "-79.9776246"
        },
        "locations": "Retail",
        "wines": [
            "Young Wine Red",
            "Foothills",
            "Young Wine White"
        ]
    },
    {
        "id": "hs45sRVm55EwOMEF1CceN",
        "name": "Whole Foods - Foggy Bottom",
        "address": {
            "street": "2201 I Street NW, Washington, DC 20037",
            "lat": "38.9010776",
            "lon": "-77.0490824"
        },
        "locations": "Restaurant/Retail",
        "wines": [
            "Young Wine Red",
            "Rosé",
            "Five Forks",
            "Foothills"
        ]
    },
    {
        "id": "VGwRkQJUKsRl_J6wuPmaA",
        "name": "Whole Foods - Pentagon City",
        "address": {
            "street": "520 12th St S Ste 100, Arlington, VA 22202",
            "lat": "38.8628102",
            "lon": "-77.0545096"
        },
        "locations": "Restaurant/Retail",
        "wines": [
            "Foothills",
            "Young Wine Red",
            "Rosé"
        ]
    },
    {
        "id": "S19tvMNxzd3kadXN5Iqeo",
        "name": "Amber Ox Kitchen & Brewery",
        "address": {
            "street": "521 Prince George St., Williamsburg, VA 23185",
            "lat": "37.272864",
            "lon": "-76.708414"
        },
        "locations": "Restaurant/Retail",
        "wines": [
            "Young Wine Red",
            "Foothills"
        ]
    },
    {
        "id": "cv8Brtt0IbXoBU-1XHPDr",
        "name": "Commune - Virginia Beach",
        "address": {
            "street": "501 Virginia Beach Blvd. Ste. B, Virginia Beach, VA 23451",
            "lat": "36.8441296",
            "lon": "-75.9793877"
        },
        "locations": "Restaurant",
        "wines": [
            "Rosé",
            "Five Forks",
            "Foothills"
        ]
    },
    {
        "id": "QUJDuntyHBsp829Vwprmt",
        "name": "Corks & Kegs",
        "address": {
            "street": "7110 Patterson Ave, Suite A, Richmond, VA 23229",
            "lat": "37.5924087",
            "lon": "-77.5329934"
        },
        "locations": "Retail",
        "wines": [
            "Eluvium",
            "Shenandoah Valley Cabernet Franc",
            "Chardonnay",
            "Foothills",
            "Young Wine White",
            "Rosé"
        ]
    },
    {
        "id": "vIf51iJYX9UMeuADx_ANw",
        "name": "Groovin Gourmet/Trolly House",
        "address": {
            "street": "8501 Sanford Dr., Richmond, VA 23228",
            "lat": "37.6293744",
            "lon": "-77.5021908"
        },
        "locations": "Restaurant",
        "wines": [
            "Foothills",
            "Five Forks"
        ]
    },
    {
        "id": "DFX2MEV_DS3jUwDWE695m",
        "name": "Barrel Thief",
        "address": {
            "street": "5805 Patterson Ave, Richmond, VA 23226",
            "lat": "37.5794435",
            "lon": "-77.5149812"
        },
        "locations": "Restaurant/Retail",
        "wines": [
            "Foothills",
            "Rosé"
        ]
    },
    {
        "id": "q__Sn82emceo2BAXXieDt",
        "name": "Taste - Bayville Farms",
        "address": {
            "street": "4097 Shore Drive, Virginia Beach, VA 23455",
            "lat": "36.9059328",
            "lon": "-76.1160943"
        },
        "locations": "Restaurant/Retail",
        "wines": [
            "Five Forks",
            "Foothills",
            "Rosé",
            "Eluvium"
        ]
    },
    {
        "id": "RKWq8b7JpGJCZTKxJukNa",
        "name": "Whole Foods - Charlottesville",
        "address": {
            "street": "1797 Hydraulic Road, Charlottesville, VA 22901",
            "lat": "38.059773",
            "lon": "-78.4891351"
        },
        "locations": "Restaurant/Retail",
        "wines": [
            "Five Forks",
            "Rosé",
            "Young Wine Red"
        ]
    },
    {
        "id": "dUhg14lWjLscQpxyvhG8w",
        "name": "Cool Vines Jersey City",
        "address": {
            "street": "276 Grove St., Jersey City, NJ 7302",
            "lat": "40.7173504",
            "lon": "-74.0440015"
        },
        "locations": "Retail",
        "wines": [
            "Young Wine Red"
        ]
    },
    {
        "id": "a8k0_6Kyq66nIpOsRUIOz",
        "name": "Dominion Wine and Beer",
        "address": {
            "street": "107 Rowell Ct., Falls Church, VA 22046",
            "lat": "38.889851",
            "lon": "-77.1836308"
        },
        "locations": "Retail",
        "wines": [
            "Young Wine Red",
            "Young Wine White"
        ]
    },
    {
        "id": "-KaoMFOqSRQBlV8eJOcsW",
        "name": "Foxtrot - Georgetown (retail)",
        "address": {
            "street": "1267 Wisconsin Ave NW, Washington, DC 20007",
            "lat": "38.9066851",
            "lon": "-77.062675"
        },
        "locations": "Retail",
        "wines": [
            "Rosé"
        ]
    },
    {
        "id": "GLpwr77CyLDAq815xyuRE",
        "name": "La Fromagerie",
        "address": {
            "street": "1222 King St, Alexandria, VA 22314",
            "lat": "38.805648",
            "lon": "-77.053429"
        },
        "locations": "Restaurant",
        "wines": [
            "Petit Manseng",
            "Young Wine Red"
        ]
    },
    {
        "id": "tk_vIGZb8WzZ005VUaDZD",
        "name": "NRG - Birch & Barley / Churchkey",
        "address": {
            "street": "1337 14th St. NW, Washington, DC 20005",
            "lat": "38.9084834",
            "lon": "-77.0315511"
        },
        "locations": "Restaurant",
        "wines": [
            "Petit Manseng"
        ]
    },
    {
        "id": "QaxmFxSD462Xb2G90922n",
        "name": "NRG - Shelter",
        "address": {
            "street": "1401 Pennsylvania Ave SE, Washington, DC 20003",
            "lat": "38.8798036",
            "lon": "-76.9852327"
        },
        "locations": "Restaurant",
        "wines": [
            "Young Wine White",
            "Pétillant Naturel Red",
            "Rosé",
            "Foothills"
        ]
    },
    {
        "id": "IzOI_8EmoMhmDA7GqRhbp",
        "name": "NRG - Vermillion",
        "address": {
            "street": "1120 King St, Alexandria, VA 22314",
            "lat": "38.8054772",
            "lon": "-77.0522863"
        },
        "locations": "Restaurant",
        "wines": [
            "Young Wine White",
            "Petit Manseng",
            "Pétillant Naturel White",
            "RISE"
        ]
    },
    {
        "id": "HxpNbX-mPUZXVO9bwk5kr",
        "name": "River-Sea Chocolates",
        "address": {
            "street": "4520 Daly Dr, Suite 100, Chantilly, VA 20151",
            "lat": "38.883333",
            "lon": "-77.4444941"
        },
        "locations": "Retail",
        "wines": [
            "Rosé"
        ]
    },
    {
        "id": "4CCB-I6suHzqOxquUfk4p",
        "name": "Salamander Hotel & Spa",
        "address": {
            "street": "500 N Pendleton St., Middleburg, VA 20117",
            "lat": "38.9741832",
            "lon": "-77.7427939"
        },
        "locations": "Restaurant",
        "wines": [
            "Foothills"
        ]
    },
    {
        "id": "EqaVQZK8AjZd_lya-hfUl",
        "name": "St. Anselm",
        "address": {
            "street": "1250 5th St. NE, Washington, DC 20002",
            "lat": "38.9077745",
            "lon": "-76.9990918"
        },
        "locations": "Restaurant",
        "wines": [
            "Shenandoah Valley Cabernet Franc"
        ]
    },
    {
        "id": "hOLbXt4zHwhvfWJz7N2c9",
        "name": "Arrowine",
        "address": {
            "street": "4508 Lee Hwy, Arlington, VA 22207",
            "lat": "38.8983733",
            "lon": "-77.1183586"
        },
        "locations": "Restaurant/Retail",
        "wines": [
            "Eluvium",
            "Rosé",
            "Foothills",
            "Chardonnay",
            "Pétillant Naturel White"
        ]
    },
    {
        "id": "6lXNrQ-A4gDoWRe15qKM7",
        "name": "Cool Vines, Newark",
        "address": {
            "street": "625 Broad St. Suite 110, Newark, NJ 7102",
            "lat": "40.7405633",
            "lon": "-74.170314"
        },
        "locations": "Retail",
        "wines": [
            "Young Wine Red"
        ]
    },
    {
        "id": "QJueAvr3vtl5avQmIrTss",
        "name": "Landini Brothers",
        "address": {
            "street": "Michael Rovezzi, Alexandria, VA 22314",
            "lat": "38.7999723",
            "lon": "-77.0506896"
        },
        "locations": "Restaurant",
        "wines": [
            "Rosé"
        ]
    },
    {
        "id": "tVs-jp6VS9V3zSaoX7AOd",
        "name": "Market Street Wine Shop",
        "address": {
            "street": "311 East Market St, Charlottesville, VA 22902",
            "lat": "38.031052",
            "lon": "-78.4789971"
        },
        "locations": "Retail",
        "wines": [
            "Young Wine White",
            "Rosé",
            "Young Wine Red",
            "Foothills",
            "Petit Manseng",
            "Eluvium"
        ]
    },
    {
        "id": "oQsW0zGWVI0h9CkKtTS-9",
        "name": "VMHC",
        "address": {
            "street": "Virginia Museum of History and Culture, Richmond, VA 23220",
            "lat": "37.5578989",
            "lon": "-77.4733551"
        },
        "locations": "Restaurant",
        "wines": [
            "Rosé"
        ]
    },
    {
        "id": "geuLNMwoTeTugVvequP_A",
        "name": "Whole Foods - Tenley",
        "address": {
            "street": "4530 40th Street NW, Washington, DC 20016",
            "lat": "38.9490789",
            "lon": "-77.0792007"
        },
        "locations": "Restaurant/Retail",
        "wines": [
            "Foothills",
            "Five Forks"
        ]
    },
    {
        "id": "95iThmgtyjHz6yYfBCiIL",
        "name": "Dandy Wine & Spirits",
        "address": {
            "street": "37 S 4th St., Brooklyn, ny 11249",
            "lat": "40.7132319",
            "lon": "-73.9667608"
        },
        "locations": "Retail",
        "wines": [
            "Young Wine Red",
            "Foothills",
            "Five Forks"
        ]
    },
    {
        "id": "BAt61_56cAb5Nw0vjpc4q",
        "name": "William Jeffrey's Tavern",
        "address": {
            "street": "2301 Columbia Pike, Suite 100, Arlington, VA 22204",
            "lat": "38.8638847",
            "lon": "-77.0828428"
        },
        "locations": "Restaurant",
        "wines": [
            "Rosé"
        ]
    },
    {
        "id": "I2ZL9NHXt_i8vyzxqcNRz",
        "name": "Accordia (Barren Ridge Vineyards)",
        "address": {
            "street": "114 E Beverly St., Staunton, VA 24401",
            "lat": "38.1495498",
            "lon": "-79.071106"
        },
        "locations": "Restaurant",
        "wines": [
            "Foothills",
            "Petit Manseng",
            "Rosé"
        ]
    },
    {
        "id": "hHSEKvFstcUfpdDal7GPX",
        "name": "Capital One Hall",
        "address": {
            "street": "7750 Capital One Tower Rd, Tysons, VA 22102",
            "lat": "38.9253451",
            "lon": "-77.2115263"
        },
        "locations": "Restaurant",
        "wines": [
            "Shenandoah Valley Cabernet Franc",
            "Rosé"
        ]
    },
    {
        "id": "D0AKmxAYzzfYoUps_-b8H",
        "name": "Dawson's Market Dupont Circle",
        "address": {
            "street": "2001 S St. NW, Washington, DC 20009",
            "lat": "38.9143274",
            "lon": "-77.0451575"
        },
        "locations": "Retail",
        "wines": [
            "Foothills",
            "Rosé",
            "Young Wine Red"
        ]
    },
    {
        "id": "oWRk9ppkf8MHohhqlOkCP",
        "name": "Flowercup",
        "address": {
            "street": "82 Main st., Cold Spring, NY 10516",
            "lat": "41.4181666",
            "lon": "-73.9581394"
        },
        "locations": "Retail",
        "wines": [
            "Young Wine White"
        ]
    },
    {
        "id": "ZAPSJ0VhaWqa0C7ccG_1R",
        "name": "Fort Lewis Lodge",
        "address": {
            "street": "603 Old Plantation Way, Millboro, VA 24460",
            "lat": "38.114054",
            "lon": "-79.6110139"
        },
        "locations": "Restaurant",
        "wines": [
            "Foothills"
        ]
    },
    {
        "id": "swu-Cr6bjk9WmDbaXKjmf",
        "name": "Friendly City Food Co-op",
        "address": {
            "street": "150 E Wolfe St, Harrisonburg, VA 22802",
            "lat": "38.4516609",
            "lon": "-78.8665291"
        },
        "locations": "Retail",
        "wines": [
            "Foothills",
            "Rosé",
            "Pétillant Naturel White"
        ]
    },
    {
        "id": "catrOTNbna_w6jSmZI1_S",
        "name": "NRG - Planet Wine",
        "address": {
            "street": "2000-2004 Mount Vernon Ave, Alexandria, VA 22301",
            "lat": "38.8239957",
            "lon": "-77.0584135"
        },
        "locations": "Restaurant",
        "wines": [
            "Quaker Run Cabernet Franc",
            "Foothills",
            "Rosé",
            "Young Wine Red",
            "Five Forks"
        ]
    },
    {
        "id": "wdAGnvyoO3vlIXtp7wJTM",
        "name": "Irregardless",
        "address": {
            "street": "502 H St NE, Washington, DC 20002",
            "lat": "38.9004292",
            "lon": "-76.9992493"
        },
        "locations": "Restaurant",
        "wines": [
            "Petit Manseng",
            "RISE",
            "Quaker Run Cabernet Franc",
            "Shenandoah Valley Cabernet Franc"
        ]
    },
    {
        "id": "qYx2QPIjpOiIHpxZc-eOw",
        "name": "Pentagon City Wine Merchant",
        "address": {
            "street": "1330 S Fair St, Arlington, VA 22202",
            "lat": "38.861337",
            "lon": "-77.0561558"
        },
        "locations": "Restaurant/Retail",
        "wines": [
            "Five Forks"
        ]
    },
    {
        "id": "PPWoeXn-gmkYsTecyHZva",
        "name": "St. Vincent",
        "address": {
            "street": "3212 Georgia Avenue NW, Washington, DC 20010",
            "lat": "38.9304272",
            "lon": "-77.0237421"
        },
        "locations": "Restaurant",
        "wines": [
            "Young Wine White"
        ]
    },
    {
        "id": "tH8opC5xdP2xwjgDMtlEW",
        "name": "Celladora",
        "address": {
            "street": "111 N Lombardy St Unit B, Richmond, VA 23220",
            "lat": "37.548848",
            "lon": "-77.4599879"
        },
        "locations": "Retail",
        "wines": [
            "Young Wine Red",
            "Rosé"
        ]
    },
    {
        "id": "9wKlXJ2GOl1cdY8ayPBB2",
        "name": "Fat Canary",
        "address": {
            "street": "The Cheese Shop of VA, Inc. 410 W Duke of Gloucester St, Williamsburg, VA 23185",
            "lat": "37.2706994",
            "lon": "-76.7061859"
        },
        "locations": "Restaurant",
        "wines": [
            "Rosé",
            "Foothills",
            "Petit Manseng",
            "Shenandoah Valley Cabernet Franc",
            "Chardonnay",
            "Young Wine Red"
        ]
    },
    {
        "id": "yJR6KOX5VwlJuzpxZHT_7",
        "name": "Jean Georges, Four Seasons Hotel",
        "address": {
            "street": "1 N 19th Street, Philadelphia, PA 19103",
            "lat": "39.9551667",
            "lon": "-75.1708455"
        },
        "locations": "Restaurant",
        "wines": [
            "Petit Manseng"
        ]
    },
    {
        "id": "VCmBhCIZyp9woHX-VtDDt",
        "name": "Live Arts",
        "address": {
            "street": "123 East Water St, Charlottesville, VA 22902",
            "lat": "38.0300169",
            "lon": "-78.4812638"
        },
        "locations": "Restaurant",
        "wines": [
            "Five Forks",
            "Rosé",
            "Foothills"
        ]
    },
    {
        "id": "OLukEH8GLv2Z2hLyUpt75",
        "name": "Taste - Oceanfront",
        "address": {
            "street": "3603 Pacific Avenue, Virginia Beach, VA 23451",
            "lat": "36.864201",
            "lon": "-75.9803579"
        },
        "locations": "Retail",
        "wines": [
            "Five Forks",
            "Eluvium",
            "Rosé"
        ]
    },
    {
        "id": "H_0gSz4PGf_3X4Mx5mcny",
        "name": "Westside Produce & Provisions",
        "address": {
            "street": "5015 Colley Ave., Norfolk, VA 23508",
            "lat": "36.8891004",
            "lon": "-76.2954892"
        },
        "locations": "Retail",
        "wines": [
            "Rosé",
            "Eluvium",
            "Five Forks",
            "Shenandoah Valley Cabernet Franc",
            "Chardonnay",
            "Pétillant Naturel White",
            "Foothills",
            "Petit Manseng",
            "Young Wine White"
        ]
    },
    {
        "id": "LbdzgJ5nOJGBokjnZ-UuT",
        "name": "Tilman's",
        "address": {
            "street": "406 E Main St, Charlottesville, VA 22902",
            "lat": "38.0297642",
            "lon": "-78.4790905"
        },
        "locations": "Restaurant",
        "wines": [
            "Young Wine White",
            "Rosé"
        ]
    },
    {
        "id": "g6YEP9TgSWs77jmvg2SfH",
        "name": "Whole Foods - West Broad",
        "address": {
            "street": "2024 W Broad Street, Richmond, VA 23220",
            "lat": "37.5581958",
            "lon": "-77.4612166"
        },
        "locations": "Restaurant/Retail",
        "wines": [
            "Foothills",
            "Young Wine Red",
            "Five Forks",
            "Rosé"
        ]
    },
    {
        "id": "p2j8Il5Vvh8aIDKRxVZR-",
        "name": "C&O Restaurant",
        "address": {
            "street": "515 E Water St, Charlottesville, VA 22902",
            "lat": "38.0290618",
            "lon": "-78.4782802"
        },
        "locations": "Restaurant",
        "wines": [
            "Eluvium",
            "Rosé",
            "Chardonnay"
        ]
    },
    {
        "id": "sIMKHBBdHUk7p-1AWiiTn",
        "name": "Crystal City Wine Shop",
        "address": {
            "street": "220 20th St. South, Arlington, VA 22202",
            "lat": "38.85597",
            "lon": "-77.0500304"
        },
        "locations": "Retail",
        "wines": [
            "Rosé",
            "Pétillant Naturel Red",
            "Foothills",
            "RISE",
            "Petit Manseng",
            "Young Wine Red",
            "Five Forks"
        ]
    },
    {
        "id": "C_VuEF9C_kpn7GZrkJP3K",
        "name": "Cafe Unido",
        "address": {
            "street": "901 W St NW, Washington, DC 20001",
            "lat": "38.9192153",
            "lon": "-77.0242645"
        },
        "locations": "Restaurant",
        "wines": [
            "Five Forks"
        ]
    },
    {
        "id": "bqYtA1Slxu6hDsn0gni2A",
        "name": "Front Royal Wines",
        "address": {
            "street": "300 E. Main Street, Front Royal, VA 22630",
            "lat": "38.9178983",
            "lon": "-78.1905081"
        },
        "locations": "Retail",
        "wines": [
            "Chardonnay",
            "Petit Manseng",
            "Young Wine Red",
            "Rosé"
        ]
    },
    {
        "id": "-9txQz5ZyMLYLqyeJvFcg",
        "name": "Gramercy Wine Country, Inc.",
        "address": {
            "street": "341 Warren St., Hudson, NY 12534",
            "lat": "42.2518308",
            "lon": "-73.7899858"
        },
        "locations": "Retail",
        "wines": [
            "Petit Manseng"
        ]
    },
    {
        "id": "GGqI10q8U49W26GcfBeDk",
        "name": "Heurich House Museum",
        "address": {
            "street": "1307 New Hampshire Ave. NW, Washington, DC 20036",
            "lat": "38.9080118",
            "lon": "-77.0445386"
        },
        "locations": "Restaurant",
        "wines": [
            "Foothills"
        ]
    },
    {
        "id": "1AzmTAtFWWrOEd_JHc1oo",
        "name": "White Moose Inn",
        "address": {
            "street": "291 Main St., Washington, VA 22747",
            "lat": "38.7123391",
            "lon": "-78.16034"
        },
        "locations": "Restaurant",
        "wines": [
            "Shenandoah Valley Cabernet Franc",
            "Chardonnay",
            "Five Forks",
            "Foothills",
            "Eluvium"
        ]
    },
    {
        "id": "ZmMXYtyt10p9cJFjjgj9s",
        "name": "Beer Run",
        "address": {
            "street": "156 Carlton Rd Ste 203, Charlottesville, VA 22902",
            "lat": "38.0245872",
            "lon": "-78.4685083"
        },
        "locations": "Restaurant/Retail",
        "wines": [
            "Shenandoah Valley Cabernet Franc",
            "Petit Manseng",
            "Foothills",
            "Pétillant Naturel White",
            "Young Wine White",
            "Rosé"
        ]
    },
    {
        "id": "P5rjqbZEbHXsmB8iNX2lS",
        "name": "Three Blacksmiths",
        "address": {
            "street": "20 Main St, Sperryville, VA 22740",
            "lat": "38.6586366",
            "lon": "-78.2296581"
        },
        "locations": "Restaurant",
        "wines": [
            "Petit Manseng"
        ]
    },
    {
        "id": "xR6HVMIF4QwqkDtJvAFAF",
        "name": "Bottleworks",
        "address": {
            "street": "3078 Stony Point Rd., Richmond, VA 23235",
            "lat": "37.537796",
            "lon": "-77.5651916"
        },
        "locations": "Retail",
        "wines": [
            "Foothills"
        ]
    },
    {
        "id": "Zqq7GldQuNNHNf7zMmuZ5",
        "name": "Caboose",
        "address": {
            "street": "108 S. Railroad Ave., Ashland, VA 23005",
            "lat": "37.758286",
            "lon": "-77.4816338"
        },
        "locations": "Restaurant",
        "wines": [
            "Foothills",
            "Rosé"
        ]
    },
    {
        "id": "eJ1SP-4m0ZO9HSHW3LFzR",
        "name": "Greenwood",
        "address": {
            "street": "6701 Rockfish Gap TPK, Crozet, VA 22932",
            "lat": "38.0413202",
            "lon": "-78.732343"
        },
        "locations": "Retail",
        "wines": [
            "Foothills",
            "Chardonnay",
            "Young Wine Red",
            "Five Forks",
            "Eluvium",
            "Young Wine White",
            "Shenandoah Valley Cabernet Franc",
            "Pétillant Naturel Red",
            "Rosé"
        ]
    },
    {
        "id": "unbkBmPpq9LxkR34Ov4t6",
        "name": "Domestique",
        "address": {
            "street": "10 Florida Ave NW, Washington, DC 20001",
            "lat": "38.910778",
            "lon": "-77.009462"
        },
        "locations": "Retail",
        "wines": [
            "Young Wine Red",
            "Pétillant Naturel Red",
            "Rosé",
            "Petit Manseng",
            "Pétillant Naturel White"
        ]
    },
    {
        "id": "UMt_KZo8Rg4T_HQUg3b8y",
        "name": "Hamilton's",
        "address": {
            "street": "101 W Main St, Charlottesville, VA 22902",
            "lat": "38.030928",
            "lon": "-78.4815455"
        },
        "locations": "Restaurant",
        "wines": [
            "Foothills",
            "Rosé"
        ]
    },
    {
        "id": "welw9fkONTkJiBFE_c_TR",
        "name": "Kingston Wine Co",
        "address": {
            "street": "65 Broadway, Kingston, NY 12401",
            "lat": "41.9195258",
            "lon": "-73.984818"
        },
        "locations": "Retail",
        "wines": [
            "Young Wine White"
        ]
    },
    {
        "id": "bbneWir1bAjinSjgjs2Hj",
        "name": "Kinship",
        "address": {
            "street": "1015 7th St NW, Washington, DC 20001",
            "lat": "38.903425",
            "lon": "-77.021548"
        },
        "locations": "Restaurant",
        "wines": [
            "Early Mountain Vineyards Virginia White \"Intention\" 2019",
            "Quaker Run Chardonnay",
            "Rosé",
            "RISE"
        ]
    },
    {
        "id": "Be0uIaJxoYTBv_F2PUO9Z",
        "name": "Mockingbird",
        "address": {
            "street": "421 Monticello Road, Charlottesville, VA 22902",
            "lat": "38.0245712",
            "lon": "-78.4749514"
        },
        "locations": "Restaurant",
        "wines": [
            "Foothills",
            "Eluvium",
            "Young Wine White"
        ]
    },
    {
        "id": "TvjYiH2-o9-aQ-fuBlwnk",
        "name": "Saison",
        "address": {
            "street": "23 W Marshall St. Suite A, Richmond, VA 23220",
            "lat": "37.546819",
            "lon": "-77.4420934"
        },
        "locations": "Restaurant",
        "wines": [
            "Petit Manseng",
            "Rosé",
            "Pétillant Naturel White"
        ]
    },
    {
        "id": "5IiXXOxxzXh5V7OghleG4",
        "name": "Tail Up Goat",
        "address": {
            "street": "1827 Adams Mill Rd. NW, Washington, DC 20009",
            "lat": "38.923447",
            "lon": "-77.043176"
        },
        "locations": "Restaurant",
        "wines": [
            "Pétillant Naturel White",
            "Foothills",
            "Petit Manseng"
        ]
    },
    {
        "id": "iAYp1V5W7e3DIcQBck2fK",
        "name": "Union Market",
        "address": {
            "street": "2306 Jefferson Avenue, Richmond, VA 23223",
            "lat": "37.5351298",
            "lon": "-77.4180798"
        },
        "locations": "Restaurant",
        "wines": [
            "Young Wine White",
            "Foothills"
        ]
    },
    {
        "id": "q7xnJLVISj2jm2yVHqPqc",
        "name": "Wine House, The",
        "address": {
            "street": "3950 University Dr Ste 212, Fairfax, VA 22030",
            "lat": "38.8471237",
            "lon": "-77.3050684"
        },
        "locations": "Retail",
        "wines": [
            "Five Forks",
            "Foothills",
            "Rosé"
        ]
    },
    {
        "id": "4F2ctXr_JLkiKFAze87-5",
        "name": "Whole Foods - Boro Tysons",
        "address": {
            "street": "1635 Boro Place, McLean, VA 22102",
            "lat": "38.9246913",
            "lon": "-77.2333798"
        },
        "locations": "Restaurant/Retail",
        "wines": [
            "Rosé",
            "Foothills"
        ]
    },
    {
        "id": "bAfzLiziASSh34MFwXiKn",
        "name": "Luthun",
        "address": {
            "street": "432 E 13th St, New York, NY 10009",
            "lat": "40.7299405",
            "lon": "-73.9819054"
        },
        "locations": "Restaurant",
        "wines": [
            "Petit Manseng",
            "Young Wine Red"
        ]
    },
    {
        "id": "DAnENqsd_WWxsZo33oiKq",
        "name": "Lorelei / PA Store 0247",
        "address": {
            "street": "124 S. Highland Ave, Pittsburgh, PA 15206",
            "lat": "40.4603926",
            "lon": "-79.9254521"
        },
        "locations": "Restaurant",
        "wines": [
            "Foothills"
        ]
    },
    {
        "id": "vPMm6_i_lJUb7rhNjyyrB",
        "name": "Gladheart",
        "address": {
            "street": "2825 B Brambleton Ave., Roanoke, VA 24015",
            "lat": "37.2438675",
            "lon": "-79.9909672"
        },
        "locations": "Retail",
        "wines": [
            "Foothills",
            "Petit Manseng"
        ]
    },
    {
        "id": "oqPg5DvzCfNRIeWznJIUb",
        "name": "Primland Resort",
        "address": {
            "street": "2000 Busted Rock Road, Meadows of Dan, VA 24120",
            "lat": "36.6881805",
            "lon": "-80.3543771"
        },
        "locations": "Restaurant",
        "wines": [
            "Shenandoah Valley Cabernet Franc",
            "Eluvium",
            "Chardonnay",
            "Quaker Run Cabernet Franc"
        ]
    },
    {
        "id": "dcxsxpsTI-QBPskMliouD",
        "name": "Whole Foods - Tysons",
        "address": {
            "street": "7511 Leesburg Pike, Falls Church, VA 22043",
            "lat": "38.9026076",
            "lon": "-77.2050359"
        },
        "locations": "Restaurant/Retail",
        "wines": [
            "Rosé",
            "Five Forks",
            "Foothills"
        ]
    },
    {
        "id": "zOvBswlzboDvZ9EuCmKo7",
        "name": "Momofuku Ko",
        "address": {
            "street": "8 Extra Pl, New York, NY 10003",
            "lat": "40.7248441",
            "lon": "-73.9916574"
        },
        "locations": "Restaurant",
        "wines": [
            "Petit Manseng"
        ]
    },
    {
        "id": "LOUrHTIQg0MPrHTGO7gzV",
        "name": "Farmington",
        "address": {
            "street": "1625 Country Club Circle, Charlottesville, VA 22901",
            "lat": "38.0616369",
            "lon": "-78.5419503"
        },
        "locations": "Restaurant",
        "wines": [
            "Petit Manseng",
            "RISE"
        ]
    },
    {
        "id": "HPkhyOZej-b8bk0Ol2M-k",
        "name": "Kardinal Hall",
        "address": {
            "street": "722 Preston Ave., Charlottesville, VA 22903",
            "lat": "38.0357358",
            "lon": "-78.4879596"
        },
        "locations": "Restaurant",
        "wines": [
            "Rosé"
        ]
    },
    {
        "id": "9uyLsK-k_HuLigRJIQGAE",
        "name": "Naro Restaurant",
        "address": {
            "street": "610 5th Avenue, 04 Rink Level CO, New York, NY 10020",
            "lat": "40.7583251",
            "lon": "-73.9780787"
        },
        "locations": "Restaurant/Retail",
        "wines": [
            "Petit Manseng"
        ]
    },
    {
        "id": "s0SbA9C1PAjn4RAOzB8nu",
        "name": "Taste - Ghent",
        "address": {
            "street": "407 W 21st Street, Norfolk, VA 23517",
            "lat": "36.8681345",
            "lon": "-76.2902003"
        },
        "locations": "Retail",
        "wines": [
            "Rosé",
            "Foothills",
            "Five Forks"
        ]
    },
    {
        "id": "UP-A26v7qtZrFdRg5pdus",
        "name": "Komi",
        "address": {
            "street": "1509 17th St. NW, Washington, DC 20036",
            "lat": "38.9101153",
            "lon": "-77.0381294"
        },
        "locations": "Restaurant",
        "wines": [
            "Young Wine Red"
        ]
    },
    {
        "id": "886GX4iftUMANx37qQIsF",
        "name": "Maxwell Park - Shaw",
        "address": {
            "street": "1336 9th St. NW, Washington, DC 20001",
            "lat": "38.9084185",
            "lon": "-77.0242196"
        },
        "locations": "Restaurant",
        "wines": [
            "Petit Manseng",
            "Pétillant Naturel Red",
            "Young Wine Red",
            "Shenandoah Valley Cabernet Franc",
            "Rosé"
        ]
    },
    {
        "id": "CtRwS1xuUKFttaM6z3lKe",
        "name": "Locke Store",
        "address": {
            "street": "2049 Millwood Rd., Millwood, VA 22646",
            "lat": "39.0695654",
            "lon": "-78.0379321"
        },
        "locations": "Retail",
        "wines": [
            "RISE",
            "Eluvium",
            "Chardonnay",
            "Rosé"
        ]
    },
    {
        "id": "wa02PHlZxU2HI3dyAM2IW",
        "name": "NRG - Shelter",
        "address": {
            "street": "1401 Pennsylvania Ave SE, Washington, DC 20003",
            "lat": "38.8798036",
            "lon": "-76.9852327"
        },
        "locations": "Restaurant",
        "wines": [
            "Quaker Run Chardonnay",
            "Quaker Run Cabernet Franc",
            "Young Wine White"
        ]
    },
    {
        "id": "UoepAU-wnzdCKelgclOzl",
        "name": "Mom's Apple Pie - Hill High",
        "address": {
            "street": "35246 Harry Byrd Hwy Ste. 100, Round Hill, VA 20141",
            "lat": "39.1277991",
            "lon": "-77.7873132"
        },
        "locations": "Retail",
        "wines": [
            "Petit Manseng",
            "Five Forks",
            "Eluvium",
            "Rosé",
            "Chardonnay",
            "Shenandoah Valley Cabernet Franc",
            "Young Wine White",
            "Pétillant Naturel White"
        ]
    },
    {
        "id": "kKD2B09CnGN-fbFwocJvh",
        "name": "Unwined - Belle View",
        "address": {
            "street": "1600 Belle View Blvd., Alexandria, VA 22307",
            "lat": "38.7761672",
            "lon": "-77.0597746"
        },
        "locations": "Retail",
        "wines": [
            "Quaker Run Chardonnay",
            "Pétillant Naturel Red",
            "Rosé",
            "Eluvium",
            "Shenandoah Valley Cabernet Franc",
            "Petit Manseng",
            "Pétillant Naturel White"
        ]
    },
    {
        "id": "2KsFYRHntb7gahhnRIfOZ",
        "name": "Blenheim Vineyards",
        "address": {
            "street": "31 Blenheim Farm, Charlottesville, VA 22902",
            "lat": "37.9316749",
            "lon": "-78.4989679"
        },
        "locations": "Restaurant",
        "wines": [
            "Quaker Run Cabernet Franc",
            "Petit Manseng",
            "Young Wine Red",
            "Pétillant Naturel White"
        ]
    },
    {
        "id": "hpJn8JyEv7tuv0lFIPWSA",
        "name": "Pinnacle Liquor",
        "address": {
            "street": "1720 Monroe Ave, Rotchester, NY 14618",
            "lat": "43.1300907",
            "lon": "-77.5679843"
        },
        "locations": "Retail",
        "wines": [
            "Young Wine Red",
            "Petit Manseng"
        ]
    },
    {
        "id": "Gs0IIbMN6QRcyPYF0DEX1",
        "name": "BottleHouse",
        "address": {
            "street": "608 West Main Street, Charlottesville, VA 22903",
            "lat": "38.0310262",
            "lon": "-78.4885015"
        },
        "locations": "Restaurant/Retail",
        "wines": [
            "RISE",
            "Shenandoah Valley Cabernet Franc"
        ]
    },
    {
        "id": "wgdUnWrB01_08mc80-UZD",
        "name": "Capital Ale House - Fairfax",
        "address": {
            "street": "4069 Chain Bridge Rd, Fairfax, VA 22030",
            "lat": "38.8443059",
            "lon": "-77.307364"
        },
        "locations": "Restaurant",
        "wines": [
            "Five Forks"
        ]
    },
    {
        "id": "jlDxBjZry7VdqgLzHPRpi",
        "name": "Dabney",
        "address": {
            "street": "122 Blagden Alley NW, Washington, DC 20009",
            "lat": "38.9063446",
            "lon": "-77.0245248"
        },
        "locations": "Restaurant",
        "wines": [
            "Petit Manseng",
            "Quaker Run Cabernet Franc",
            "Pétillant Naturel White"
        ]
    },
    {
        "id": "8oQIhgE360pdRyuRtsFK2",
        "name": "Foods of All Nations",
        "address": {
            "street": "2121 Ivy Rd, Charlottesville, VA 22903",
            "lat": "38.042995",
            "lon": "-78.5122433"
        },
        "locations": "Retail",
        "wines": [
            "Foothills",
            "Shenandoah Valley Cabernet Franc",
            "Petit Manseng",
            "Chardonnay",
            "Young Wine White",
            "Five Forks"
        ]
    },
    {
        "id": "tc4Qh6gpIOG8IChZamacm",
        "name": "Heritage",
        "address": {
            "street": "1627 W. Main St., Richmond, VA 23220",
            "lat": "37.547646",
            "lon": "-77.4621954"
        },
        "locations": "Restaurant",
        "wines": [
            "Foothills"
        ]
    },
    {
        "id": "tsh1-zxx5ynkXJX-iU1HR",
        "name": "Marigold by Jean Georges",
        "address": {
            "street": "701 Club Dr, Keswick, VA 22947",
            "lat": "38.0169403",
            "lon": "-78.3664009"
        },
        "locations": "Restaurant",
        "wines": [
            "Chardonnay"
        ]
    },
    {
        "id": "HKYPR85oxZ-H0Ms0OtdGl",
        "name": "Odd Provisions",
        "address": {
            "street": "3301 11th Street NW, Washington, DC 20010",
            "lat": "38.9309006",
            "lon": "-77.0278015"
        },
        "locations": "Retail",
        "wines": [
            "Rosé",
            "Foothills"
        ]
    },
    {
        "id": "hYIIqc8Cx9AsOUJMNnmxw",
        "name": "RichWine",
        "address": {
            "street": "405 Brook Rd., Richmond, VA 23220",
            "lat": "37.5478606",
            "lon": "-77.4425423"
        },
        "locations": "Retail",
        "wines": [
            "Petit Manseng",
            "Rosé"
        ]
    },
    {
        "id": "-OKKbtIu6xUUuO9Qf4zmj",
        "name": "Riverview Wines",
        "address": {
            "street": "43 Bowers St., Jersey City, NJ 7307",
            "lat": "40.7457628",
            "lon": "-74.0443295"
        },
        "locations": "Retail",
        "wines": [
            "Young Wine White",
            "Young Wine Red"
        ]
    },
    {
        "id": "gHy_pmRqI9R5p26rwOx08",
        "name": "Saratoga Wine Exchange",
        "address": {
            "street": "43 Round Lake Rd Suite #3, Ballston Lake, NY 12019",
            "lat": "42.9344054",
            "lon": "-73.8120865"
        },
        "locations": "Retail",
        "wines": [
            "Shenandoah Valley Cabernet Franc",
            "Petit Manseng"
        ]
    },
    {
        "id": "DKCdp8FXAHsC4hwXhmzGS",
        "name": "Whole Foods - Charlottesville",
        "address": {
            "street": "1797 Hydraulic Road, Charlottesville, VA 22901",
            "lat": "38.059773",
            "lon": "-78.4891351"
        },
        "locations": "Restaurant/Retail",
        "wines": [
            "Five Forks",
            "Rosé",
            "Young Wine Red"
        ]
    },
    {
        "id": "OQTgcKO8K7myLOztoC77P",
        "name": "Simple Syrup",
        "address": {
            "street": "810 Nostrand Ave., Brooklyn, NY 11216",
            "lat": "40.6709806",
            "lon": "-73.9505885"
        },
        "locations": "Retail",
        "wines": [
            "Young Wine White"
        ]
    },
    {
        "id": "Om3CNz_F-8TvqxVtUr5c8",
        "name": "Farmhouse, The",
        "address": {
            "street": "285 Ridinger St., Christiansburg, VA 24073",
            "lat": "37.1534355",
            "lon": "-80.4219158"
        },
        "locations": "Restaurant",
        "wines": [
            "Rosé",
            "Petit Manseng"
        ]
    },
    {
        "id": "QHHrr2rc0UyHEHZvUrt36",
        "name": "Primland Resort",
        "address": {
            "street": "2000 Busted Rock Road, Meadows of Dan, VA 24120",
            "lat": "36.6881805",
            "lon": "-80.3543771"
        },
        "locations": "Restaurant",
        "wines": [
            "Eluvium"
        ]
    },
    {
        "id": "-rq13UN_ARPQGLpc2_F7p",
        "name": "Commune - Norfolk",
        "address": {
            "street": "759 Granby St., Norfolk, VA 23510",
            "lat": "36.856281",
            "lon": "-76.2885806"
        },
        "locations": "Restaurant",
        "wines": [
            "Rosé",
            "Young Wine Red",
            "Young Wine White",
            "Pétillant Naturel Red",
            "RISE",
            "Shenandoah Valley Cabernet Franc",
            "Five Forks",
            "Foothills",
            "Pétillant Naturel White"
        ]
    },
    {
        "id": "gxFcB5uHgUffDxjcjk88x",
        "name": "Terroir Tribeca",
        "address": {
            "street": "810 Nostrand Ave., Brooklyn, NY 11216",
            "lat": "40.6709806",
            "lon": "-73.9505885"
        },
        "locations": "Retail",
        "wines": [
            "Petit Manseng"
        ]
    },
    {
        "id": "IePKsC9VFbBAjw7YoTL6_",
        "name": "Gallery 5",
        "address": {
            "street": "200 W. Marshall St., Richmond, VA 23219",
            "lat": "37.5477024",
            "lon": "-77.4428653"
        },
        "locations": "Restaurant",
        "wines": [
            "Foothills"
        ]
    },
    {
        "id": "7NqP2PxZhIyhbZrSXnvcY",
        "name": "Little Star",
        "address": {
            "street": "420 W Main St, Charlottesville, VA 22903",
            "lat": "38.0306417",
            "lon": "-78.4875645"
        },
        "locations": "Restaurant",
        "wines": [
            "RISE",
            "Chardonnay",
            "Quaker Run Cabernet Franc"
        ]
    },
    {
        "id": "pmu41tE1ShBKe5NLYc1-Y",
        "name": "J Emerson",
        "address": {
            "street": "5716 Grove Ave, Richmond, VA 23226",
            "lat": "37.5733362",
            "lon": "-77.5180274"
        },
        "locations": "Retail",
        "wines": [
            "Shenandoah Valley Cabernet Franc",
            "Chardonnay",
            "Foothills"
        ]
    },
    {
        "id": "tGL4kiwgF77DtyJ9BZ_3Q",
        "name": "Public Fish and Oyster",
        "address": {
            "street": "513 West Main St., Charlottesville, VA 22903",
            "lat": "38.0312649",
            "lon": "-78.4881806"
        },
        "locations": "Restaurant",
        "wines": [
            "Shenandoah Valley Cabernet Franc"
        ]
    },
    {
        "id": "XpivtzwOgjoa9aO_W84cq",
        "name": "Taste - Hilltop",
        "address": {
            "street": "1554 Laskin Road, Suite 110, Virginia Beach, VA 23451",
            "lat": "36.853651",
            "lon": "-76.0153597"
        },
        "locations": "Retail",
        "wines": [
            "Foothills",
            "Rosé",
            "Five Forks"
        ]
    },
    {
        "id": "NCnJFJ2xKWtPs1hWSuD-t",
        "name": "Tewksbury Fine Wine",
        "address": {
            "street": "1 Old Turnpike Road, Oldwick, NJ 8858",
            "lat": "40.6663844",
            "lon": "-74.7497315"
        },
        "locations": "Retail",
        "wines": [
            "Shenandoah Valley Cabernet Franc",
            "Cabernet Franc"
        ]
    },
    {
        "id": "2OWZxdQHw1OKsp6yJFOuf",
        "name": "Field & Main",
        "address": {
            "street": "8369 W. Main St., Marshall, VA 20115",
            "lat": "38.8647631",
            "lon": "-77.8574303"
        },
        "locations": "Restaurant",
        "wines": [
            "Chardonnay",
            "Cabernet Franc"
        ]
    },
    {
        "id": "5-yMNfEdtJposRGJgSSK3",
        "name": "Sonny's Pizza / No Kisses",
        "address": {
            "street": "3120 Georgia Avenue NW, Washington, DC 20010",
            "lat": "38.9296604",
            "lon": "-77.0236613"
        },
        "locations": "Restaurant/Retail",
        "wines": [
            "Young Wine White",
            "Young Wine Red"
        ]
    },
    {
        "id": "8wmX3Fz-oNhn4hXkxIiho",
        "name": "Bresca",
        "address": {
            "street": "1904 14th St, NW, Washington, DC 20009",
            "lat": "38.9158015",
            "lon": "-77.0322171"
        },
        "locations": "Restaurant",
        "wines": [
            "Rosé",
            "Petit Manseng",
            "Quaker Run Cabernet Franc",
            "Eluvium"
        ]
    },
    {
        "id": "ZO8mHe2oyA_UnNoyJ-Uw5",
        "name": "The Wesley",
        "address": {
            "street": "310 West 4th Street, New York, NY 10014",
            "lat": "40.737252",
            "lon": "-74.0040071"
        },
        "locations": "Restaurant",
        "wines": [
            "Young Wine White"
        ]
    },
    {
        "id": "s-KB89HJHtDHr2x1kxeji",
        "name": "Ivy Inn",
        "address": {
            "street": "2244 Old Ivy Rd., Charlottesville, VA 22903",
            "lat": "38.0459417",
            "lon": "-78.5162555"
        },
        "locations": "Restaurant",
        "wines": [
            "Foothills",
            "Petit Manseng",
            "Rosé"
        ]
    },
    {
        "id": "9nKGaTthI_z6NLNQunbHg",
        "name": "Whole Foods - Springfield",
        "address": {
            "street": "8402 Old Keene Mill Road, Springfield, VA 22152",
            "lat": "38.7800288",
            "lon": "-77.2349557"
        },
        "locations": "Restaurant/Retail",
        "wines": [
            "Five Forks"
        ]
    },
    {
        "id": "TJe-CQtix5QOuNo5tlVJU",
        "name": "Nido",
        "address": {
            "street": "3155 Mount Pleasant St NW, Washington, DC 20010",
            "lat": "38.9305555",
            "lon": "-77.0376686"
        },
        "locations": "Restaurant",
        "wines": [
            "Young Wine Red"
        ]
    },
    {
        "id": "CuY4aylnq-lnT7asHfa-6",
        "name": "Potter's Craft Cider",
        "address": {
            "street": "1350 Arrowhead Valley Road, Charlottesville, VA 22903",
            "lat": "37.9986492",
            "lon": "-78.5798138"
        },
        "locations": "Restaurant",
        "wines": [
            "Rosé"
        ]
    },
    {
        "id": "pZBCF8utpOrSYT3UFXc0y",
        "name": "Thirst Wine Merchants",
        "address": {
            "street": "11 Greene Ave., Brooklyn, NY 11238",
            "lat": "40.6860763",
            "lon": "-73.9729706"
        },
        "locations": "Retail",
        "wines": [
            "Young Wine White"
        ]
    },
    {
        "id": "ZdOFIrHkCZXRQol_JLUla",
        "name": "Txikito",
        "address": {
            "street": "240 9th Ave, New York, NY 10001",
            "lat": "40.7473498",
            "lon": "-74.0003413"
        },
        "locations": "Restaurant",
        "wines": [
            "Petit Manseng"
        ]
    },
    {
        "id": "PJ9Ls_kx18KMuWdDxbOAk",
        "name": "Williams Corner - Samples",
        "address": {
            "street": "1112 E. Market St. 22B, Charlottesville, VA 22902",
            "lat": "38.0271561",
            "lon": "-78.471598"
        },
        "locations": "Restaurant",
        "wines": [
            "Young Wine White",
            "Rosé",
            "Young Wine Red",
            "Eluvium",
            "Chardonnay",
            "RISE"
        ]
    },
    {
        "id": "2lJjS9oexqRuDj5jbNkkx",
        "name": "Water St Wines & Spirits",
        "address": {
            "street": "132 Water Street, Penn Yan, NY 14527",
            "lat": "42.659243",
            "lon": "-77.0543401"
        },
        "locations": "Retail",
        "wines": [
            "Young Wine Red"
        ]
    },
    {
        "id": "7ikI0q2z0mDSeNv7LZgSz",
        "name": "Bibber & Bell Wines & Spirits",
        "address": {
            "street": "418 Union Ave, Brooklyn, NY 11211",
            "lat": "40.7128902",
            "lon": "-73.9512436"
        },
        "locations": "Retail",
        "wines": [
            "Five Forks"
        ]
    },
    {
        "id": "YEI34fQ6q1NL8N-IpHAh-",
        "name": "Dandy Wine & Spirits",
        "address": {
            "street": "37 S 4th St., Brooklyn, ny 11249",
            "lat": "40.7132319",
            "lon": "-73.9667608"
        },
        "locations": "Retail",
        "wines": [
            "Foothills"
        ]
    },
    {
        "id": "QkI8s9Rmtsn9oOwbd_Afj",
        "name": "Four Seasons Hotel Philadelphia",
        "address": {
            "street": "1 N 19th Street, Philadelphia, PA 19103",
            "lat": "39.9551667",
            "lon": "-75.1708455"
        },
        "locations": "Restaurant",
        "wines": [
            "Petit Manseng"
        ]
    },
    {
        "id": "kZH-lN1m-_yEY3-czQSg-",
        "name": "Luthun",
        "address": {
            "street": "432 E 13th St, New York, NY 10009",
            "lat": "40.7299405",
            "lon": "-73.9819054"
        },
        "locations": "Restaurant",
        "wines": [
            "Young Wine Red"
        ]
    },
    {
        "id": "MtAEVQQisnr6FvtOLI4wx",
        "name": "Saratoga Wine Exchange",
        "address": {
            "street": "43 Round Lake Rd Suite #3, Ballston Lake, NY 12019",
            "lat": "42.9344054",
            "lon": "-73.8120865"
        },
        "locations": "Retail",
        "wines": [
            "Petit Manseng"
        ]
    },
    {
        "id": "sm0pJj6P8342GVfvGk0Gu",
        "name": "White Horse Wine & Spirits",
        "address": {
            "street": "676 White Horse Pike, Absecon, NJ 8201",
            "lat": "39.4357252",
            "lon": "-74.5144376"
        },
        "locations": "Retail",
        "wines": [
            "Young Wine Red"
        ]
    },
    {
        "id": "ed7B0uI6pzMl4E2ow2TAc",
        "name": "York Cellars",
        "address": {
            "street": "102 Jay St., Brooklyn, NY 11201",
            "lat": "40.7021316",
            "lon": "-73.9869497"
        },
        "locations": "Retail",
        "wines": [
            "Young Wine Red",
            "Young Wine White"
        ]
    },
    {
        "id": "8RkmerFrKAH1Q1ToFFxFz",
        "name": "Dr. Ho's Humble Pie",
        "address": {
            "street": "4916 Plank Rd, North Garden, VA 22920",
            "lat": "37.9568114",
            "lon": "-78.6577362"
        },
        "locations": "Restaurant",
        "wines": [
            "Five Forks",
            "Foothills"
        ]
    },
    {
        "id": "fexK9pMbBRDXhlE6eqhJC",
        "name": "Wine-O",
        "address": {
            "street": "602 Marcy Ave, Brooklyn, NY 11206",
            "lat": "40.6940078",
            "lon": "-73.9492363"
        },
        "locations": "Retail",
        "wines": [
            "Young Wine White"
        ]
    },
    {
        "id": "nFtle2EsCyX7P-DJ_HJBi",
        "name": "Jardin",
        "address": {
            "street": "1520 West Main Street, Richmond, VA 23220",
            "lat": "37.5476973",
            "lon": "-77.4605671"
        },
        "locations": "Restaurant",
        "wines": [
            "Pétillant Naturel Red",
            "Foothills"
        ]
    },
    {
        "id": "d0m81ANg4oaxicBRzHlV7",
        "name": "Libbie Market",
        "address": {
            "street": "400 Libbie Ave., Richmond, VA 23226",
            "lat": "37.5751427",
            "lon": "-77.5181064"
        },
        "locations": "Retail",
        "wines": [
            "Eluvium",
            "Foothills",
            "Rosé",
            "Petit Manseng"
        ]
    },
    {
        "id": "fsdpL0teyfen-FNJQekxT",
        "name": "Whole Foods - Newport News",
        "address": {
            "street": "12080 Jefferson Ave, Newport News, VA 23606",
            "lat": "37.1028877",
            "lon": "-76.4907572"
        },
        "locations": "Restaurant/Retail",
        "wines": [
            "Young Wine Red",
            "Foothills",
            "Rosé",
            "Five Forks"
        ]
    },
    {
        "id": "GwTrTj1E-_zDxcUlaTXnY",
        "name": "Whole Foods - Short Pump",
        "address": {
            "street": "11173 West Broad St., Richmond, VA 23060",
            "lat": "37.6475262",
            "lon": "-77.5994359"
        },
        "locations": "Restaurant/Retail",
        "wines": [
            "Foothills",
            "Rosé",
            "Young Wine Red"
        ]
    },
    {
        "id": "bKfmPCkI5Jx8UwZguU3b5",
        "name": "Wine Seller - Williamsburg",
        "address": {
            "street": "4680 Monticello Ave Suite 15, Williamsburg, VA 23188",
            "lat": "37.2722283",
            "lon": "-76.7577749"
        },
        "locations": "Retail",
        "wines": [
            "Rosé",
            "Foothills"
        ]
    },
    {
        "id": "FJ155T3gQUwg4uSiQArUa",
        "name": "City Vino",
        "address": {
            "street": "810 Caroline St Ste 101, Fredericksburg, VA 22407",
            "lat": "38.3020808",
            "lon": "-77.4587685"
        },
        "locations": "Retail",
        "wines": [
            "RISE",
            "Foothills",
            "Eluvium",
            "Five Forks"
        ]
    },
    {
        "id": "71OJNgjADKgCPeOsMe7LF",
        "name": "Goodstone Inn",
        "address": {
            "street": "36205 Snake Hill Rd, Middleburg, VA 20117",
            "lat": "38.9941518",
            "lon": "-77.752562"
        },
        "locations": "Restaurant",
        "wines": [
            "RISE",
            "Eluvium",
            "Early Mountain Vineyards Virginia White \"Intention\" 2019"
        ]
    },
    {
        "id": "HkNNsuR6nzq5yt_VpTzJG",
        "name": "Duck & The Peach",
        "address": {
            "street": "700 Pennsylvania Ave SE, Washington, DC 20003",
            "lat": "38.884819",
            "lon": "-76.995727"
        },
        "locations": "Restaurant",
        "wines": [
            "Shenandoah Valley Cabernet Franc"
        ]
    },
    {
        "id": "Vr7n_Ei2N9IQCM4xX6Upo",
        "name": "Roofers Union",
        "address": {
            "street": "Jug & Table, Washington, DC 20009",
            "lat": "38.9218419",
            "lon": "-77.0426073"
        },
        "locations": "Restaurant",
        "wines": [
            "Rosé"
        ]
    },