[
    {
        "id": "Aby-hVGtRb9S_lis9hqKX",
        "name": "2941 Restaurant",
        "address": {
            "street": "2941 Fairview Park Dr, Falls Church, VA 22042",
            "lat": "38.8689164",
            "lon": "-77.2148275"
        },
        "locations": "Restaurant",
        "wines": [
            "Foothills",
            "Shenandoah Valley Cabernet Franc",
            "Petit Manseng"
        ]
    },
    {
        "id": "cCVQa1KuJ-eZA7qMnHrVy",
        "name": "Alewife",
        "address": {
            "street": "3120 E Marshall St., Richmond, VA 23223",
            "lat": "37.5288799",
            "lon": "-77.4116006"
        },
        "locations": "Restaurant",
        "wines": [
            "Pétillant Naturel Red"
        ]
    },
    {
        "id": "xZkY1wxaOL6xrwxLS3Ddz",
        "name": "Amber Ox Kitchen & Brewery",
        "address": {
            "street": "521 Prince George St., Williamsburg, VA 23185",
            "lat": "37.272864",
            "lon": "-76.708414"
        },
        "locations": "Restaurant",
        "wines": [
            "Five Forks",
            "Foothills"
        ]
    },
    {
        "id": "lZBWrU2yXYyWcB0HkrpFL",
        "name": "Arrowine",
        "address": {
            "street": "4508 Lee Hwy, Arlington, VA 22207",
            "lat": "38.8983733",
            "lon": "-77.1183586"
        },
        "locations": "Retail",
        "wines": [
            "Rosé",
            "Quaker Run Chardonnay",
            "Chardonnay",
            "Foothills",
            "Eluvium",
            "Shenandoah Valley Cabernet Franc",
            "Petit Manseng"
        ]
    },
    {
        "id": "egUfSVNjJlUozD6zF1Qqr",
        "name": "Alley Light",
        "address": {
            "street": "108 2nd St. SW, Charlottesville, VA 22902",
            "lat": "38.0305995",
            "lon": "-78.482276"
        },
        "locations": "Restaurant",
        "wines": [
            "Shenandoah Valley Cabernet Franc"
        ]
    },
    {
        "id": "q2ydFZUnL5aI0LlTNLPkW",
        "name": "Artisan Wine Co & Greene Grape",
        "address": {
            "street": "765 Fulton St, Brooklyn, NY 11217",
            "lat": "40.6863309",
            "lon": "-73.9740152"
        },
        "locations": "Retail",
        "wines": [
            "Rosé"
        ]
    },
    {
        "id": "yvX5yuqAWcUVhP2fF00O6",
        "name": "Balducci's - Alexandria",
        "address": {
            "street": "600 Franklin St, Alexandria, VA 22314",
            "lat": "38.7978102",
            "lon": "-77.0479011"
        },
        "locations": "Retail",
        "wines": [
            "Shenandoah Valley Cabernet Franc",
            "Rosé",
            "Eluvium",
            "Chardonnay",
            "Young Wine",
            "RISE"
        ]
    },
    {
        "id": "SiI4MfDFL1-0oxF_HcAJ9",
        "name": "Barrel Thief",
        "address": {
            "street": "5805 Patterson Ave, Richmond, VA 23226",
            "lat": "37.5794435",
            "lon": "-77.5149812"
        },
        "locations": "Restaurant/Retail",
        "wines": [
            "Pétillant Naturel White",
            "Foothills",
            "Chardonnay",
            "Rosé"
        ]
    },
    {
        "id": "ENrr4Gm5CYzASOXaSVwZT",
        "name": "Astor Wines & Spirits",
        "address": {
            "street": "399 Lafayette St, New York, NY 10003",
            "lat": "40.7279823",
            "lon": "-73.9926938"
        },
        "locations": "Retail",
        "wines": [
            "Shenandoah Valley Cabernet Franc"
        ]
    },
    {
        "id": "GC8Jb1Q2SCj7mE_7rDrX9",
        "name": "Batch 13",
        "address": {
            "street": "1724 14th St. NW, Washington, DC 20009",
            "lat": "38.9134494",
            "lon": "-77.0321808"
        },
        "locations": "Retail",
        "wines": [
            "Five Forks",
            "Foothills"
        ]
    },
    {
        "id": "Z5-5KbcjTrQ0ZyAOjif1O",
        "name": "Bassin's MacArthur Beverages",
        "address": {
            "street": "4877 MacArthur Blvd NW, Washington, DC 20007",
            "lat": "38.9178223",
            "lon": "-77.0963311"
        },
        "locations": "Retail",
        "wines": [
            "Foothills"
        ]
    },
    {
        "id": "02zHU3M5LfdHLoru81Gu7",
        "name": "Beau Thai - Mt. Pleasant",
        "address": {
            "street": "3162 Mt. Pleasant St. NW, Washington, DC 20010",
            "lat": "38.9302882",
            "lon": "-77.0382422"
        },
        "locations": "Restaurant",
        "wines": [
            "Foothills"
        ]
    },
    {
        "id": "Ll_QmylEAjMzmPxGis0Np",
        "name": "Bed Vyne",
        "address": {
            "street": "385 Tompkins Ave, Brooklyn, NY 11216",
            "lat": "40.6846262",
            "lon": "-73.9440354"
        },
        "locations": "Retail",
        "wines": [
            "Foothills"
        ]
    },
    {
        "id": "ZWUvhT9eYqGzeZeODD6DZ",
        "name": "Beer Run",
        "address": {
            "street": "156 Carlton Rd Ste 203, Charlottesville, VA 22902",
            "lat": "38.0246361",
            "lon": "-78.468401"
        },
        "locations": "Restaurant/Retail",
        "wines": [
            "Shenandoah Valley Cabernet Franc"
        ]
    },
    {
        "id": "MyA-UfX-6IATJIftUF6zt",
        "name": "Blanca",
        "address": {
            "street": "4117 Granby St Ste A, Norfolk, VA 23504",
            "lat": "36.8846514",
            "lon": "-76.2818304"
        },
        "locations": "Restaurant",
        "wines": [
            "Petit Manseng"
        ]
    },
    {
        "id": "Id8tC0HRnXVASoOUh-biT",
        "name": "Caboose",
        "address": {
            "street": "108 S. Railroad Ave., Ashland, VA 23005",
            "lat": "37.758286",
            "lon": "-77.4816338"
        },
        "locations": "Restaurant/Retail",
        "wines": [
            "Chardonnay",
            "Foothills"
        ]
    },
    {
        "id": "yojyZgHqkELAtFpQLw-IB",
        "name": "Brut Wine Bar (Grape + Bean)",
        "address": {
            "street": "118 S Royal St #1, Alexandria, VA 22314",
            "lat": "38.8039433",
            "lon": "-77.0435496"
        },
        "locations": "Restaurant",
        "wines": [
            "Eluvium"
        ]
    },
    {
        "id": "lLReMX0DyAaN6-Xwhh5ff",
        "name": "Clementine Cafe",
        "address": {
            "street": "153 S Main St, Harrisonburg, VA 22801",
            "lat": "38.4478062",
            "lon": "-78.8692932"
        },
        "locations": "Restaurant",
        "wines": [
            "Petit Manseng",
            "Chardonnay"
        ]
    },
    {
        "id": "vb2s_R8tOvLOVRs78Mx4V",
        "name": "Clarity",
        "address": {
            "street": "442 Maple Avenue E, Vienna, VA 22180",
            "lat": "38.9093714",
            "lon": "-77.256641"
        },
        "locations": "Restaurant",
        "wines": [
            "Shenandoah Valley Cabernet Franc"
        ]
    },
    {
        "id": "pvExxNKQafMceNJIJisk-",
        "name": "Columbia Room",
        "address": {
            "street": "1224 9th St. NW, Washington, DC 20009",
            "lat": "38.9063932",
            "lon": "-77.0243474"
        },
        "locations": "Restaurant",
        "wines": [
            "Pétillant Naturel White"
        ]
    },
    {
        "id": "MI62r7i55cjIHpSOuqO_N",
        "name": "Common House",
        "address": {
            "street": "206 West Market Street, Charlottesville, VA 22902",
            "lat": "38.0317194",
            "lon": "-78.4822538"
        },
        "locations": "Restaurant",
        "wines": [
            "Chardonnay"
        ]
    },
    {
        "id": "f-4uTgXLv7cyC6olMRtJ6",
        "name": "Commune - Norfolk",
        "address": {
            "street": "759 Granby St., Norfolk, VA 23510",
            "lat": "36.8562717",
            "lon": "-76.2885787"
        },
        "locations": "Restaurant",
        "wines": [
            "Foothills",
            "Chardonnay",
            "Petit Manseng"
        ]
    },
    {
        "id": "vpnC0OrpHcRhIOt7HcRCR",
        "name": "Crystal City Wine Shop",
        "address": {
            "street": "220 20th St. South, Arlington, VA 22202",
            "lat": "38.85597",
            "lon": "-77.0500304"
        },
        "locations": "Retail",
        "wines": [
            "Rosé",
            "Foothills",
            "RISE"
        ]
    },
    {
        "id": "hLx1vVvJPA6XDonYARzd3",
        "name": "Common House No 2 (RVA)",
        "address": {
            "street": "303 West Broad Street, Richmond, VA 23220",
            "lat": "37.5470582",
            "lon": "-77.4449701"
        },
        "locations": "Restaurant",
        "wines": [
            "Quaker Run Chardonnay"
        ]
    },
    {
        "id": "t9CdEzl5NtVi3qB1BCIoG",
        "name": "Department of Beer & Wine",
        "address": {
            "street": "2724 Richmond Hwy, Alexandria, VA 22301",
            "lat": "38.8306444",
            "lon": "-77.0511825"
        },
        "locations": "Retail",
        "wines": [
            "Petit Manseng",
            "Young Wine",
            "Five Forks"
        ]
    },
    {
        "id": "unBH09iGfc4uHT6S3nIow",
        "name": "Crystal Palate",
        "address": {
            "street": "4500 Pretty Lake Avenue, Norfolk, VA 23518",
            "lat": "36.925493",
            "lon": "-76.1880817"
        },
        "locations": "Retail",
        "wines": [
            "Chardonnay",
            "Eluvium"
        ]
    },
    {
        "id": "mK9epRr3bOYYq3e2tQt6_",
        "name": "Dominion Wine and Beer",
        "address": {
            "street": "107 Rowell Ct., Falls Church, VA 22046",
            "lat": "38.8897048",
            "lon": "-77.183834"
        },
        "locations": "Restaurant/Retail",
        "wines": [
            "Foothills",
            "Chardonnay",
            "Five Forks"
        ]
    },
    {
        "id": "9EATzHJ8D-RujsHbv8PXK",
        "name": "Ellwood Thompson",
        "address": {
            "street": "4 N Thompson St, Richmond, VA 23221",
            "lat": "37.5574421",
            "lon": "-77.4886194"
        },
        "locations": "Retail",
        "wines": [
            "Foothills",
            "Quaker Run Chardonnay",
            "Chardonnay",
            "Eluvium",
            "Shenandoah Valley Cabernet Franc",
            "Petit Manseng",
            "Young Wine",
            "Rosé"
        ]
    },
    {
        "id": "2NwHnRfvQLSB89Ce1-83Y",
        "name": "Fat Canary",
        "address": {
            "street": "The Cheese Shop of VA, Inc., Williamsburg, VA 23185",
            "lat": "37.2706994",
            "lon": "-76.7061859"
        },
        "locations": "Restaurant",
        "wines": [
            "Foothills",
            "Five Forks",
            "Shenandoah Valley Cabernet Franc",
            "Rosé",
            "Young Wine",
            "Eluvium",
            "Pétillant Naturel White",
            "Quaker Run Chardonnay",
            "Chardonnay",
            "RISE"
        ]
    },
    {
        "id": "I4PyMhsuz1r-3weHXLuW3",
        "name": "Field & Main",
        "address": {
            "street": "8369 W. Main St., Marshall, VA 20115",
            "lat": "38.8647631",
            "lon": "-77.8574303"
        },
        "locations": "Restaurant/Retail",
        "wines": [
            "Rosé",
            "Red Vine",
            "Eluvium",
            "RISE"
        ]
    },
    {
        "id": "W2bPaL80UnwfIr7bCmoOM",
        "name": "Each Peach Market",
        "address": {
            "street": "3068 Mt Pleasant St NW, Washington, DC 20009",
            "lat": "38.928548",
            "lon": "-77.0375272"
        },
        "locations": "Restaurant/Retail",
        "wines": [
            "Foothills"
        ]
    },
    {
        "id": "T2k25lNpuLx6FmRxrdFwc",
        "name": "Foods of All Nations",
        "address": {
            "street": "2121 Ivy Rd, Charlottesville, VA 22903",
            "lat": "38.0432978",
            "lon": "-78.5119067"
        },
        "locations": "Retail",
        "wines": [
            "Five Forks",
            "Rosé",
            "Foothills",
            "Eluvium",
            "Young Wine",
            "Shenandoah Valley Cabernet Franc"
        ]
    },
    {
        "id": "2EfcNYUoFnsmlqkLvkf8m",
        "name": "Flatiron Wines",
        "address": {
            "street": "929 Broadway, New York, NY 20020",
            "lat": "40.740278",
            "lon": "-73.9896832"
        },
        "locations": "Retail",
        "wines": [
            "Shenandoah Valley Cabernet Franc",
            "Petit Manseng"
        ]
    },
    {
        "id": "BSeWN_mCo2WliLOoyf60V",
        "name": "Founding Farmers - DC",
        "address": {
            "street": "1924 Pennsylvania Ave. NW, Washington, DC 20006",
            "lat": "38.9002854",
            "lon": "-77.0445269"
        },
        "locations": "Restaurant",
        "wines": [
            "Rosé"
        ]
    },
    {
        "id": "T0kN_dCgx0ho5GSe9a2Xa",
        "name": "Founding Farmers - Tyson's Corner",
        "address": {
            "street": "1800 Tyson's Blvd., McLean, VA 22102",
            "lat": "38.9223637",
            "lon": "-77.2224625"
        },
        "locations": "Restaurant",
        "wines": [
            "Rosé"
        ]
    },
    {
        "id": "b81T7eJ9q5ma0Q1HTDbcR",
        "name": "Friendly City Food Co-op",
        "address": {
            "street": "150 E Wolfe St, Harrisonburg, VA 22802",
            "lat": "38.4516609",
            "lon": "-78.8665291"
        },
        "locations": "Retail",
        "wines": [
            "Foothills",
            "Young Wine",
            "Pétillant Naturel White",
            "Petit Manseng",
            "Five Forks"
        ]
    },
    {
        "id": "jhzi6UWJ409OUD-XNusvB",
        "name": "Glen's Garden Market",
        "address": {
            "street": "2001 S St. NW, Washington, DC 20009",
            "lat": "38.9143274",
            "lon": "-77.0451575"
        },
        "locations": "Restaurant/Retail",
        "wines": [
            "Shenandoah Valley Cabernet Franc",
            "Pétillant Naturel Red",
            "Five Forks",
            "Rosé",
            "Young Wine"
        ]
    },
    {
        "id": "qVGMcO-VI9qfo1P44Ia90",
        "name": "Greenwood",
        "address": {
            "street": "6701 Rockfish Gap TPK, Crozet, VA 22932",
            "lat": "38.0413202",
            "lon": "-78.732343"
        },
        "locations": "Retail",
        "wines": [
            "Foothills",
            "Chardonnay",
            "Shenandoah Valley Cabernet Franc",
            "Eluvium",
            "Five Forks",
            "Petit Manseng",
            "RISE"
        ]
    },
    {
        "id": "5GdZkI_kqXsQC0U2UBDWd",
        "name": "Founding Farmers - Reston",
        "address": {
            "street": "1904 Reston Metro Plaza, Suite 100, Reston, VA 20190",
            "lat": "38.9488917",
            "lon": "-77.3383807"
        },
        "locations": "Restaurant",
        "wines": [
            "Rosé"
        ]
    },
    {
        "id": "nDgLBt-64eAiQPmMHhbj1",
        "name": "Grisette",
        "address": {
            "street": "3119 East Marshall Street, Richmond, VA 23223",
            "lat": "37.5286168",
            "lon": "-77.4119223"
        },
        "locations": "Restaurant",
        "wines": [
            "Petit Manseng"
        ]
    },
    {
        "id": "FAnxTUOQkuvwC4XO8SX_b",
        "name": "J Emerson",
        "address": {
            "street": "5716 Grove Ave, Richmond, VA 23226",
            "lat": "37.5733362",
            "lon": "-77.5180274"
        },
        "locations": "Retail",
        "wines": [
            "Five Forks",
            "Rosé",
            "Foothills",
            "Shenandoah Valley Cabernet Franc"
        ]
    },
    {
        "id": "9yxeQvtloCFgBsgwcK0Vi",
        "name": "Jefferson Hotel",
        "address": {
            "street": "101 W Franklin St, Richmond, VA 23220",
            "lat": "37.5442364",
            "lon": "-77.4454155"
        },
        "locations": "Restaurant",
        "wines": [
            "Eluvium",
            "Foothills"
        ]
    },
    {
        "id": "fm1tMinAKmm6DlpZhjjnL",
        "name": "La Fromagerie",
        "address": {
            "street": "1222 King St, Alexandria, VA 22314",
            "lat": "38.805648",
            "lon": "-77.053429"
        },
        "locations": "Restaurant/Retail",
        "wines": [
            "Rosé",
            "Pétillant Naturel White",
            "Eluvium",
            "Quaker Run Chardonnay"
        ]
    },
    {
        "id": "pZAVF9GJiC0U6hRxB4clo",
        "name": "Henry's",
        "address": {
            "street": "69 Central Ave., Brooklyn, NY 11206",
            "lat": "40.701166",
            "lon": "-73.9302185"
        },
        "locations": "Retail",
        "wines": [
            "Young Wine"
        ]
    },
    {
        "id": "SkWeIonANAAA-2pIxHf1L",
        "name": "Little Red Fox",
        "address": {
            "street": "5035 Connecticut Ave. NW, Washington, DC 20008",
            "lat": "38.9558822",
            "lon": "-77.0699601"
        },
        "locations": "Restaurant/Retail",
        "wines": [
            "Shenandoah Valley Cabernet Franc",
            "Five Forks"
        ]
    },
    {
        "id": "IufB4KueIvVbVSbx4UPuI",
        "name": "Libbie Market",
        "address": {
            "street": "400 Libbie Ave., Richmond, VA 23226",
            "lat": "37.5746309",
            "lon": "-77.5183971"
        },
        "locations": "Retail",
        "wines": [
            "Rosé",
            "Eluvium",
            "RISE"
        ]
    },
    {
        "id": "t8zufkQDh4HXcLJWv6Rqd",
        "name": "Market Street Wine Shop",
        "address": {
            "street": "311 East Market St, Charlottesville, VA 22902",
            "lat": "38.0310698",
            "lon": "-78.4789677"
        },
        "locations": "Retail",
        "wines": [
            "Pétillant Naturel Red",
            "Rosé",
            "Pétillant Naturel White",
            "Foothills",
            "Shenandoah Valley Cabernet Franc",
            "Five Forks",
            "Eluvium",
            "Chardonnay",
            "RISE"
        ]
    },
    {
        "id": "xu6M9ASkUSYCdw75P2opt",
        "name": "Locke Store",
        "address": {
            "street": "2049 Millwood Rd., Millwood, VA 22646",
            "lat": "39.0695734",
            "lon": "-78.0379555"
        },
        "locations": "Retail",
        "wines": [
            "Quaker Run Chardonnay",
            "Eluvium",
            "Rosé",
            "Petit Manseng"
        ]
    },
    {
        "id": "EZD50FfcXZAKi0ao8OeEo",
        "name": "Mom's Apple Pie Hill High",
        "address": {
            "street": "35246 Harry Byrd Hwy Ste. 100, Round Hill, VA 20141",
            "lat": "39.1277991",
            "lon": "-77.7873132"
        },
        "locations": "Retail",
        "wines": [
            "Young Wine",
            "Shenandoah Valley Cabernet Franc",
            "Pétillant Naturel White",
            "Petit Manseng",
            "Eluvium",
            "RISE"
        ]
    },
    {
        "id": "huCblU0oBJRkiMbePh0vN",
        "name": "Mona Lisa",
        "address": {
            "street": "921 Preston Ave, Charlottesville, VA 22903",
            "lat": "38.038434",
            "lon": "-78.489901"
        },
        "locations": "Retail",
        "wines": [
            "Foothills",
            "Rosé",
            "Eluvium",
            "Petit Manseng",
            "Five Forks",
            "Young Wine",
            "Shenandoah Valley Cabernet Franc"
        ]
    },
    {
        "id": "7RAeXVqWYaTw55B-gLAWu",
        "name": "Mom's Apple Pie",
        "address": {
            "street": "126 A Commerce St, Occoquan Historic Dist., VA 22125",
            "lat": "38.6822873",
            "lon": "-77.2600693"
        },
        "locations": "Retail",
        "wines": [
            "Pétillant Naturel Red",
            "Shenandoah Valley Cabernet Franc",
            "Young Wine"
        ]
    },
    {
        "id": "SYVxmS52TZlTytap64e3p",
        "name": "Mr. Bill's Wine Cellar",
        "address": {
            "street": "2825 B Brambleton Ave., Roanoke, VA 24015",
            "lat": "37.2438511",
            "lon": "-79.9909487"
        },
        "locations": "Retail",
        "wines": [
            "Young Wine"
        ]
    },
    {
        "id": "QmZs4N024dYjp2UJGmHyP",
        "name": "Montgomery Co. Dept. of Liquor Control",
        "address": {
            "street": "Division of Financial, Gaithersburg, MD 20878",
            "lat": "39.139876",
            "lon": "-77.1926495"
        },
        "locations": "Restaurant/Retail",
        "wines": [
            "Rosé"
        ]
    },
    {
        "id": "OZBcnaEvj-wu2b5GbwUA6",
        "name": "Norm's Beer & Wine",
        "address": {
            "street": "136 Branch Rd SE, Vienna, VA 22180",
            "lat": "38.9062317",
            "lon": "-77.257151"
        },
        "locations": "Retail",
        "wines": [
            "Foothills",
            "Five Forks",
            "Rosé",
            "Quaker Run Chardonnay",
            "Chardonnay",
            "Shenandoah Valley Cabernet Franc"
        ]
    },
    {
        "id": "jc7iKNq9lUbbwxGbaaJ5q",
        "name": "Nota Bene",
        "address": {
            "street": "2110 E Main St., Richmond, VA 23223",
            "lat": "37.5311605",
            "lon": "-77.4243981"
        },
        "locations": "Restaurant",
        "wines": [
            "Chardonnay",
            "Foothills"
        ]
    },
    {
        "id": "i2vcnXNQi9nJSGS_MakaM",
        "name": "Newtown Baking",
        "address": {
            "street": "960 W Beverlely Street, Staunton, VA 24400",
            "lat": "38.1498989",
            "lon": "-79.0827541"
        },
        "locations": "Retail",
        "wines": [
            "Foothills"
        ]
    },
    {
        "id": "pbcoiAQvK6LoxoBZyRLez",
        "name": "Organic Butcher of McLean",
        "address": {
            "street": "6712 Old Dominion Drive, McLean, VA 22101",
            "lat": "38.9335412",
            "lon": "-77.1758584"
        },
        "locations": "Retail",
        "wines": [
            "Five Forks",
            "Young Wine",
            "Chardonnay",
            "Foothills",
            "Shenandoah Valley Cabernet Franc",
            "RISE"
        ]
    },
    {
        "id": "pDNChHdUumbaKrW8s7_2V",
        "name": "Outpost",
        "address": {
            "street": "4813 Forest Hill Ave., Richmond, VA 23225",
            "lat": "37.5211852",
            "lon": "-77.4878087"
        },
        "locations": "Retail",
        "wines": [
            "Rosé",
            "Young Wine",
            "Foothills"
        ]
    },
    {
        "id": "2KTqjoEwIupKIkKaktlAy",
        "name": "Olmsted",
        "address": {
            "street": "659 Vanderbilt Ave, Brooklyn, NY 11238",
            "lat": "40.677064",
            "lon": "-73.9687578"
        },
        "locations": "Restaurant",
        "wines": [
            "Petit Manseng",
            "Eluvium"
        ]
    },
    {
        "id": "i-eXj_keesPUSUsPZX2bK",
        "name": "Planet Wine",
        "address": {
            "street": "2000-2004 Mount Vernon Ave, Alexandria, VA 22301",
            "lat": "38.8239816",
            "lon": "-77.0585376"
        },
        "locations": "Retail",
        "wines": [
            "Rosé",
            "Shenandoah Valley Cabernet Franc",
            "Young Wine"
        ]
    },
    {
        "id": "H95qGAirB25JGFO1f7zyQ",
        "name": "Primland Resort",
        "address": {
            "street": "2000 Busted Rock Road, Meadows of Dan, VA 24120",
            "lat": "36.6617827",
            "lon": "-80.4318697"
        },
        "locations": "Restaurant",
        "wines": [
            "Shenandoah Valley Cabernet Franc",
            "Chardonnay"
        ]
    },
    {
        "id": "3-7pzJOc8ixII-q9Qxdy1",
        "name": "Prosperity Kitchen & Pantry",
        "address": {
            "street": "532 Virginia Beach Blvd Ste B, Virginia Beach, VA 23451",
            "lat": "36.8444829",
            "lon": "-75.9806406"
        },
        "locations": "Restaurant",
        "wines": [
            "Young Wine",
            "Foothills"
        ]
    },
    {
        "id": "J94kHMlBasxfc6uM9SzKJ",
        "name": "Red Hen-DC",
        "address": {
            "street": "1822 1st St. NW, Washington, DC 20001",
            "lat": "38.9149738",
            "lon": "-77.0124095"
        },
        "locations": "Restaurant",
        "wines": [
            "Petit Manseng",
            "Rosé"
        ]
    },
    {
        "id": "UzpWsZ_dahhDJ0b0eY4Ji",
        "name": "Rhett's Bar and Grill",
        "address": {
            "street": "134 Wood Ridge Terrace Ste.100, Zion Crossroads, VA 22942",
            "lat": "37.9801543",
            "lon": "-78.2131386"
        },
        "locations": "Restaurant",
        "wines": [
            "Foothills",
            "Five Forks"
        ]
    },
    {
        "id": "5c4aJQX0dwcABp3mKwqxm",
        "name": "RichWine",
        "address": {
            "street": "2601 Maury Street, Richmond, VA 23224",
            "lat": "37.5095",
            "lon": "-77.4565725"
        },
        "locations": "Retail",
        "wines": [
            "Foothills",
            "Rosé"
        ]
    },
    {
        "id": "VzWdyWWipkmx845LFZM2i",
        "name": "Rio Hill Wine & Beer",
        "address": {
            "street": "1908 Rio Hill Center, Charlottesville, VA 22901",
            "lat": "38.0877905",
            "lon": "-78.4749043"
        },
        "locations": "Retail",
        "wines": [
            "Shenandoah Valley Cabernet Franc",
            "Chardonnay",
            "Foothills",
            "Rosé",
            "Eluvium"
        ]
    },
    {
        "id": "PIjbvHSdb6HzqXub_7h8J",
        "name": "Perch",
        "address": {
            "street": "2918 W. Broad Street, Richmond, VA 23230",
            "lat": "37.5640539",
            "lon": "-77.4719183"
        },
        "locations": "Restaurant",
        "wines": [
            "Petit Manseng"
        ]
    },
    {
        "id": "LruGjOg3yfagyWBAmlWhb",
        "name": "Roosevelt",
        "address": {
            "street": "623 N. 25th St., Richmond, VA 23223",
            "lat": "37.534897",
            "lon": "-77.4154189"
        },
        "locations": "Restaurant",
        "wines": [
            "Five Forks"
        ]
    },
    {
        "id": "_MvXCJtjfPQf33kY1MrXN",
        "name": "Screwtop",
        "address": {
            "street": "1025 Fillmore St. N, Arlington, VA 22201",
            "lat": "38.8859072",
            "lon": "-77.0926894"
        },
        "locations": "Restaurant/Retail",
        "wines": [
            "Pétillant Naturel Red",
            "Pétillant Naturel White"
        ]
    },
    {
        "id": "wMPU7cS1-hkWbg6ShmgHl",
        "name": "Saison",
        "address": {
            "street": "23 W Marshall St. Suite A, Richmond, VA 23220",
            "lat": "37.546819",
            "lon": "-77.4420934"
        },
        "locations": "Restaurant",
        "wines": [
            "Pétillant Naturel Red"
        ]
    },
    {
        "id": "8C8zyedhNb03K7YZr88MY",
        "name": "Shagbark",
        "address": {
            "street": "4901 Libbie Mill E Blvd. Ste 175, Richmond, VA 23230",
            "lat": "37.5906296",
            "lon": "-77.4937676"
        },
        "locations": "Restaurant",
        "wines": [
            "Rosé",
            "Eluvium"
        ]
    },
    {
        "id": "mDPU0Q-v7ToWeoVLOXIAK",
        "name": "Shack, The",
        "address": {
            "street": "105 S. Coalter St., Staunton, VA 24401",
            "lat": "38.148151",
            "lon": "-79.0681357"
        },
        "locations": "Restaurant",
        "wines": [
            "Shenandoah Valley Cabernet Franc"
        ]
    },
    {
        "id": "2Dy5SkGbsFvfQ1C_R_ip-",
        "name": "Shelter",
        "address": {
            "street": "1401 Pennsylvania Ave SE, Washington, DC 20003",
            "lat": "38.8798036",
            "lon": "-76.9852327"
        },
        "locations": "Retail",
        "wines": [
            "Young Wine"
        ]
    },
    {
        "id": "OIazTh-7iVF3QDUgaA7Bg",
        "name": "Shields Market",
        "address": {
            "street": "206 North Shields Avenue, Richmond, VA 23220",
            "lat": "37.5530887",
            "lon": "-77.4668696"
        },
        "locations": "Restaurant/Retail",
        "wines": [
            "Foothills"
        ]
    },
    {
        "id": "q1UtdFrTEAjHZUE_gekfu",
        "name": "Slope Cellars",
        "address": {
            "street": "436 7th Ave, Brooklyn, NY 11215",
            "lat": "40.6635697",
            "lon": "-73.9846443"
        },
        "locations": "Restaurant/Retail",
        "wines": [
            "Quaker Run Chardonnay",
            "Young Wine"
        ]
    },
    {
        "id": "l05xN2NH4J11ttvpAr6Dj",
        "name": "Stranger Wines",
        "address": {
            "street": "132 Havemeyer S, New York, NY 11211",
            "lat": "40.7122012",
            "lon": "-73.9574264"
        },
        "locations": "Retail",
        "wines": [
            "Pétillant Naturel Red",
            "Young Wine"
        ]
    },
    {
        "id": "pAQGJeONTPcGk7aoqJ6FG",
        "name": "Taste - Bayville Farms",
        "address": {
            "street": "4097 Shore Drive, Virginia Beach, VA 23455",
            "lat": "36.9057286",
            "lon": "-76.1161963"
        },
        "locations": "Restaurant/Retail",
        "wines": [
            "Rosé",
            "Eluvium"
        ]
    },
    {
        "id": "BCAKpREvOv5YGMKrcEPr5",
        "name": "St. Anselm",
        "address": {
            "street": "1250 5th St. NE, Washington, DC 20002",
            "lat": "38.9077745",
            "lon": "-76.9990918"
        },
        "locations": "Restaurant",
        "wines": [
            "Shenandoah Valley Cabernet Franc"
        ]
    },
    {
        "id": "D-USnNGLrfUGFQRmQ3xv1",
        "name": "Taste - Westhampton",
        "address": {
            "street": "5706 Grove Ave Ste 100, Richmond, VA 23226",
            "lat": "37.5734275",
            "lon": "-77.5173708"
        },
        "locations": "Restaurant/Retail",
        "wines": [
            "Rosé",
            "Eluvium",
            "Foothills"
        ]
    },
    {
        "id": "R8nS0IbKr4YCCbCz43KoZ",
        "name": "Thornton River Grille",
        "address": {
            "street": "Thornton River Grille, Sperryville, VA 22740",
            "lat": "38.657256",
            "lon": "-78.22669"
        },
        "locations": "Restaurant",
        "wines": [
            "Chardonnay",
            "Foothills",
            "Eluvium",
            "Rosé",
            "Petit Manseng"
        ]
    },
    {
        "id": "ArUl3nLsWAbJaAk4bt1fa",
        "name": "Town Duck",
        "address": {
            "street": "100 Main St, Warrenton, VA 20186",
            "lat": "38.7122701",
            "lon": "-77.7930779"
        },
        "locations": "Retail",
        "wines": [
            "Foothills",
            "Five Forks"
        ]
    },
    {
        "id": "NLNF1E1q2IlhPMfRi4Oh3",
        "name": "Unwined Belle View",
        "address": {
            "street": "1600 Belle View Blvd., Alexandria, VA 22307",
            "lat": "38.7761672",
            "lon": "-77.0597746"
        },
        "locations": "Retail",
        "wines": [
            "Rosé",
            "Shenandoah Valley Cabernet Franc",
            "Eluvium",
            "Quaker Run Chardonnay"
        ]
    },
    {
        "id": "mwZn5nyJBP8R6reIe3AVd",
        "name": "Taste - Headquarters",
        "address": {
            "street": "1391 Air Rail Avenue, Virginia Beach, VA 23455",
            "lat": "36.8929573",
            "lon": "-76.1918905"
        },
        "locations": "Restaurant/Retail",
        "wines": [
            "Rosé"
        ]
    },
    {
        "id": "LtMsro_Sq-p4XYX_Pupyu",
        "name": "Unwined Bradlee Shopping Center",
        "address": {
            "street": "3690-J King St, Alexandria, VA 22302",
            "lat": "38.8296628",
            "lon": "-77.0921948"
        },
        "locations": "Retail",
        "wines": [
            "Rosé"
        ]
    },
    {
        "id": "gVL1NBFmEbun1z3aoYWOc",
        "name": "Vine Wine",
        "address": {
            "street": "616 Lorimer St, Brooklyn, NY 11211",
            "lat": "40.7153681",
            "lon": "-73.9494145"
        },
        "locations": "Retail",
        "wines": [
            "Pétillant Naturel Red",
            "Young Wine",
            "Pétillant Naturel White"
        ]
    },
    {
        "id": "BGX8bWPCCO3f5vp4pvvSF",
        "name": "Vino Market",
        "address": {
            "street": "3730 Winterfield Rd., Midlothian, VA 23113",
            "lat": "37.5535346",
            "lon": "-77.6685934"
        },
        "locations": "Retail",
        "wines": [
            "Rosé",
            "Foothills",
            "Five Forks"
        ]
    },
    {
        "id": "J6ihNqX7RzQhhp5Do3-PL",
        "name": "Vanderbilt Wine Merchants",
        "address": {
            "street": "573 Vanderbilt Ave, New York, NY 11238",
            "lat": "40.6805749",
            "lon": "-73.9674951"
        },
        "locations": "Restaurant/Retail",
        "wines": [
            "Young Wine"
        ]
    },
    {
        "id": "XhkIUX_64vYWTpP4lSMko",
        "name": "Virginia Cheese Company",
        "address": {
            "street": "501 Botetourt Street, Norfolk, VA 23510",
            "lat": "36.8528816",
            "lon": "-76.2961736"
        },
        "locations": "Retail",
        "wines": [
            "Five Forks",
            "Petit Manseng"
        ]
    },
    {
        "id": "B4l0N_fC79en7azppIDND",
        "name": "Westside Produce & Provisions",
        "address": {
            "street": "5015 Colley Ave., Norfolk, VA 23508",
            "lat": "36.8890972",
            "lon": "-76.2954949"
        },
        "locations": "Retail",
        "wines": [
            "Five Forks",
            "Shenandoah Valley Cabernet Franc",
            "Foothills",
            "Petit Manseng",
            "Young Wine",
            "Eluvium"
        ]
    },
    {
        "id": "KALQ846-6DmjwcevbdH6k",
        "name": "Vintage Cellar",
        "address": {
            "street": "1338 South Main St., Blacksburg, VA 24060",
            "lat": "37.215963",
            "lon": "-80.402101"
        },
        "locations": "Retail",
        "wines": [
            "Foothills"
        ]
    },
    {
        "id": "t2JTcEOT9DXgJAe0D7x_m",
        "name": "Whole Foods - Arlington",
        "address": {
            "street": "2700 Wilson Blvd., Arlington, VA 22201",
            "lat": "38.8892254",
            "lon": "-77.0912401"
        },
        "locations": "Restaurant/Retail",
        "wines": [
            "Rosé",
            "Five Forks"
        ]
    },
    {
        "id": "6Dqvj3jYWJrQxcJhmugTK",
        "name": "White Moose Inn",
        "address": {
            "street": "291 Main St., Washington, VA 22747",
            "lat": "38.7123391",
            "lon": "-78.16034"
        },
        "locations": "Restaurant",
        "wines": [
            "Foothills",
            "Chardonnay"
        ]
    },
    {
        "id": "rozUcih1kCR1MUJwjb1Ji",
        "name": "Whole Foods - Boro Tysons",
        "address": {
            "street": "1635 Boro Place, McLean, VA 22102",
            "lat": "38.9246164",
            "lon": "-77.2334974"
        },
        "locations": "Restaurant/Retail",
        "wines": [
            "Foothills",
            "Rosé"
        ]
    },
    {
        "id": "nBqSNP_PDFkgul0AqRCvr",
        "name": "Whole Foods - Charlottesville",
        "address": {
            "street": "1797 Hydraulic Road, Charlottesville, VA 22901",
            "lat": "38.059773",
            "lon": "-78.4891351"
        },
        "locations": "Restaurant/Retail",
        "wines": [
            "Rosé",
            "Foothills",
            "Five Forks"
        ]
    },
    {
        "id": "coi7Gf9dA24sO0JVBZmZ3",
        "name": "Whole Foods - Ashburn",
        "address": {
            "street": "19800 Belmont Chase Dr, Ashburn, VA 20147",
            "lat": "39.0684834",
            "lon": "-77.4843963"
        },
        "locations": "Restaurant/Retail",
        "wines": [
            "Rosé",
            "Five Forks",
            "Foothills"
        ]
    },
    {
        "id": "CLUuwcOrG41L4xTJxbt5Q",
        "name": "Whole Foods - Florida Ave",
        "address": {
            "street": "FAV - BU# 10651, Washington, DC 20001",
            "lat": "38.9071923",
            "lon": "-77.0368707"
        },
        "locations": "Restaurant/Retail",
        "wines": [
            "Rosé",
            "Five Forks"
        ]
    },
    {
        "id": "bkz4WFaCvrHUrHi4QhL0l",
        "name": "Whole Foods - Old Town",
        "address": {
            "street": "1700 Duke Street, Alexandria, VA 22314",
            "lat": "38.8041416",
            "lon": "-77.0600615"
        },
        "locations": "Restaurant/Retail",
        "wines": [
            "Foothills",
            "Rosé"
        ]
    },
    {
        "id": "pJD6WuhyE_iR2naReoBNO",
        "name": "Whole Foods - H Street",
        "address": {
            "street": "600-A H Street, NE, Washington, DC 20002",
            "lat": "38.9005142",
            "lon": "-76.9976267"
        },
        "locations": "Restaurant/Retail",
        "wines": [
            "Five Forks"
        ]
    },
    {
        "id": "MU4d5NHXuNUIdXWLg3ja0",
        "name": "Whole Foods - Short Pump",
        "address": {
            "street": "11173 West Broad St., Richmond, VA 23060",
            "lat": "37.6475665",
            "lon": "-77.5997292"
        },
        "locations": "Restaurant/Retail",
        "wines": [
            "Five Forks",
            "Foothills"
        ]
    },
    {
        "id": "3u5u-gBvyfbeop_NyqkIC",
        "name": "Whole Foods - Virginia Beach",
        "address": {
            "street": "1800 Laskin Road, Virginia Beach, VA 23454",
            "lat": "36.8509319",
            "lon": "-76.0281576"
        },
        "locations": "Restaurant/Retail",
        "wines": [
            "Foothills",
            "Rosé",
            "Five Forks"
        ]
    },
    {
        "id": "b2231xMNzB4uCkYDaxVAA",
        "name": "Whole Foods - Vienna",
        "address": {
            "street": "143 Maple Ave East, Vienna, VA 22180",
            "lat": "38.9022469",
            "lon": "-77.2626957"
        },
        "locations": "Restaurant/Retail",
        "wines": [
            "Rosé",
            "Five Forks"
        ]
    },
    {
        "id": "GXx2WCP8UVpDBGIHi1vym",
        "name": "Wine & Country",
        "address": {
            "street": "4282 Ivy Road, Charlottesville, VA 22903",
            "lat": "38.056209",
            "lon": "-78.5953366"
        },
        "locations": "Retail",
        "wines": [
            "Petit Manseng",
            "Shenandoah Valley Cabernet Franc"
        ]
    },
    {
        "id": "KeC--Z715zRNGhfO89hSG",
        "name": "Wine Seller - Williamsburg",
        "address": {
            "street": "4680 Monticello Ave Suite 15, Williamsburg, VA 23188",
            "lat": "37.2719211",
            "lon": "-76.7595155"
        },
        "locations": "Retail",
        "wines": [
            "Five Forks",
            "Foothills"
        ]
    },
    {
        "id": "IY2PORpJlt19LFmkxQFCX",
        "name": "Wine Warehouse",
        "address": {
            "street": "1804 Hydraulic Rd, Charlottesville, VA 22902",
            "lat": "38.0607943",
            "lon": "-78.4914214"
        },
        "locations": "Retail",
        "wines": [
            "Young Wine",
            "Chardonnay",
            "Foothills",
            "Shenandoah Valley Cabernet Franc"
        ]
    },
    {
        "id": "Al_2GKFzJzE5KSc_O4A5s",
        "name": "Wool Factory, The",
        "address": {
            "street": "1837 Broadway Street, Charlottesville, VA 22902",
            "lat": "38.0195964",
            "lon": "-78.4553634"
        },
        "locations": "Restaurant/Retail",
        "wines": [
            "Foothills",
            "RISE"
        ]
    },
    {
        "id": "9kkUIqmpr9xTe9xo7Q_8l",
        "name": "Whole Foods - West Broad",
        "address": {
            "street": "2024 W Broad Street, Richmond, VA 23220",
            "lat": "37.5581958",
            "lon": "-77.4612166"
        },
        "locations": "Restaurant/Retail",
        "wines": [
            "Foothills",
            "Rosé"
        ]
    },
    {
        "id": "rQs6LaVX9u4KBDilKHson",
        "name": "Zocalo",
        "address": {
            "street": "201 E Main St Suite E, Charlottesville, VA 22902",
            "lat": "38.0307918",
            "lon": "-78.4803003"
        },
        "locations": "Restaurant",
        "wines": [
            "Rosé"
        ]
    },
    {
        "id": "j3x9q2eADxoymAEe1UObA",
        "name": "Achilles Heel",
        "address": {
            "street": "180 West Street, Brooklyn, NY 11222",
            "lat": "40.7331926",
            "lon": "-73.9596128"
        },
        "locations": "Restaurant",
        "wines": [
            "Pétillant Naturel Red"
        ]
    },
    {
        "id": "7KmvVFzfK4hMwtsG_1F6X",
        "name": "Zynodoa",
        "address": {
            "street": "115 E Beverly St, Staunton, VA 24401",
            "lat": "38.149814",
            "lon": "-79.0709713"
        },
        "locations": "Restaurant",
        "wines": [
            "Eluvium"
        ]
    },
    {
        "id": "K0-_-qdEmY3Oa1t0e6B2c",
        "name": "Amber Ox Kitchen & Brewery",
        "address": {
            "street": "521 Prince George St., Williamsburg, VA 23185",
            "lat": "37.272864",
            "lon": "-76.708414"
        },
        "locations": "Restaurant",
        "wines": [
            "Foothills"
        ]
    },
    {
        "id": "lJsYPFKoP12K2bteCCqgx",
        "name": "Arrowine",
        "address": {
            "street": "4508 Lee Hwy, Arlington, VA 22207",
            "lat": "38.8983733",
            "lon": "-77.1183586"
        },
        "locations": "Retail",
        "wines": [
            "Foothills",
            "Chardonnay"
        ]
    },
    {
        "id": "huszcoilNbTG3Af-E0usc",
        "name": "Barrel Chest",
        "address": {
            "street": "4035 Electric Rd. #B, Roanoke, VA 24018",
            "lat": "37.2235279",
            "lon": "-79.982868"
        },
        "locations": "Retail",
        "wines": [
            "Foothills",
            "Eluvium",
            "RISE"
        ]
    },
    {
        "id": "cwhIoMy27MQDdxFzT_Aks",
        "name": "Brooklyn Wine Exchange",
        "address": {
            "street": "138 Court Street, Brooklyn, NY 11201",
            "lat": "40.6893227",
            "lon": "-73.992801"
        },
        "locations": "Retail",
        "wines": [
            "Five Forks"
        ]
    },
    {
        "id": "8B02NSeq-oWY5BAhOtGuy",
        "name": "Caboose",
        "address": {
            "street": "108 S. Railroad Ave., Ashland, VA 23005",
            "lat": "37.758286",
            "lon": "-77.4816338"
        },
        "locations": "Restaurant/Retail",
        "wines": [
            "Foothills"
        ]
    },
    {
        "id": "Xt0QsxKRGj0UES41DLWk_",
        "name": "Cairo Wine & Liquor",
        "address": {
            "street": "1618 17th St NW, Washington, DC 20009",
            "lat": "38.9117809",
            "lon": "-77.0387481"
        },
        "locations": "Retail",
        "wines": [
            "Rosé"
        ]
    },
    {
        "id": "tDJCv3cPfnF9Rwfushx_G",
        "name": "Capital Ale House - Fairfax",
        "address": {
            "street": "4069 Chain Bridge Rd, Fairfax, VA 22030",
            "lat": "38.8442986",
            "lon": "-77.3073582"
        },
        "locations": "Restaurant",
        "wines": [
            "Five Forks",
            "Foothills"
        ]
    },
    {
        "id": "IdIUHB7llGhs4qL1_4mMV",
        "name": "Chambers St",
        "address": {
            "street": "148 Chambers St., New York, NY 10007",
            "lat": "40.7156492",
            "lon": "-74.0098832"
        },
        "locations": "Retail",
        "wines": [
            "Petit Manseng",
            "Young Wine"
        ]
    },
    {
        "id": "3FGb6JuPSkOwlGTNHw1dE",
        "name": "City Vino",
        "address": {
            "street": "810 Caroline St Ste 101, Fredericksburg, VA 22407",
            "lat": "38.3019961",
            "lon": "-77.4590376"
        },
        "locations": "Retail",
        "wines": [
            "Five Forks",
            "Young Wine"
        ]
    },
    {
        "id": "95waN8YxKOefcWDMKGDYx",
        "name": "Calvert Woodley",
        "address": {
            "street": "4339 Connecticut Ave NW, Washington, DC 20008",
            "lat": "38.9450626",
            "lon": "-77.06377"
        },
        "locations": "Retail",
        "wines": [
            "Eluvium"
        ]
    },
    {
        "id": "DLnrBx2kgsi3lAkJfNIM_",
        "name": "Crystal City Wine Shop",
        "address": {
            "street": "220 20th St. South, Arlington, VA 22202",
            "lat": "38.85597",
            "lon": "-77.0500304"
        },
        "locations": "Retail",
        "wines": [
            "Petit Manseng"
        ]
    },
    {
        "id": "Z9mF2rxGiQF9RvtNHvBja",
        "name": "Drink PLG",
        "address": {
            "street": "492 Flatbush Avenue, New York, NY 11225",
            "lat": "40.662059",
            "lon": "-73.962005"
        },
        "locations": "Retail",
        "wines": [
            "Shenandoah Valley Cabernet Franc",
            "Young Wine",
            "Foothills"
        ]
    },
    {
        "id": "k08thW1WvFcHlFIC-K_6W",
        "name": "Dominion Wine and Beer",
        "address": {
            "street": "107 Rowell Ct., Falls Church, VA 22046",
            "lat": "38.8897048",
            "lon": "-77.183834"
        },
        "locations": "Restaurant/Retail",
        "wines": [
            "Foothills"
        ]
    },
    {
        "id": "1L0GY3d4oll5bA8ktrOys",
        "name": "Ellwood Thompson",
        "address": {
            "street": "4 N Thompson St, Richmond, VA 23221",
            "lat": "37.5574421",
            "lon": "-77.4886194"
        },
        "locations": "Retail",
        "wines": [
            "Young Wine",
            "Foothills",
            "Eluvium",
            "Five Forks"
        ]
    },
    {
        "id": "l0ulyEkpuhM7iU-iwQgoR",
        "name": "Farmers Fishers Bakers",
        "address": {
            "street": "3000 K Street NW, Washington, DC 20007",
            "lat": "38.9025537",
            "lon": "-77.0601033"
        },
        "locations": "Restaurant",
        "wines": [
            "Rosé"
        ]
    },
    {
        "id": "HK170RAJtptsKYnRakGl9",
        "name": "Farmington",
        "address": {
            "street": "1625 Country Club Circle, Charlottesville, VA 22901",
            "lat": "38.0616369",
            "lon": "-78.5419503"
        },
        "locations": "Restaurant",
        "wines": [
            "Five Forks"
        ]
    },
    {
        "id": "UpbdhBJIJXYb0HULQhAZR",
        "name": "Fat Canary",
        "address": {
            "street": "The Cheese Shop of VA, Inc., Williamsburg, VA 23185",
            "lat": "37.2706994",
            "lon": "-76.7061859"
        },
        "locations": "Restaurant",
        "wines": [
            "Foothills",
            "Shenandoah Valley Cabernet Franc",
            "Eluvium",
            "Young Wine",
            "RISE"
        ]
    },
    {
        "id": "sK3xDa6aApPntOW7raCR1",
        "name": "Feast",
        "address": {
            "street": "416 W Main St Suite H, Charlottesville, VA 22902",
            "lat": "38.0304142",
            "lon": "-78.4872613"
        },
        "locations": "Retail",
        "wines": [
            "Rosé"
        ]
    },
    {
        "id": "4rUazrtvmRUtOflycZDfT",
        "name": "Field & Main",
        "address": {
            "street": "8369 W. Main St., Marshall, VA 20115",
            "lat": "38.8647631",
            "lon": "-77.8574303"
        },
        "locations": "Restaurant/Retail",
        "wines": [
            "Rosé"
        ]
    },
    {
        "id": "wjEk2utgCbM9e0u95NoRu",
        "name": "Foods of All Nations",
        "address": {
            "street": "2121 Ivy Rd, Charlottesville, VA 22903",
            "lat": "38.0432978",
            "lon": "-78.5119067"
        },
        "locations": "Retail",
        "wines": [
            "Petit Manseng",
            "Shenandoah Valley Cabernet Franc",
            "Young Wine",
            "Chardonnay",
            "Eluvium"
        ]
    },
    {
        "id": "jhXlKReZD2nxwV8Ne7E90",
        "name": "Friendly City Food Co-op",
        "address": {
            "street": "150 E Wolfe St, Harrisonburg, VA 22802",
            "lat": "38.4516609",
            "lon": "-78.8665291"
        },
        "locations": "Retail",
        "wines": [
            "Foothills",
            "Young Wine"
        ]
    },
    {
        "id": "SdtdyJG1ysHRM8KPxAc4e",
        "name": "Glen's Garden Market",
        "address": {
            "street": "2001 S St. NW, Washington, DC 20009",
            "lat": "38.9143274",
            "lon": "-77.0451575"
        },
        "locations": "Restaurant/Retail",
        "wines": [
            "Shenandoah Valley Cabernet Franc",
            "Young Wine"
        ]
    },
    {
        "id": "-vuWWvQuASdxFL_U3ojmj",
        "name": "Good Wine",
        "address": {
            "street": "327 5th Avenue, Brooklyn, NY 11215",
            "lat": "40.6724091",
            "lon": "-73.9833358"
        },
        "locations": "Retail",
        "wines": [
            "Young Wine"
        ]
    },
    {
        "id": "V1TkeXe0j-obbDPcxaE6X",
        "name": "Heritage Wines",
        "address": {
            "street": "237 Dekalb Ave, Brooklyn, NY 11205",
            "lat": "40.689639",
            "lon": "-73.9697513"
        },
        "locations": "Retail",
        "wines": [
            "Young Wine",
            "Foothills"
        ]
    },
    {
        "id": "-uPXFMEKvYFrWgvSW4x7p",
        "name": "Ivy Inn",
        "address": {
            "street": "2244 Old Ivy Rd., Charlottesville, VA 22903",
            "lat": "38.045948",
            "lon": "-78.516234"
        },
        "locations": "Restaurant",
        "wines": [
            "Eluvium",
            "Petit Manseng",
            "Chardonnay"
        ]
    },
    {
        "id": "FO2jXSVJaZMTfFQG3K7tx",
        "name": "Founding Farmers - Tyson's Corner",
        "address": {
            "street": "1800 Tyson's Blvd., McLean, VA 22102",
            "lat": "38.9223637",
            "lon": "-77.2224625"
        },
        "locations": "Restaurant",
        "wines": [
            "Rosé"
        ]
    },
    {
        "id": "4crKp17ZjdnGBbVx3gTDp",
        "name": "J Emerson",
        "address": {
            "street": "5716 Grove Ave, Richmond, VA 23226",
            "lat": "37.5733362",
            "lon": "-77.5180274"
        },
        "locations": "Retail",
        "wines": [
            "Young Wine",
            "Shenandoah Valley Cabernet Franc"
        ]
    },
    {
        "id": "otCiY3kzLz4dTosm23ybU",
        "name": "Judy's",
        "address": {
            "street": "1505 Lexington Ave, New York, NY 10029",
            "lat": "40.7866458",
            "lon": "-73.9501553"
        },
        "locations": "Restaurant",
        "wines": [
            "Petit Manseng"
        ]
    },
    {
        "id": "q26ql4hVUog9hvoqHexMI",
        "name": "Laura Lee's",
        "address": {
            "street": "3410 Semmes Avenue, Richmond, VA 23225",
            "lat": "37.5156341",
            "lon": "-77.469587"
        },
        "locations": "Restaurant",
        "wines": [
            "Foothills"
        ]
    },
    {
        "id": "322664esKwqPCjTo5noA9",
        "name": "Local, The",
        "address": {
            "street": "824 Hinton Ave, Charlottesville, VA 22901",
            "lat": "38.0244641",
            "lon": "-78.4755275"
        },
        "locations": "Restaurant",
        "wines": [
            "Eluvium"
        ]
    },
    {
        "id": "nmiD5tt7HSVHn67UuBmvV",
        "name": "Market Street Wine Shop",
        "address": {
            "street": "311 East Market St, Charlottesville, VA 22902",
            "lat": "38.0310698",
            "lon": "-78.4789677"
        },
        "locations": "Retail",
        "wines": [
            "Rosé",
            "Young Wine",
            "Petit Manseng",
            "RISE"
        ]
    },
    {
        "id": "2h3d9WsvMen7JTXeZGx8M",
        "name": "Locke Store",
        "address": {
            "street": "2049 Millwood Rd., Millwood, VA 22646",
            "lat": "39.0695734",
            "lon": "-78.0379555"
        },
        "locations": "Retail",
        "wines": [
            "Petit Manseng"
        ]
    },
    {
        "id": "gP9HHVAQ39j9Stsi6w5ma",
        "name": "Maxwell Park - Navy Yard",
        "address": {
            "street": "1346 4th St SE, Washingon, DC 20003",
            "lat": "38.8741942",
            "lon": "-77.0002617"
        },
        "locations": "Restaurant",
        "wines": [
            "Shenandoah Valley Cabernet Franc"
        ]
    },
    {
        "id": "-_72Z8RkPmTAemuXjF2eM",
        "name": "Mona Lisa",
        "address": {
            "street": "921 Preston Ave, Charlottesville, VA 22903",
            "lat": "38.038434",
            "lon": "-78.489901"
        },
        "locations": "Retail",
        "wines": [
            "Five Forks",
            "Petit Manseng",
            "Young Wine"
        ]
    },
    {
        "id": "3gErY91vtN6ezEBzBT142",
        "name": "Mom's Apple Pie Hill High",
        "address": {
            "street": "35246 Harry Byrd Hwy Ste. 100, Round Hill, VA 20141",
            "lat": "39.1277991",
            "lon": "-77.7873132"
        },
        "locations": "Retail",
        "wines": [
            "Shenandoah Valley Cabernet Franc"
        ]
    },
    {
        "id": "-_3EvbDcU5WlCOUwFRbTF",
        "name": "Olivino",
        "address": {
            "street": "905 Fulton Street, Brooklyn, NY 11238",
            "lat": "40.6837237",
            "lon": "-73.9671635"
        },
        "locations": "Retail",
        "wines": [
            "Foothills",
            "Petit Manseng",
            "Shenandoah Valley Cabernet Franc",
            "Young Wine",
            "Chardonnay"
        ]
    },
    {
        "id": "dfldVDWsWGUuzVXXOPmpk",
        "name": "Norm's Beer & Wine",
        "address": {
            "street": "136 Branch Rd SE, Vienna, VA 22180",
            "lat": "38.9062317",
            "lon": "-77.257151"
        },
        "locations": "Retail",
        "wines": [
            "Foothills"
        ]
    },
    {
        "id": "TgdW2LrsP7xdYIlqlFJkn",
        "name": "Organic Butcher of McLean",
        "address": {
            "street": "6712 Old Dominion Drive, McLean, VA 22101",
            "lat": "38.9335412",
            "lon": "-77.1758584"
        },
        "locations": "Retail",
        "wines": [
            "Foothills",
            "Petit Manseng",
            "Five Forks"
        ]
    },
    {
        "id": "mB_LMu6b5r3-pNkfrCJpv",
        "name": "Olmsted",
        "address": {
            "street": "659 Vanderbilt Ave, Brooklyn, NY 11238",
            "lat": "40.677064",
            "lon": "-73.9687578"
        },
        "locations": "Restaurant/Retail",
        "wines": [
            "Petit Manseng"
        ]
    },
    {
        "id": "DSqaVltFh4RpQaBaH6k_K",
        "name": "Prather's on the Alley",
        "address": {
            "street": "455 I (Eye) Street, Washington, DC 20001",
            "lat": "38.9015012",
            "lon": "-77.0180106"
        },
        "locations": "Restaurant",
        "wines": [
            "Young Wine"
        ]
    },
    {
        "id": "74gSW2Z803-oOso5PApHg",
        "name": "Red Fox Inn",
        "address": {
            "street": "2 E. Washington St., Middleburg, VA 20117",
            "lat": "38.9692453",
            "lon": "-77.7354394"
        },
        "locations": "Restaurant",
        "wines": [
            "Five Forks",
            "Petit Manseng"
        ]
    },
    {
        "id": "YVwqyvjghJOulmYZaDPaM",
        "name": "Outpost",
        "address": {
            "street": "4813 Forest Hill Ave., Richmond, VA 23225",
            "lat": "37.5211852",
            "lon": "-77.4878087"
        },
        "locations": "Retail",
        "wines": [
            "Shenandoah Valley Cabernet Franc",
            "Young Wine"
        ]
    },
    {
        "id": "MvllyRq3D0ET5qYKNQ4j8",
        "name": "Rosemont of Virginia (Farm Winery)",
        "address": {
            "street": "1050 Blackridge Rd., La Crosse, VA 23950",
            "lat": "36.5883045",
            "lon": "-78.0661485"
        },
        "locations": "Restaurant",
        "wines": [
            "Young Wine"
        ]
    },
    {
        "id": "D-lsUXfQ61OokUjbsYA0m",
        "name": "Red Hen-DC",
        "address": {
            "street": "1822 1st St. NW, Washington, DC 20001",
            "lat": "38.9149738",
            "lon": "-77.0124095"
        },
        "locations": "Restaurant",
        "wines": [
            "Rosé"
        ]
    },
    {
        "id": "f5mLV5m0yLpMmfGNMjG2Y",
        "name": "Ruffian Wine Bar",
        "address": {
            "street": "125 East 7th Street, New York, NY 10009",
            "lat": "40.7264335",
            "lon": "-73.9840819"
        },
        "locations": "Restaurant",
        "wines": [
            "Young Wine"
        ]
    },
    {
        "id": "DUFnAbCGwGop-aW5eKZCj",
        "name": "Saraghina",
        "address": {
            "street": "350 Lewis Avenue, Brooklyn, NY 11233",
            "lat": "40.6837407",
            "lon": "-73.9353473"
        },
        "locations": "Restaurant",
        "wines": [
            "Foothills"
        ]
    },
    {
        "id": "NsamQkHieE7LF4JXc3RdR",
        "name": "Sorso Wine Boutique",
        "address": {
            "street": "1069 Bedford Avenue, Brooklyn, NY 11216",
            "lat": "40.6874318",
            "lon": "-73.954402"
        },
        "locations": "Restaurant/Retail",
        "wines": [
            "Rosé"
        ]
    },
    {
        "id": "kyajORMPR6sQPYau4t6uC",
        "name": "Southern Crescent Galley and Bar",
        "address": {
            "street": "814 Hinton Ave., Charlottesville, VA 22902",
            "lat": "38.0247033",
            "lon": "-78.4758826"
        },
        "locations": "Restaurant/Retail",
        "wines": [
            "Foothills"
        ]
    },
    {
        "id": "77llBejEMSri9YDA2mcdS",
        "name": "St. Vincent",
        "address": {
            "street": "3212 Georgia Avenue NW, Washington, DC 20010",
            "lat": "38.9304348",
            "lon": "-77.0237689"
        },
        "locations": "Restaurant",
        "wines": [
            "Petit Manseng"
        ]
    },
    {
        "id": "0vMaPIC7j1pMG8CsOOOTZ",
        "name": "Taste - Ghent",
        "address": {
            "street": "407 W 21st Street, Norfolk, VA 23517",
            "lat": "36.868141",
            "lon": "-76.290231"
        },
        "locations": "Restaurant/Retail",
        "wines": [
            "Eluvium",
            "Foothills"
        ]
    },
    {
        "id": "kaRkrxUI43GyylaILM5iD",
        "name": "Taste - Oceanfront",
        "address": {
            "street": "3603 Pacific Avenue, Virginia Beach, VA 23451",
            "lat": "36.8641917",
            "lon": "-75.9803595"
        },
        "locations": "Restaurant/Retail",
        "wines": [
            "Eluvium",
            "Foothills"
        ]
    },
    {
        "id": "ReOiwBcrYHkv7er-davk5",
        "name": "Tastings of Charlottesville",
        "address": {
            "street": "502 East Market St, Charlottesville, VA 22902",
            "lat": "38.0303427",
            "lon": "-78.4779714"
        },
        "locations": "Restaurant/Retail",
        "wines": [
            "Eluvium",
            "Shenandoah Valley Cabernet Franc"
        ]
    },
    {
        "id": "1PeK__hvdH5y9z1BHvFDw",
        "name": "Staunton Grocery, The",
        "address": {
            "street": "103 S. Coalter Street, Staunton, VA 24401",
            "lat": "38.1482775",
            "lon": "-79.0681798"
        },
        "locations": "Restaurant/Retail",
        "wines": [
            "Young Wine"
        ]
    },
    {
        "id": "dJJLwG28WQOKm5yt3dd9C",
        "name": "Thornton River Grille",
        "address": {
            "street": "Thornton River Grille, Sperryville, VA 22740",
            "lat": "38.657256",
            "lon": "-78.22669"
        },
        "locations": "Restaurant",
        "wines": [
            "Eluvium",
            "Foothills",
            "Chardonnay"
        ]
    },
    {
        "id": "bckEIvv8bRIRYwQVhBsAW",
        "name": "Valley Pike Farm Market",
        "address": {
            "street": "3494 Lee Highway, Weyers Cave, VA 24486",
            "lat": "38.2934427",
            "lon": "-78.9356747"
        },
        "locations": "Retail",
        "wines": [
            "Chardonnay",
            "Eluvium",
            "Five Forks",
            "Foothills",
            "Shenandoah Valley Cabernet Franc"
        ]
    },
    {
        "id": "AXw1h0T7pusk-R79Apcif",
        "name": "Unwined Belle View",
        "address": {
            "street": "1600 Belle View Blvd., Alexandria, VA 22307",
            "lat": "38.7761672",
            "lon": "-77.0597746"
        },
        "locations": "Retail",
        "wines": [
            "Rosé",
            "Quaker Run Chardonnay",
            "Shenandoah Valley Cabernet Franc"
        ]
    },
    {
        "id": "Bl-cDqVWCh0SLZiGlcdxI",
        "name": "Veil - Forest Hill",
        "address": {
            "street": "4910 Forest Hill Ave, Richmond, VA 23225",
            "lat": "37.5218022",
            "lon": "-77.4900505"
        },
        "locations": "Restaurant",
        "wines": [
            "Foothills"
        ]
    },
    {
        "id": "IPPoA3gIfMJmbX_n3jtR4",
        "name": "Westside Produce & Provisions",
        "address": {
            "street": "5015 Colley Ave., Norfolk, VA 23508",
            "lat": "36.8890972",
            "lon": "-76.2954949"
        },
        "locations": "Retail",
        "wines": [
            "Foothills",
            "Five Forks"
        ]
    },
    {
        "id": "67V3Fwt2Q0wNA2cjqRLys",
        "name": "White Moose Inn",
        "address": {
            "street": "291 Main St., Washington, VA 22747",
            "lat": "38.7123391",
            "lon": "-78.16034"
        },
        "locations": "Restaurant",
        "wines": [
            "Foothills"
        ]
    },
    {
        "id": "2VwvHPetaEURXri54qRQ1",
        "name": "Whole Foods - Ashburn",
        "address": {
            "street": "19800 Belmont Chase Dr, Ashburn, VA 20147",
            "lat": "39.0684834",
            "lon": "-77.4843963"
        },
        "locations": "Restaurant/Retail",
        "wines": [
            "Foothills"
        ]
    },
    {
        "id": "mgk_c87SkOfTqsrG7QDjR",
        "name": "Whole Foods - Fair Lakes",
        "address": {
            "street": "4501 Market Commons Drive, Fairfax, VA 22033",
            "lat": "38.8578497",
            "lon": "-77.377751"
        },
        "locations": "Restaurant/Retail",
        "wines": [
            "Five Forks",
            "Foothills"
        ]
    },
    {
        "id": "-IGqfAWGb-6W5ZphUVLOW",
        "name": "Whole Foods - Charlottesville",
        "address": {
            "street": "1797 Hydraulic Road, Charlottesville, VA 22901",
            "lat": "38.059773",
            "lon": "-78.4891351"
        },
        "locations": "Restaurant/Retail",
        "wines": [
            "Foothills"
        ]
    },
    {
        "id": "8wnhpW7Nb4YM0Wz2nR51d",
        "name": "Whole Foods - Old Town",
        "address": {
            "street": "1700 Duke Street, Alexandria, VA 22314",
            "lat": "38.8041416",
            "lon": "-77.0600615"
        },
        "locations": "Restaurant/Retail",
        "wines": [
            "Foothills"
        ]
    },
    {
        "id": "E0CDfL0Y4haOsb4XgnXBe",
        "name": "Whole Foods - Tysons",
        "address": {
            "street": "7511 Leesburg Pike, Falls Church, VA 22043",
            "lat": "38.903442",
            "lon": "-77.2044823"
        },
        "locations": "Restaurant/Retail",
        "wines": [
            "Foothills"
        ]
    },
    {
        "id": "3OCfWX_CcptoDFJcw9xtm",
        "name": "Win Son",
        "address": {
            "street": "159 Graham Ave, Brooklyn, NY 11206",
            "lat": "40.7074661",
            "lon": "-73.9434952"
        },
        "locations": "Restaurant",
        "wines": [
            "Young Wine"
        ]
    },
    {
        "id": "TXP7sWjbPrEaHuKXS_z0d",
        "name": "Wine Seller - Williamsburg",
        "address": {
            "street": "4680 Monticello Ave Suite 15, Williamsburg, VA 23188",
            "lat": "37.2719211",
            "lon": "-76.7595155"
        },
        "locations": "Retail",
        "wines": [
            "Foothills"
        ]
    },
    {
        "id": "r-E7SRxWc9Kz8DkEwnwxq",
        "name": "Wine Warehouse",
        "address": {
            "street": "1804 Hydraulic Rd, Charlottesville, VA 22902",
            "lat": "38.0607943",
            "lon": "-78.4914214"
        },
        "locations": "Retail",
        "wines": [
            "Young Wine",
            "Shenandoah Valley Cabernet Franc"
        ]
    },
    {
        "id": "XpkdfBfh4VLTrbf1U6aX9",
        "name": "Wool Factory, The",
        "address": {
            "street": "1837 Broadway Street, Charlottesville, VA 22902",
            "lat": "38.0195964",
            "lon": "-78.4553634"
        },
        "locations": "Restaurant/Retail",
        "wines": [
            "Young Wine"
        ]
    },
    {
        "id": "Mt8R5TDOYGs0oExh4Sn6r",
        "name": "Whole Foods - South Capitol Hill",
        "address": {
            "street": "101 H St. SE, Washington, DC 20003",
            "lat": "38.8802709",
            "lon": "-77.0048851"
        },
        "locations": "Restaurant/Retail",
        "wines": [
            "Five Forks"
        ]
    },
    {
        "id": "4fyl86DHqy_cIutb9tcqj",
        "name": "Dandelion Wine",
        "address": {
            "street": "153 Franklin Street, Brooklyn, NY 11222",
            "lat": "40.731666",
            "lon": "-73.9580947"
        },
        "locations": "Restaurant/Retail",
        "wines": [
            "Five Forks"
        ]
    },
    {
        "id": "zWqT5tf6DQZpZqdsalqiz",
        "name": "River and Rail",
        "address": {
            "street": "2201 Crystal Spring Ave. SW, Roanoke, VA 24014",
            "lat": "37.2487077",
            "lon": "-79.9468159"
        },
        "locations": "Restaurant",
        "wines": [
            "Foothills"
        ]
    },
    {
        "id": "YKVJkRcBpUJipTh_yaT9s",
        "name": "Roanoke Natural Foods Co-op",
        "address": {
            "street": "1319 Grandin Rd SW, Roanoke, VA 24015",
            "lat": "37.2652232",
            "lon": "-79.9776246"
        },
        "locations": "Retail",
        "wines": [
            "Young Wine",
            "Foothills"
        ]
    },
    {
        "id": "palEyY8XnCopb034DKyrM",
        "name": "Commonwealth Club",
        "address": {
            "street": "401 W. Franklin Street, Richmond, VA 23220",
            "lat": "37.5458434",
            "lon": "-77.447656"
        },
        "locations": "Restaurant",
        "wines": [
            "Quaker Run Chardonnay"
        ]
    },
    {
        "id": "e1_zxfex2i9sWbISzelS-",
        "name": "Hot Cakes",
        "address": {
            "street": "Barracks Road Shopping Center, Charlottesville, VA 22903",
            "lat": "38.0528154",
            "lon": "-78.5012568"
        },
        "locations": "Restaurant/Retail",
        "wines": [
            "Eluvium",
            "Foothills"
        ]
    },
    {
        "id": "DcQEkW0R6ewuFAb1IxlWb",
        "name": "Bottleworks",
        "address": {
            "street": "3078 Stony Point Rd., Richmond, VA 23235",
            "lat": "37.537796",
            "lon": "-77.5651916"
        },
        "locations": "Retail",
        "wines": [
            "Foothills"
        ]
    },
    {
        "id": "oKcJhUaBGwvhB13SOKjmf",
        "name": "VMFA",
        "address": {
            "street": "VA Museum Members Restaurant, Richmond, VA 23221",
            "lat": "37.5560356",
            "lon": "-77.4747907"
        },
        "locations": "Restaurant",
        "wines": [
            "Five Forks"
        ]
    },
    {
        "id": "eezOt2YXXiFEvxIXAOr99",
        "name": "Basic City Beer Co.",
        "address": {
            "street": "1010 E Main St, Waynesboro, VA 22980",
            "lat": "38.0634845",
            "lon": "-78.873384"
        },
        "locations": "Restaurant",
        "wines": [
            "Five Forks"
        ]
    },
    {
        "id": "QeGQtoriDeqeX1OQtq4Up",
        "name": "Shenandoah Confections",
        "address": {
            "street": "477-E South Street, Front Royal, VA 22630",
            "lat": "38.9107485",
            "lon": "-78.1874806"
        },
        "locations": "Restaurant",
        "wines": [
            "Shenandoah Valley Cabernet Franc"
        ]
    },
    {
        "id": "KkL6ijCTUuFZaf4Vdk1wQ",
        "name": "Three Blacksmiths",
        "address": {
            "street": "20 Main St, Sperryville, VA 22740",
            "lat": "38.6586366",
            "lon": "-78.2296581"
        },
        "locations": "Restaurant",
        "wines": [
            "Eluvium"
        ]
    },
    {
        "id": "2rfjmnGjCWHHzTtsuA-tK",
        "name": "Department of Beer & Wine",
        "address": {
            "street": "2724 Richmond Hwy, Alexandria, VA 22301",
            "lat": "38.8306444",
            "lon": "-77.0511825"
        },
        "locations": "Retail",
        "wines": [
            "Foothills",
            "Shenandoah Valley Cabernet Franc"
        ]
    },
    {
        "id": "mvZ2H5qE0mdkCU5IhmMB3",
        "name": "Win Son",
        "address": {
            "street": "159 Graham Ave, Brooklyn, NY 11206",
            "lat": "40.7074661",
            "lon": "-73.9434952"
        },
        "locations": "Restaurant",
        "wines": [
            "Young Wine"
        ]
    },
    {
        "id": "P8TSAaamUR725I37dyhzt",
        "name": "Washington Street Purveyors",
        "address": {
            "street": "9 E Washington St, Lexington, VA 24450",
            "lat": "37.7845823",
            "lon": "-79.441534"
        },
        "locations": "Retail",
        "wines": [
            "Foothills"
        ]
    },
    {
        "id": "dDVkUadn_BhZKA-FOrZRs",
        "name": "Cork & Fork - DC",
        "address": {
            "street": "1522 14th St NW, Washington, DC 20005",
            "lat": "38.9104777",
            "lon": "-77.0321531"
        },
        "locations": "Restaurant",
        "wines": [
            "Shenandoah Valley Cabernet Franc"
        ]
    },
    {
        "id": "KQ-dwUBBI9rnkaG40Pc71",
        "name": "Olivino",
        "address": {
            "street": "905 Fulton Street, Brooklyn, NY 11238",
            "lat": "40.6837237",
            "lon": "-73.9671635"
        },
        "locations": "Retail",
        "wines": [
            "Foothills",
            "Petit Manseng"
        ]
    },
    {
        "id": "F0HY1t-avyN3pfoxjvDCX",
        "name": "Glen Manor Vineyards LLC",
        "address": {
            "street": "2244 Browntown Road, Front Royal, VA 22630",
            "lat": "38.8400911",
            "lon": "-78.2291685"
        },
        "locations": "Restaurant",
        "wines": [
            "Young Wine",
            "Petit Manseng"
        ]
    },
    {
        "id": "_PWGZUJVoCG9oKg-GELZV",
        "name": "Libbie Market",
        "address": {
            "street": "400 Libbie Ave., Richmond, VA 23226",
            "lat": "37.5746309",
            "lon": "-77.5183971"
        },
        "locations": "Retail",
        "wines": [
            "Petit Manseng"
        ]
    },
    {
        "id": "_2TxCT1qftVHG6b1pGr7m",
        "name": "Duck & The Peach",
        "address": {
            "street": "700 Pennsylvania Ave SE, Washington, DC 20003",
            "lat": "38.8850381",
            "lon": "-76.9957982"
        },
        "locations": "Retail",
        "wines": [
            "Young Wine"
        ]
    },
    {
        "id": "e2_d_JZsOTOmXq0Zx9_he",
        "name": "Farmers & Distillers",
        "address": {
            "street": "600 Massachusetts Ave. NW, Washington, DC 20001",
            "lat": "38.9013601",
            "lon": "-77.0208105"
        },
        "locations": "Restaurant",
        "wines": [
            "Rosé"
        ]
    },
    {
        "id": "Oo8Fln8pFoj_Z9OnhClGk",
        "name": "Unwined King St",
        "address": {
            "street": "Bradlee Shopping Center, Alexandria, VA 22302",
            "lat": "38.8286628",
            "lon": "-77.091633"
        },
        "locations": "Retail",
        "wines": [
            "Eluvium",
            "Young Wine",
            "Foothills",
            "Rosé"
        ]
    },
    {
        "id": "I8sJnEtIQ0zn9YRb8iENc",
        "name": "Pendulum Fine Meats",
        "address": {
            "street": "820 Shirley Avenue, Norfolk, VA 23517",
            "lat": "36.8683635",
            "lon": "-76.2987524"
        },
        "locations": "Retail",
        "wines": [
            "Foothills",
            "Shenandoah Valley Cabernet Franc"
        ]
    },
    {
        "id": "fxTSGxSQ_XmauIToXUbuz",
        "name": "Hamilton's",
        "address": {
            "street": "101 W Main St, Charlottesville, VA 22902",
            "lat": "38.030928",
            "lon": "-78.4815455"
        },
        "locations": "Restaurant",
        "wines": [
            "Shenandoah Valley Cabernet Franc"
        ]
    },
    {
        "id": "917v7UHeRCC8eahQzCRe3",
        "name": "Whole Foods - Short Pump",
        "address": {
            "street": "11173 West Broad St., Richmond, VA 23060",
            "lat": "37.6475665",
            "lon": "-77.5997292"
        },
        "locations": "Restaurant/Retail",
        "wines": [
            "Five Forks"
        ]
    },
    {
        "id": "2eQw-9I-gvgXE84fUegKO",
        "name": "Whole Foods - Springfield",
        "address": {
            "street": "8402 Old Keene Mill Road, Springfield, VA 22152",
            "lat": "38.7800288",
            "lon": "-77.2349557"
        },
        "locations": "Restaurant/Retail",
        "wines": [
            "Foothills"
        ]
    },
    {
        "id": "6RxOI-2gl97riWWTKkJPu",
        "name": "VinoWine",
        "address": {
            "street": "1101 Jefferson St Suite 100, Lynchburg, VA 24504",
            "lat": "37.4140004",
            "lon": "-79.1391104"
        },
        "locations": "Retail",
        "wines": [
            "Five Forks"
        ]
    },
    {
        "id": "-58qUur7Z8d-EhAfe2jK0",
        "name": "Taste - Hilltop",
        "address": {
            "street": "1554 Laskin Road, Suite 110, Virginia Beach, VA 23451",
            "lat": "36.8537156",
            "lon": "-76.0164334"
        },
        "locations": "Restaurant/Retail",
        "wines": [
            "Foothills",
            "Eluvium"
        ]
    },
    {
        "id": "aBCp5EBYoL00hj4hQzOw4",
        "name": "Fat Canary",
        "address": {
            "street": "The Cheese Shop of VA, Inc., Williamsburg, VA 23185",
            "lat": "37.2706994",
            "lon": "-76.7061859"
        },
        "locations": "Restaurant",
        "wines": [
            "Shenandoah Valley Cabernet Franc",
            "Young Wine"
        ]
    },
    {
        "id": "VQOrDJR1tyqSd-rQqpx3Q",
        "name": "DCanter",
        "address": {
            "street": "545 8th St. SE, Washington, DC 20003",
            "lat": "38.8815035",
            "lon": "-76.9953122"
        },
        "locations": "Restaurant/Retail",
        "wines": [
            "Foothills"
        ]
    },
    {
        "id": "wXzaDvArSks6Ee6XLVMYG",
        "name": "Balducci's - Alexandria",
        "address": {
            "street": "600 Franklin St, Alexandria, VA 22314",
            "lat": "38.7978102",
            "lon": "-77.0479011"
        },
        "locations": "Retail",
        "wines": [
            "Eluvium",
            "Shenandoah Valley Cabernet Franc"
        ]
    },
    {
        "id": "OwY-WSJF5zTPyvvJJyl5I",
        "name": "Leon and Son Wine",
        "address": {
            "street": "995 Fulton Street, Brooklyn, NY 11238",
            "lat": "40.6828771",
            "lon": "-73.9630419"
        },
        "locations": "Retail",
        "wines": [
            "Young Wine"
        ]
    },
    {
        "id": "yGFHy3HMEi5xzV2Recm9Q",
        "name": "Mom's Apple Pie",
        "address": {
            "street": "126 A Commerce St, Occoquan Historic Dist., VA 22125",
            "lat": "38.6822873",
            "lon": "-77.2600693"
        },
        "locations": "Retail",
        "wines": [
            "Young Wine"
        ]
    },
    {
        "id": "c96j46qAE6twsbhkyPz6h",
        "name": "Niche Niche",
        "address": {
            "street": "43 MacDougal St, New York, NY 10011",
            "lat": "40.7311546",
            "lon": "-73.9995271"
        },
        "locations": "Restaurant",
        "wines": [
            "Young Wine"
        ]
    },
    {
        "id": "8TjsYk7G__N7v1U72SCiE",
        "name": "Taste - Town Center",
        "address": {
            "street": "4513 Commerce Street, Virgina Beach, VA 23462",
            "lat": "36.8416391",
            "lon": "-76.1345916"
        },
        "locations": "Restaurant/Retail",
        "wines": [
            "Foothills",
            "Eluvium"
        ]
    },
    {
        "id": "MUOMmKD5wyMOrVDgI6RkL",
        "name": "Prosperity Kitchen & Pantry",
        "address": {
            "street": "532 Virginia Beach Blvd Ste B, Virginia Beach, VA 23451",
            "lat": "36.8444829",
            "lon": "-75.9806406"
        },
        "locations": "Restaurant",
        "wines": [
            "Young Wine"
        ]
    },
    {
        "id": "e8wZo55w5muDMeNAMyv7N",
        "name": "Whole Foods - Boro Tysons",
        "address": {
            "street": "1635 Boro Place, McLean, VA 22102",
            "lat": "38.9245013",
            "lon": "-77.233061"
        },
        "locations": "Restaurant/Retail",
        "wines": [
            "Five Forks"
        ]
    },
    {
        "id": "t23hiToGn7BXbTEtJfKiX",
        "name": "Hot Cakes",
        "address": {
            "street": "Barracks Road Shopping Center, Charlottesville, VA 22903",
            "lat": "38.0528154",
            "lon": "-78.5012568"
        },
        "locations": "Restaurant/Retail",
        "wines": [
            "Eluvium"
        ]
    },
    {
        "id": "9QW08__B5uVqTMly4IbE9",
        "name": "Chain Bridge Cellars",
        "address": {
            "street": "1351 Chain Bridge Rd, McLean, VA 22101",
            "lat": "38.9385421",
            "lon": "-77.1746454"
        },
        "locations": "Retail",
        "wines": [
            "Foothills"
        ]
    },
    {
        "id": "YkH3ZwSlzaIAbPJmg6llN",
        "name": "NRG - Planet Wine",
        "address": {
            "street": "2000-2004 Mount Vernon Ave, Alexandria, VA 22301",
            "lat": "38.8239816",
            "lon": "-77.0585376"
        },
        "locations": "Retail",
        "wines": [
            "Shenandoah Valley Cabernet Franc",
            "Rosé"
        ]
    },
    {
        "id": "MjtQrdpG1icT0TpM4RWVV",
        "name": "Wardman Wines",
        "address": {
            "street": "625 Monroe St. NE, Ste.#A7, Washington, DC 20007",
            "lat": "38.9320518",
            "lon": "-76.9966613"
        },
        "locations": "Retail",
        "wines": [
            "Five Forks"
        ]
    },
    {
        "id": "qfQmbNOxjeLa-SAw52Ow4",
        "name": "Drink PLG",
        "address": {
            "street": "492 Flatbush Avenue, New York, NY 11225",
            "lat": "40.662059",
            "lon": "-73.962005"
        },
        "locations": "Retail",
        "wines": [
            "Foothills"
        ]
    },
    {
        "id": "GmE2vSzDxnPLHWAZkjLdE",
        "name": "Pendulum Fine Meats",
        "address": {
            "street": "820 Shirley Avenue, Norfolk, VA 23517",
            "lat": "36.8683635",
            "lon": "-76.2987524"
        },
        "locations": "Retail",
        "wines": [
            "Eluvium"
        ]
    },
    {
        "id": "1HIoD1lQSXuSiCiBLG6Oq",
        "name": "Second Bottle Wine",
        "address": {
            "street": "324 N 27th St Apt. A, Richmond, VA 23223",
            "lat": "37.5314274",
            "lon": "-77.4164175"
        },
        "locations": "Retail",
        "wines": [
            "Foothills"
        ]
    },
    {
        "id": "CIa-rX1xvAzJkq9aWo3tK",
        "name": "Vino Market",
        "address": {
            "street": "3730 Winterfield Rd., Midlothian, VA 23113",
            "lat": "37.5535346",
            "lon": "-77.6685934"
        },
        "locations": "Retail",
        "wines": [
            "Foothills"
        ]
    },
    {
        "id": "4ZSemE-nMwX7SVZWNxKVw",
        "name": "Mom's Apple Pie - Hill High",
        "address": {
            "street": "35246 Harry Byrd Hwy Ste. 100, Round Hill, VA 20141",
            "lat": "39.1277991",
            "lon": "-77.7873132"
        },
        "locations": "Retail",
        "wines": [
            "Shenandoah Valley Cabernet Franc",
            "Eluvium"
        ]
    },
    {
        "id": "Ssxhvnd1ougRu3-mP_LJY",
        "name": "Tail Up Goat",
        "address": {
            "street": "1827 Adams Mill Rd. NW, Washington, DC 20009",
            "lat": "38.923447",
            "lon": "-77.043176"
        },
        "locations": "Restaurant",
        "wines": [
            "Petit Manseng"
        ]
    },
    {
        "id": "sK-tkiuE8so-zZDkbnN9t",
        "name": "Green Room, The",
        "address": {
            "street": "130 W Beverly St, Staunton, VA 24401",
            "lat": "38.15216",
            "lon": "-79.1136552"
        },
        "locations": "Restaurant",
        "wines": [
            "Young Wine"
        ]
    },
    {
        "id": "l13_yg4NzG2M9Lt2sW8vn",
        "name": "Mom's Apple Pie - Occoquan",
        "address": {
            "street": "126 A Commerce St, Occoquan Historic Dist., VA 22125",
            "lat": "38.6822873",
            "lon": "-77.2600693"
        },
        "locations": "Retail",
        "wines": [
            "Eluvium",
            "Petit Manseng",
            "Young Wine"
        ]
    },
    {
        "id": "cgywZdLxkdlxp-Xie9EbZ",
        "name": "Blacksburg Wine Lab",
        "address": {
            "street": "223 Gilbert Street, Blacksburg, VA 24060",
            "lat": "37.2331803",
            "lon": "-80.4212379"
        },
        "locations": "Restaurant",
        "wines": [
            "Foothills"
        ]
    },
    {
        "id": "yrFbB4bqW5Ro1J7ZxSWry",
        "name": "Dabney",
        "address": {
            "street": "122 Blagden Alley NW, Washington, DC 20009",
            "lat": "38.9063446",
            "lon": "-77.0245248"
        },
        "locations": "Restaurant",
        "wines": [
            "Shenandoah Valley Cabernet Franc"
        ]
    },
    {
        "id": "FRFYOsj2odqR5uTKR-ggm",
        "name": "Reveler's Hour",
        "address": {
            "street": "1775 Columbia Road NW, Washington, DC 20009",
            "lat": "38.9235097",
            "lon": "-77.0420765"
        },
        "locations": "Restaurant",
        "wines": [
            "Shenandoah Valley Cabernet Franc"
        ]
    },
    {
        "id": "dAXF8lEVLgXHlj-3JJ_28",
        "name": "Whole Foods - Pentagon City",
        "address": {
            "street": "520 12th St S Ste 100, Arlington, VA 22202",
            "lat": "38.8627722",
            "lon": "-77.0549476"
        },
        "locations": "Restaurant/Retail",
        "wines": [
            "Five Forks"
        ]
    },
    {
        "id": "5uwdDfEY0OkJuTl5ZfoW_",
        "name": "Whole Foods - Tenley",
        "address": {
            "street": "4530 40th Street NW, Washington, DC 20016",
            "lat": "38.9490789",
            "lon": "-77.0792007"
        },
        "locations": "Restaurant/Retail",
        "wines": [
            "Five Forks"
        ]
    },
    {
        "id": "4Dab1LpzCv51puixDqaqf",
        "name": "Second Bottle Wine",
        "address": {
            "street": "324 N 27th St Apt. A, Richmond, VA 23223",
            "lat": "37.5314274",
            "lon": "-77.4164175"
        },
        "locations": "Retail",
        "wines": [
            "Five Forks"
        ]
    },
    {
        "id": "VboMWRBWJJPZoEBl2S-gK",
        "name": "Taste - Bayville Farms",
        "address": {
            "street": "4097 Shore Drive, Virginia Beach, VA 23455",
            "lat": "36.9059328",
            "lon": "-76.1160943"
        },
        "locations": "Restaurant/Retail",
        "wines": [
            "Foothills"
        ]
    },
    {
        "id": "s0_NmV_B54sxT3II3RsUr",
        "name": "Tyger, The",
        "address": {
            "street": "1 Howard Street, New York, NY 10013",
            "lat": "40.718902",
            "lon": "-73.999442"
        },
        "locations": "Restaurant",
        "wines": [
            "Shenandoah Valley Cabernet Franc"
        ]
    },
    {
        "id": "xQV8vNFKBZH8BXR26Tkse",
        "name": "Lafayette Inn",
        "address": {
            "street": "1222 King St, Alexandria, VA 22973",
            "lat": "38.8058002",
            "lon": "-77.0533901"
        },
        "locations": "Restaurant/Retail",
        "wines": [
            "Shenandoah Valley Cabernet Franc",
            "Chardonnay",
            "Eluvium"
        ]
    },
    {
        "id": "boQurpBBlLCPPTYNRN1Ju",
        "name": "Olivino",
        "address": {
            "street": "905 Fulton Street, Brooklyn, NY 11238",
            "lat": "40.6837237",
            "lon": "-73.9671635"
        },
        "locations": "Retail",
        "wines": [
            "Foothills"
        ]
    },
    {
        "id": "sFmz2haZbLpXyftE5KYo2",
        "name": "Olde Virginia Gourmet and Gifts",
        "address": {
            "street": "261 Garrisonville Rd Suite 109, Stafford Courthouse, VA 22554",
            "lat": "38.4731717",
            "lon": "-77.4176773"
        },
        "locations": "Retail",
        "wines": [
            "Young Wine",
            "Foothills",
            "Five Forks"
        ]
    },
    {
        "id": "PQvVsechhOq03-WoZVWGA",
        "name": "Valley Pike Farm Market",
        "address": {
            "street": "3494 Lee Highway, Weyers Cave, VA 24486",
            "lat": "38.2934427",
            "lon": "-78.9356747"
        },
        "locations": "Retail",
        "wines": [
            "Shenandoah Valley Cabernet Franc"
        ]
    },
    {
        "id": "uBgmDdm7bUWV-i1UukISg",
        "name": "L'Auberge Provencale",
        "address": {
            "street": "13630 Lord Fairfax Hwy, Boyce, VA 22620",
            "lat": "39.0708783",
            "lon": "-78.0936949"
        },
        "locations": "Restaurant",
        "wines": [
            "Petit Manseng"
        ]
    },
    {
        "id": "KPhA9g1dAdh0oQFMyVORX",
        "name": "Ellwood Thompson",
        "address": {
            "street": "4 N Thompson St, Richmond, VA 23221",
            "lat": "37.5574421",
            "lon": "-77.4886194"
        },
        "locations": "Retail",
        "wines": [
            "Foothills"
        ]
    },
    {
        "id": "CAp_jZl3b6849GB6wSquT",
        "name": "Wine Guild",
        "address": {
            "street": "221 Carlton Rd, Suite 1, Charlottesville, VA 22902",
            "lat": "38.0239329",
            "lon": "-78.4698251"
        },
        "locations": "Retail",
        "wines": [
            "Rosé"
        ]
    },
    {
        "id": "r7NlffJ4RveGLwAlJFYpS",
        "name": "Savannah Wine Cellar",
        "address": {
            "street": "5501 Abercorn St, Savannah, GA 31405",
            "lat": "32.0268411",
            "lon": "-81.1098674"
        },
        "locations": "Restaurant/Retail",
        "wines": [
            "RISE"
        ]
    },
    {
        "id": "RbO66OurF-rUj1_whXHl9",
        "name": "A Pimento Catering",
        "address": {
            "street": "1304-C E Market St., Charlottesville, VA 22902",
            "lat": "38.0257736",
            "lon": "-78.4671133"
        },
        "locations": "Restaurant",
        "wines": [
            "RISE"
        ]
    },
    {
        "id": "gi-R6PwfuTuqyoI_MUa_n",
        "name": "Clifton Inn",
        "address": {
            "street": "1296 Clifton Inn Dr, Charlottesville, VA 22911",
            "lat": "38.007264",
            "lon": "-78.397257"
        },
        "locations": "Restaurant",
        "wines": [
            "RISE"
        ]
    }
]