[
    {
<<<<<<< Updated upstream
        "id": "Tbg54MO3o8ab9Wo099Bj5",
=======
        "id": "6CYy_LArI9zLhp4Ket2_Z",
>>>>>>> Stashed changes
        "name": "Main (The)",
        "address": {
            "street": "100 E. Main Street, Norfolk, VA 23510",
            "lat": "36.8464518",
            "lon": "-76.2921155"
        },
        "locations": "Restaurant",
        "wines": [
            "RISE"
        ]
    },
    {
<<<<<<< Updated upstream
        "id": "xlWIKQeORtggfxfAZk6g9",
=======
        "id": "4wVZMDuxziOjAV7NiWlQj",
>>>>>>> Stashed changes
        "name": "Town Duck",
        "address": {
            "street": "100 Main St, Warrenton, VA 20186",
            "lat": "38.7122701",
            "lon": "-77.7930779"
        },
        "locations": "Retail",
        "wines": [
            "Foothills",
            "Rosé"
        ]
    },
    {
<<<<<<< Updated upstream
        "id": "BdqJNy9SXfhCMY-ug6T4d",
=======
        "id": "sWZYWfVJpIUYUCGGec3o1",
>>>>>>> Stashed changes
        "name": "Jefferson Hotel",
        "address": {
            "street": "101 W Franklin St, Richmond, VA 23220",
            "lat": "37.5442364",
            "lon": "-77.4454155"
        },
        "locations": "Restaurant",
        "wines": [
            "Eluvium",
            "Foothills"
        ]
    },
    {
<<<<<<< Updated upstream
        "id": "8Cjbx6qYQACFODgYlaKRb",
=======
        "id": "ljXBefMP1BtHWABHPre2t",
>>>>>>> Stashed changes
        "name": "Screwtop",
        "address": {
            "street": "1025 Fillmore St. N, Arlington, VA 22201",
            "lat": "38.8859072",
            "lon": "-77.0926894"
        },
        "locations": "Restaurant/Retail",
        "wines": [
            "Rosé",
            "Foothills"
        ]
    },
    {
<<<<<<< Updated upstream
        "id": "K6Rnht937sD_zPzEAkUtG",
=======
        "id": "t_ydMRYPweQA1D8_jgNmw",
>>>>>>> Stashed changes
        "name": "One Eared Stag",
        "address": {
            "street": "1029 Edgewood Ave NE, Atlanta, GA 30374",
            "lat": "33.7572073",
            "lon": "-84.3541197"
        },
        "locations": "Restaurant",
        "wines": [
            "Eluvium",
            "Petit Manseng"
        ]
    },
    {
<<<<<<< Updated upstream
        "id": "6MWEWlnmDoGxWZZkuF0f6",
=======
        "id": "wlt8ap8D03A2Hx58M5-iL",
>>>>>>> Stashed changes
        "name": "Hamilton's",
        "address": {
            "street": "101 W Main St, Charlottesville, VA 22902",
            "lat": "38.030928",
            "lon": "-78.4815455"
        },
        "locations": "Restaurant",
        "wines": [
            "Petit Manseng"
        ]
    },
    {
<<<<<<< Updated upstream
        "id": "w1HpxfhFwDEEZDi5YNnn5",
=======
        "id": "DOjDQZQq6aP5AAvVIvMq7",
>>>>>>> Stashed changes
        "name": "USA Wine Imports:Zap Wines & Spirits",
        "address": {
            "street": "105 Court Street, Brooklyn, NY 11201",
            "lat": "40.6724091",
            "lon": "-73.9833358"
        },
        "locations": "Retail",
        "wines": [
            "Foothills"
        ]
    },
    {
<<<<<<< Updated upstream
        "id": "g7--VOfa5vOqVP-NRzZH8",
=======
        "id": "KnbSdyIcd8RujUNp55JjK",
>>>>>>> Stashed changes
        "name": "Shack, The",
        "address": {
            "street": "105 S. Coalter St., Staunton, VA 24401",
            "lat": "38.148151",
            "lon": "-79.0681357"
        },
        "locations": "Restaurant",
        "wines": [
            "Foothills",
            "Chardonnay",
            "Five Forks"
        ]
    },
    {
<<<<<<< Updated upstream
        "id": "ySk2mhp6VnxoDXc8ea6z4",
=======
        "id": "wod4DgGhcwSo7KwnvYVPL",
>>>>>>> Stashed changes
        "name": "South Street Brewery",
        "address": {
            "street": "106 South St., Charlottesville, VA 22902",
            "lat": "38.029338",
            "lon": "-78.482687"
        },
        "locations": "Restaurant",
        "wines": [
            "Chardonnay",
            "Foothills"
        ]
    },
    {
<<<<<<< Updated upstream
        "id": "5yOnsMQoWGlnZkshG__Tp",
=======
        "id": "HiZfTYInZYVAWdkDwD8BP",
>>>>>>> Stashed changes
        "name": "Sorso Wine Boutique",
        "address": {
            "street": "1069 Bedford Ave, Brooklyn, NY 11216",
            "lat": "40.6874318",
            "lon": "-73.954402"
        },
        "locations": "Restaurant/Retail",
        "wines": [
            "RISE"
        ]
    },
    {
<<<<<<< Updated upstream
        "id": "pO69BGwvee1ZRnewLeS5g",
=======
        "id": "CYIBq92AS3mWvvelZOlwC",
>>>>>>> Stashed changes
        "name": "Zap Wines & Spirits",
        "address": {
            "street": "105 Court Street, Brooklyn, NY 11201",
            "lat": "40.6907763",
            "lon": "-73.9915424"
        },
        "locations": "Retail",
        "wines": [
            "Young Wine Chambourcin"
        ]
    },
    {
<<<<<<< Updated upstream
        "id": "vuG_TmkKTUD5iBc-09vfO",
=======
        "id": "9gtzy33wfDZyC1gmhzoAv",
>>>>>>> Stashed changes
        "name": "Dominion Wine and Beer",
        "address": {
            "street": "107 Rowell Ct., Falls Church, VA 22046",
            "lat": "38.8897048",
            "lon": "-77.183834"
        },
        "locations": "Restaurant/Retail",
        "wines": [
            "Rosé",
            "Chardonnay",
            "Petit Manseng",
            "Foothills"
        ]
    },
    {
<<<<<<< Updated upstream
        "id": "rnD6cKkRzS1aP9v_Q9pN6",
=======
        "id": "IvS7qIREz5_05QuncF2CA",
>>>>>>> Stashed changes
        "name": "Home.Made",
        "address": {
            "street": "1072 Baxter Street, Athens, GA 30606",
            "lat": "33.9476529",
            "lon": "-83.3980925"
        },
        "locations": "Restaurant/Retail",
        "wines": [
            "Eluvium",
            "Petit Manseng"
        ]
    },
    {
<<<<<<< Updated upstream
        "id": "cMv692dKnjjCHnsatC4em",
=======
        "id": "IenTsHz_IX5Nu9fiLlVn-",
>>>>>>> Stashed changes
        "name": "Alley Light",
        "address": {
            "street": "108 2nd St. SW, Charlottesville, VA 22902",
            "lat": "38.0305995",
            "lon": "-78.482276"
        },
        "locations": "Restaurant",
        "wines": [
            "Shenandoah Valley Cabernet Franc",
            "RISE"
        ]
    },
    {
<<<<<<< Updated upstream
        "id": "8P6Fy_c9Tg0h-84eeom-t",
=======
        "id": "FWo7vmriwpkcK2QuEbe8V",
>>>>>>> Stashed changes
        "name": "Caboose",
        "address": {
            "street": "108 S. Railroad Ave., Ashland, VA 23005",
            "lat": "37.758286",
            "lon": "-77.4816338"
        },
        "locations": "Restaurant/Retail",
        "wines": [
            "Foothills",
            "Chardonnay"
        ]
    },
    {
<<<<<<< Updated upstream
        "id": "1ty7JfbiYkixOK-VPeFGO",
=======
        "id": "sQGi04pJtfFaq0jgQEX6i",
>>>>>>> Stashed changes
        "name": "Momofuku DC",
        "address": {
            "street": "1090 I St. NW, Washington, DC 20001",
            "lat": "38.9007039",
            "lon": "-77.0268751"
        },
        "locations": "Restaurant",
        "wines": [
            "Young Wine Chambourcin",
            "Rosé",
            "Eluvium"
        ]
    },
    {
<<<<<<< Updated upstream
        "id": "R_D3-GzDzBq5IiSbpKdd4",
=======
        "id": "8ZZRQ_ZyVKeqHyKkXZz4T",
>>>>>>> Stashed changes
        "name": "USA Wine Imports:Sorso Wine Boutique",
        "address": {
            "street": "1069 Bedford Avenue, Brooklyn, NY 11216",
            "lat": "40.6724091",
            "lon": "-73.9833358"
        },
        "locations": "Retail",
        "wines": [
            "Rosé"
        ]
    },
    {
<<<<<<< Updated upstream
        "id": "jmRMEYcPko5nMfR4U7tvq",
=======
        "id": "e26OIsFDq1wbuJCR9rUnz",
>>>>>>> Stashed changes
        "name": "Whole Foods - Short Pump",
        "address": {
            "street": "11173 West Broad St., Richmond, VA 23060",
            "lat": "37.6475665",
            "lon": "-77.5997292"
        },
        "locations": "Restaurant/Retail",
        "wines": [
            "Foothills",
            "Rosé"
        ]
    },
    {
<<<<<<< Updated upstream
        "id": "uHI2XdxcLNqHObxaHazAd",
=======
        "id": "ggWK9-b5RPd_GT8Ts5lL6",
>>>>>>> Stashed changes
        "name": "Vermillion",
        "address": {
            "street": "1120 King St, Alexandria, VA 22314",
            "lat": "38.8055661",
            "lon": "-77.0522637"
        },
        "locations": "Restaurant",
        "wines": [
            "Foothills"
        ]
    },
    {
<<<<<<< Updated upstream
        "id": "pakSg_68rig8uMmPusbyN",
=======
        "id": "YHxYrDLIVDxnHmo99FDAJ",
>>>>>>> Stashed changes
        "name": "Essex Pearl",
        "address": {
            "street": "115 Delancey Street, Manhattan, NY 10002",
            "lat": "40.7182566",
            "lon": "-73.9881462"
        },
        "locations": "Restaurant",
        "wines": [
            "Petit Manseng",
            "Five Forks"
        ]
    },
    {
<<<<<<< Updated upstream
        "id": "BFhJSbbXSHOeMxlnZtByL",
=======
        "id": "tryq6AzCVEC-uYhaq7ySg",
>>>>>>> Stashed changes
        "name": "Zynodoa",
        "address": {
            "street": "115 E Beverly St, Staunton, VA 24401",
            "lat": "38.149814",
            "lon": "-79.0709713"
        },
        "locations": "Restaurant",
        "wines": [
            "Petit Manseng",
            "Eluvium",
            "Foothills",
            "Rosé"
        ]
    },
    {
<<<<<<< Updated upstream
        "id": "NAqLpFIZ23JepcjkgcfyA",
=======
        "id": "ol4DhE2J54yuw8e5omu98",
>>>>>>> Stashed changes
        "name": "Bloom",
        "address": {
            "street": "1109 Main St. SW, Roanoke, VA 24015",
            "lat": "37.264562",
            "lon": "-79.958762"
        },
        "locations": "Restaurant",
        "wines": [
            "Petit Manseng"
        ]
    },
    {
<<<<<<< Updated upstream
        "id": "obk_r7pbnjvYLbnj98_K3",
=======
        "id": "W6T-ODVjGCadJZ19yZQrR",
>>>>>>> Stashed changes
        "name": "DeVine",
        "address": {
            "street": "121 Blue Ridge Dr, Wintergreen, VA 22958",
            "lat": "37.8848619",
            "lon": "-78.8994672"
        },
        "locations": "Retail",
        "wines": [
            "Shenandoah Valley Cabernet Franc",
            "Petit Manseng"
        ]
    },
    {
<<<<<<< Updated upstream
        "id": "qW6jy9S17R9I_SzarUf8Q",
=======
        "id": "B1FXVEh3n9kDgOnrRvogJ",
>>>>>>> Stashed changes
        "name": "Dabney",
        "address": {
            "street": "122 Blagden Alley NW, Washington, DC 20009",
            "lat": "38.9062837",
            "lon": "-77.0246047"
        },
        "locations": "Restaurant",
        "wines": [
            "Eluvium"
        ]
    },
    {
<<<<<<< Updated upstream
        "id": "G8HZqtpFie7yqmZ08F0_s",
=======
        "id": "KwRyH1P4ftVeN6J234Keb",
>>>>>>> Stashed changes
        "name": "La Fromagerie",
        "address": {
            "street": "1222 King St, Alexandria, VA 22314",
            "lat": "38.805648",
            "lon": "-77.053429"
        },
        "locations": "Restaurant/Retail",
        "wines": [
            "Shenandoah Valley Cabernet Franc",
            "Petit Manseng",
            "Rosé",
            "Pétillant Naturel White",
            "Eluvium",
            "Quaker Run Chardonnay"
        ]
    },
    {
<<<<<<< Updated upstream
        "id": "DuLE8FBIUkrHs_VF4z8zJ",
=======
        "id": "mEGyhdUkFETIV0SWDCIFq",
>>>>>>> Stashed changes
        "name": "Ten Sushi",
        "address": {
            "street": "120B East Main St, Charlottesville, VA 22902",
            "lat": "38.0303542",
            "lon": "-78.4810329"
        },
        "locations": "Restaurant",
        "wines": [
            "Foothills"
        ]
    },
    {
<<<<<<< Updated upstream
        "id": "wSvZxALN75Sg0IYblTlye",
=======
        "id": "orhCGjeQIjU137KrDxztB",
>>>>>>> Stashed changes
        "name": "Clifton Inn",
        "address": {
            "street": "1296 Clifton Inn Dr, Charlottesville, VA 22911",
            "lat": "38.007264",
            "lon": "-78.397257"
        },
        "locations": "Restaurant",
        "wines": [
            "RISE"
        ]
    },
    {
<<<<<<< Updated upstream
        "id": "TWOLFRPXqgBvXB6ETNJr1",
=======
        "id": "vEOtEPCJjxVoSDzMaxDzb",
>>>>>>> Stashed changes
        "name": "Saint Anselm",
        "address": {
            "street": "1250 5th St. NE, Washington, DC 20002",
            "lat": "38.9077745",
            "lon": "-76.9990918"
        },
        "locations": "Restaurant",
        "wines": [
            "Shenandoah Valley Cabernet Franc"
        ]
    },
    {
<<<<<<< Updated upstream
        "id": "3vaRzyBY79wodJIIDDp_l",
=======
        "id": "VWuRhFMQP0fEgVw3PvocP",
>>>>>>> Stashed changes
        "name": "Roanoke Natural Foods Co-op",
        "address": {
            "street": "1319 Grandin Rd SW, Roanoke, VA 24015",
            "lat": "37.2652232",
            "lon": "-79.9776246"
        },
        "locations": "Retail",
        "wines": [
            "Foothills",
            "Eluvium"
        ]
    },
    {
<<<<<<< Updated upstream
        "id": "RhPDqlAkYX0cfz1Jcd_lM",
=======
        "id": "OawArCVivtkobv_iyiJSC",
>>>>>>> Stashed changes
        "name": "Vintage Cellar",
        "address": {
            "street": "1338 South Main St., Blacksburg, VA 24060",
            "lat": "37.215963",
            "lon": "-80.402101"
        },
        "locations": "Retail",
        "wines": [
            "Eluvium",
            "Foothills"
        ]
    },
    {
<<<<<<< Updated upstream
        "id": "35T_dgZpCt2qXgJ3x7V8x",
=======
        "id": "dr0rJ6MZ8do_k7CYBlQsH",
>>>>>>> Stashed changes
        "name": "Inn at Warm Springs",
        "address": {
            "street": "12968 Sam Snead Hwy, Warm Springs, VA 24484",
            "lat": "38.0534747",
            "lon": "-79.7791928"
        },
        "locations": "Restaurant",
        "wines": [
            "Rosé"
        ]
    },
    {
<<<<<<< Updated upstream
        "id": "-WLN-aXc2lfc4A5kKDewc",
=======
        "id": "r93-TNwk1YIdn_8w5xRo6",
>>>>>>> Stashed changes
        "name": "Norm's Beer & Wine",
        "address": {
            "street": "136 Branch Rd SE, Vienna, VA 22180",
            "lat": "38.9062317",
            "lon": "-77.257151"
        },
        "locations": "Retail",
        "wines": [
            "Rosé",
            "Eluvium",
            "Shenandoah Valley Cabernet Franc",
            "Quaker Run Chardonnay",
            "Chardonnay",
            "Foothills"
        ]
    },
    {
<<<<<<< Updated upstream
        "id": "ft5gHpsRoApj9dGUQ8ZV6",
=======
        "id": "q4K2lbfh1cC_F9ky6sJKA",
>>>>>>> Stashed changes
        "name": "Chain Bridge Cellars",
        "address": {
            "street": "1351 Chain Bridge Rd, McLean, VA 22101",
            "lat": "38.9385421",
            "lon": "-77.1746454"
        },
        "locations": "Retail",
        "wines": [
            "Foothills"
        ]
    },
    {
<<<<<<< Updated upstream
        "id": "G_2PTUY05cEKp7LIkZ7aL",
=======
        "id": "pYjdyxWadQC54vdLFb13c",
>>>>>>> Stashed changes
        "name": "Salisbury Country Club",
        "address": {
            "street": "13620 W. Salisbury Rd, Midlothian, VA 23113",
            "lat": "37.5278854",
            "lon": "-77.6533788"
        },
        "locations": "Restaurant",
        "wines": [
            "Pétillant Naturel White",
            "Rosé",
            "Petit Manseng",
            "Foothills",
            "Shenandoah Valley Cabernet Franc",
            "RISE"
        ]
    },
    {
<<<<<<< Updated upstream
        "id": "xK9tPboLCys67ii_oVa1d",
=======
        "id": "ICfKm3V6wn1i6kCkXR4pk",
>>>>>>> Stashed changes
        "name": "Cellar d'Or",
        "address": {
            "street": "136 E State St, Ithaca, NY 14850",
            "lat": "42.4397353",
            "lon": "-76.4977365"
        },
        "locations": "Retail",
        "wines": [
            "Shenandoah Valley Cabernet Franc"
        ]
    },
    {
<<<<<<< Updated upstream
        "id": "jFpxdZHNZDqUjdyX7aRnc",
=======
        "id": "6QochZhh8qsc8S34ZWHvY",
>>>>>>> Stashed changes
        "name": "Brooklyn Wine Exchange",
        "address": {
            "street": "138 Court Street, Brooklyn, NY 11201",
            "lat": "40.6893227",
            "lon": "-73.992801"
        },
        "locations": "Retail",
        "wines": [
            "Five Forks"
        ]
    },
    {
<<<<<<< Updated upstream
        "id": "C1CUjRedSyFMdG5Gig1fY",
=======
        "id": "RNjma8Qkg2hl2kSifQbto",
>>>>>>> Stashed changes
        "name": "Taste - Headquarters",
        "address": {
            "street": "1391 Air Rail Avenue, Virginia Beach, VA 23455",
            "lat": "36.8929573",
            "lon": "-76.1918905"
        },
        "locations": "Restaurant/Retail",
        "wines": [
            "Rosé"
        ]
    },
    {
<<<<<<< Updated upstream
        "id": "40skvuMOoUN4SJMgeGiuj",
=======
        "id": "bpsGa1_ELkKztKJaksVuz",
>>>>>>> Stashed changes
        "name": "Kings County Wines",
        "address": {
            "street": "1420 Cortelyou Rd, Brooklyn, NY 11226",
            "lat": "40.6409745",
            "lon": "-73.9644848"
        },
        "locations": "Retail",
        "wines": [
            "Foothills",
            "Petit Manseng"
        ]
    },
    {
<<<<<<< Updated upstream
        "id": "B2YCZmR9tghuMre5HDrkP",
=======
        "id": "vSFyZxi4aFYrEF48rciFS",
>>>>>>> Stashed changes
        "name": "Friendly City Food Co-op",
        "address": {
            "street": "150 E Wolfe St, Harrisonburg, VA 22802",
            "lat": "38.4516609",
            "lon": "-78.8665291"
        },
        "locations": "Retail",
        "wines": [
            "Foothills",
            "Rosé",
            "Petit Manseng",
            "RISE"
        ]
    },
    {
<<<<<<< Updated upstream
        "id": "31BnNexCBKizZ3zRkUFyw",
=======
        "id": "eLdG8rLa9MPTHH17AcxAJ",
>>>>>>> Stashed changes
        "name": "Clementine Cafe",
        "address": {
            "street": "153 S Main St, Harrisonburg, VA 22801",
            "lat": "38.4478062",
            "lon": "-78.8692932"
        },
        "locations": "Restaurant",
        "wines": [
            "Eluvium",
            "Chardonnay"
        ]
    },
    {
<<<<<<< Updated upstream
        "id": "QG8HTdzwBHRSLenLMhbOe",
=======
        "id": "7HnX55z_EbHsEVkhFnKke",
>>>>>>> Stashed changes
        "name": "Beer Run",
        "address": {
            "street": "156 Carlton Rd Ste 203, Charlottesville, VA 22902",
            "lat": "38.0246361",
            "lon": "-78.468401"
        },
        "locations": "Restaurant/Retail",
        "wines": [
            "Shenandoah Valley Cabernet Franc",
            "Young Wine Chambourcin"
        ]
    },
    {
<<<<<<< Updated upstream
        "id": "dKf1SgX_LmLMX_1RTf27Y",
=======
        "id": "dQsN4YvXvIO8y4ZyyED4J",
>>>>>>> Stashed changes
        "name": "Unwined Belle View",
        "address": {
            "street": "1600 Belle View Blvd., Alexandria, VA 22307",
            "lat": "38.7761672",
            "lon": "-77.0597746"
        },
        "locations": "Retail",
        "wines": [
            "Rosé",
            "Pétillant Naturel White",
            "Shenandoah Valley Cabernet Franc",
            "Petit Manseng",
            "Eluvium",
            "Foothills",
            "Pétillant Naturel Red",
            "Chardonnay"
        ]
    },
    {
<<<<<<< Updated upstream
        "id": "gRWGMG2gKNRFR97p5Cqq4",
=======
        "id": "B3gOBqUy2O5syxQLPVCkN",
>>>>>>> Stashed changes
        "name": "W2 Wines, LLC",
        "address": {
            "street": "16031 Hillsboro Road, Purcellville, VA 20132",
            "lat": "39.173889",
            "lon": "-77.725546"
        },
        "locations": "Retail",
        "wines": [
            "Shenandoah Valley Cabernet Franc",
            "Petit Manseng",
            "Rosé"
        ]
    },
    {
<<<<<<< Updated upstream
        "id": "Rw6IGSr9linF-d3zHXeg8",
=======
        "id": "j9CukKwAJHsZq73vUV7yO",
>>>>>>> Stashed changes
        "name": "USA Wine Imports:Kings County Wines",
        "address": {
            "street": "1420 Cortelyou Road, Brooklyn, NY 11226",
            "lat": "40.6724091",
            "lon": "-73.9833358"
        },
        "locations": "Retail",
        "wines": [
            "Rosé"
        ]
    },
    {
<<<<<<< Updated upstream
        "id": "-T8DulVyHHj7YTFQpIhER",
=======
        "id": "wrkzyyXBmk0MIkP6o8y9j",
>>>>>>> Stashed changes
        "name": "Mount Airy Winegrowers LLC",
        "address": {
            "street": "1609 Lee Highway, Fort Defiance, VA 24437",
            "lat": "38.2353215",
            "lon": "-78.976582"
        },
        "locations": "Retail",
        "wines": [
            "Pétillant Naturel White"
        ]
    },
    {
<<<<<<< Updated upstream
        "id": "4ZnEqkyYEhHl2DY5ZywM3",
=======
        "id": "tvyhuARSTE5RtNMxzInqb",
>>>>>>> Stashed changes
        "name": "Cairo Wine & Liquor",
        "address": {
            "street": "1618 17th St NW, Washington, DC 20009",
            "lat": "38.9117809",
            "lon": "-77.0387481"
        },
        "locations": "Retail",
        "wines": [
            "Rosé"
        ]
    },
    {
<<<<<<< Updated upstream
        "id": "48BH2RrRWsLaR4nK-6CKg",
=======
        "id": "7vi4gdI0QKUyzVEPlBZGt",
>>>>>>> Stashed changes
        "name": "Whole Foods - Boro Tysons",
        "address": {
            "street": "1635 Boro Place, McLean, VA 22102",
            "lat": "38.9246153",
            "lon": "-77.2335301"
        },
        "locations": "Restaurant/Retail",
        "wines": [
            "Rosé",
            "Foothills",
            "Five Forks"
        ]
    },
    {
<<<<<<< Updated upstream
        "id": "mwr15t6tZ4YBz6nymKZEo",
=======
        "id": "FMiJ3JnRxEkvxyQtiQzfB",
>>>>>>> Stashed changes
        "name": "Farmington Country Club",
        "address": {
            "street": "1625 Country Club Circle, Charlottesville, VA 22901",
            "lat": "38.0616369",
            "lon": "-78.5419503"
        },
        "locations": "Restaurant",
        "wines": [
            "RISE"
        ]
    },
    {
<<<<<<< Updated upstream
        "id": "cmRFzu-SRBGetS1Q2C2Zs",
=======
        "id": "bbclX9UIA9BQ0oaqoR0cj",
>>>>>>> Stashed changes
        "name": "Vinosity",
        "address": {
            "street": "174 E Davis St,, Charlottesville, VA 22732",
            "lat": "38.0293059",
            "lon": "-78.4766781"
        },
        "locations": "Retail",
        "wines": [
            "Foothills"
        ]
    },
    {
<<<<<<< Updated upstream
        "id": "vGjw1cyi6cmXKs6X7fOnP",
=======
        "id": "ba8kN9ySgof0Fn4WM_Qvf",
>>>>>>> Stashed changes
        "name": "A Rake's Progress",
        "address": {
            "street": "1771 Euclid St NW, Washington, DC 20009",
            "lat": "38.9230696",
            "lon": "-77.0413986"
        },
        "locations": "Restaurant",
        "wines": [
            "Shenandoah Valley Cabernet Franc"
        ]
    },
    {
<<<<<<< Updated upstream
        "id": "anfqrcVBs95U92qo3Yux6",
=======
        "id": "Y-NXPZOTnuZSf4BcOG68x",
>>>>>>> Stashed changes
        "name": "Whole Foods - Old Town",
        "address": {
            "street": "1700 Duke Street, Alexandria, VA 22314",
            "lat": "38.8041416",
            "lon": "-77.0600615"
        },
        "locations": "Restaurant/Retail",
        "wines": [
            "Rosé"
        ]
    },
    {
<<<<<<< Updated upstream
        "id": "wTWK1S_RjfwXW8OHgDb_M",
=======
        "id": "rS0wxxGecuufw4Du0tZA0",
>>>>>>> Stashed changes
        "name": "Whole Foods - Charlottesville",
        "address": {
            "street": "1797 Hydraulic Road, Charlottesville, VA 22901",
            "lat": "38.059773",
            "lon": "-78.4891351"
        },
        "locations": "Restaurant/Retail",
        "wines": [
            "Foothills",
            "Rosé"
        ]
    },
    {
<<<<<<< Updated upstream
        "id": "R1ww1g9bfB3KrO-TmAf94",
=======
        "id": "Otr5hrSr_go0_J6N_XWyx",
>>>>>>> Stashed changes
        "name": "Lucky",
        "address": {
            "street": "18 Kirk Ave SW, Roanoke, VA 24011",
            "lat": "37.2709987",
            "lon": "-79.9414035"
        },
        "locations": "Restaurant",
        "wines": [
            "Quaker Run Chardonnay",
            "RISE"
        ]
    },
    {
<<<<<<< Updated upstream
        "id": "9tC8RnXrOrz9oNEP28bXp",
=======
        "id": "yEIbtt94LqdH66teKIHXQ",
>>>>>>> Stashed changes
        "name": "Whole Foods - Virginia Beach",
        "address": {
            "street": "1800 Laskin Road, Virginia Beach, VA 23454",
            "lat": "36.8509319",
            "lon": "-76.0281576"
        },
        "locations": "Restaurant/Retail",
        "wines": [
            "Foothills",
            "Rosé"
        ]
    },
    {
<<<<<<< Updated upstream
        "id": "Jup879lWdwb93uLFv6I8_",
=======
        "id": "rdRj1EF0pzHOSxjE3zbOz",
>>>>>>> Stashed changes
        "name": "67 Liquor Shop",
        "address": {
            "street": "179 Columbus Ave, New York, NY 10023",
            "lat": "40.7746082",
            "lon": "-73.9805925"
        },
        "locations": "Retail",
        "wines": [
            "Rosé"
        ]
    },
    {
<<<<<<< Updated upstream
        "id": "Q6l-00Tb7lPr6dGJaI3Ma",
=======
        "id": "93dcteOeZrUjMeBxkKiqP",
>>>>>>> Stashed changes
        "name": "Wine Warehouse",
        "address": {
            "street": "1804 Hydraulic Rd, Charlottesville, VA 22902",
            "lat": "38.0607943",
            "lon": "-78.4914214"
        },
        "locations": "Retail",
        "wines": [
            "Shenandoah Valley Cabernet Franc",
            "Foothills",
            "Five Forks",
            "RISE"
        ]
    },
    {
<<<<<<< Updated upstream
        "id": "QEzjGsi78Z0sj4gK2iQ_g",
=======
        "id": "i8b49VxpXC6tzwImVz4Bg",
>>>>>>> Stashed changes
        "name": "Founding Farmers - Tyson's Corner",
        "address": {
            "street": "1800 Tyson's Blvd., McLean, VA 22102",
            "lat": "38.9488917",
            "lon": "-77.3383807"
        },
        "locations": "Restaurant",
        "wines": [
            "Rosé"
        ]
    },
    {
<<<<<<< Updated upstream
        "id": "JxPa7cKoJUN8we-S1ZM3x",
=======
        "id": "0xblMSNNDoxPJw1LXa4kY",
>>>>>>> Stashed changes
        "name": "Red Hen-DC",
        "address": {
            "street": "1822 1st St. NW, Washington, DC 20001",
            "lat": "38.9149738",
            "lon": "-77.0124095"
        },
        "locations": "Restaurant",
        "wines": [
            "Five Forks",
            "Eluvium"
        ]
    },
    {
<<<<<<< Updated upstream
        "id": "E47-2QyrbPGPcAXXh4JNR",
=======
        "id": "5zu3b-kvajeu_cdQNS-7p",
>>>>>>> Stashed changes
        "name": "Back Bay's Farmhouse Brewing",
        "address": {
            "street": "1805 Kempsville Rd, Virginia Beach, VA 23464",
            "lat": "36.7830652",
            "lon": "-76.1893622"
        },
        "locations": "Restaurant",
        "wines": [
            "Rosé"
        ]
    },
    {
<<<<<<< Updated upstream
        "id": "ijtkBh7LVcKwzWznmu_U2",
=======
        "id": "6bhjaOKhewe1XTRHU3K1A",
>>>>>>> Stashed changes
        "name": "Tail Up Goat",
        "address": {
            "street": "1827 Adams Mill Rd. NW, Washington, DC 20009",
            "lat": "38.923447",
            "lon": "-77.043176"
        },
        "locations": "Restaurant",
        "wines": [
            "Rosé"
        ]
    },
    {
<<<<<<< Updated upstream
        "id": "XUhVi34Ce_1CD4m6HzgUa",
=======
        "id": "Yur-lwjPbhLxrFvITSfU5",
>>>>>>> Stashed changes
        "name": "Rio Hill Wine & Beer",
        "address": {
            "street": "1908 Rio Hill Center, Charlottesville, VA 22901",
            "lat": "38.0877905",
            "lon": "-78.4749043"
        },
        "locations": "Retail",
        "wines": [
            "Eluvium",
            "Foothills",
            "Quaker Run Chardonnay",
            "Shenandoah Valley Cabernet Franc",
            "Chardonnay",
            "Rosé",
            "Petit Manseng"
        ]
    },
    {
<<<<<<< Updated upstream
        "id": "G8Hx-HJUhOlbLIMdrvwIv",
=======
        "id": "iHjLFeYKAsfIfL31d-zyF",
>>>>>>> Stashed changes
        "name": "Founding Farmers - Reston",
        "address": {
            "street": "1904 Reston Metro Plaza, Suite 100, Reston, VA 20190",
            "lat": "38.9488917",
            "lon": "-77.3383807"
        },
        "locations": "Restaurant",
        "wines": [
            "Rosé"
        ]
    },
    {
<<<<<<< Updated upstream
        "id": "pLPCT0wc6I4MOXQLqoM4q",
=======
        "id": "rztsQqSlrshETjzuwEnWP",
>>>>>>> Stashed changes
        "name": "Whole Foods - Ashburn",
        "address": {
            "street": "19800 Belmont Chase Dr, Ashburn, VA 20147",
            "lat": "39.0684834",
            "lon": "-77.4843963"
        },
        "locations": "Restaurant/Retail",
        "wines": [
            "Foothills",
            "Eluvium"
        ]
    },
    {
<<<<<<< Updated upstream
        "id": "5uBDAWs0Dqbyw0w4TFXeK",
=======
        "id": "iFTnQHWUTElx_bBPG2Mxy",
>>>>>>> Stashed changes
        "name": "Magnolia's at the Mill",
        "address": {
            "street": "198 North 21st Street, Purcelville, VA 20132",
            "lat": "39.1383297",
            "lon": "-77.7156535"
        },
        "locations": "Restaurant",
        "wines": [
            "Rosé"
        ]
    },
    {
<<<<<<< Updated upstream
        "id": "-PRnXXXh-C_8YJ30o2XGU",
=======
        "id": "vt3wZz24eVilF4KFJQcCd",
>>>>>>> Stashed changes
        "name": "Primland Resort",
        "address": {
            "street": "2000 Busted Rock Road, Meadows of Dan, VA 24120",
            "lat": "36.6617827",
            "lon": "-80.4318697"
        },
        "locations": "Restaurant",
        "wines": [
            "Eluvium",
            "Chardonnay",
            "Shenandoah Valley Cabernet Franc"
        ]
    },
    {
<<<<<<< Updated upstream
        "id": "xovOGRaAr9nDEs0I1QKSu",
=======
        "id": "9uxMQBcN2_wQErqqUaf9_",
>>>>>>> Stashed changes
        "name": "Planet Wine",
        "address": {
            "street": "2000-2004 Mount Vernon Ave, Alexandria, VA 22301",
            "lat": "38.8239944",
            "lon": "-77.0585361"
        },
        "locations": "Retail",
        "wines": [
            "Petit Manseng",
            "Rosé",
            "Shenandoah Valley Cabernet Franc"
        ]
    },
    {
<<<<<<< Updated upstream
        "id": "qOAuOadVFNPSkRARSUo0h",
=======
        "id": "uCDd5-IoQHpgClypdO5O5",
>>>>>>> Stashed changes
        "name": "Glen's Garden Market",
        "address": {
            "street": "2001 S St. NW, Washington, DC 20009",
            "lat": "38.9143274",
            "lon": "-77.0451575"
        },
        "locations": "Restaurant/Retail",
        "wines": [
            "Foothills",
            "Rosé",
            "Shenandoah Valley Cabernet Franc"
        ]
    },
    {
<<<<<<< Updated upstream
        "id": "w1Nf5rv-kIQe8X7l7HisF",
=======
        "id": "QkJxGGCatuqAjHbYS_KhC",
>>>>>>> Stashed changes
        "name": "Zocalo",
        "address": {
            "street": "201 E Main St Suite E, Charlottesville, VA 22902",
            "lat": "38.0307918",
            "lon": "-78.4803003"
        },
        "locations": "Restaurant",
        "wines": [
            "Pétillant Naturel White",
            "Foothills"
        ]
    },
    {
<<<<<<< Updated upstream
        "id": "wr64c8nw7rABsoWa_FXDO",
=======
        "id": "RagHwvsfUDW-qOjmacm7Q",
>>>>>>> Stashed changes
        "name": "Stone Tower Winery",
        "address": {
            "street": "19925 Hogback Mountain Road, Leesburg, VA 20175",
            "lat": "39.063064",
            "lon": "-77.635397"
        },
        "locations": "Restaurant/Retail",
        "wines": [
            "Shenandoah Valley Cabernet Franc"
        ]
    },
    {
<<<<<<< Updated upstream
        "id": "FSByDRS6fsyGnpAgcO5nh",
=======
        "id": "ZwPecSCvS8dGoE7cYk9SH",
>>>>>>> Stashed changes
        "name": "Downtown Grille",
        "address": {
            "street": "201 West Main Street, Charlottesville, VA 22902",
            "lat": "38.0312386",
            "lon": "-78.4823426"
        },
        "locations": "Restaurant",
        "wines": [
            "Chardonnay",
            "Eluvium",
            "RISE"
        ]
    },
    {
<<<<<<< Updated upstream
        "id": "cMQpUkyVuFdTn_J111_Rh",
=======
        "id": "wiq06FLGYD0vSPnbx7jTe",
>>>>>>> Stashed changes
        "name": "Whole Foods - West Broad",
        "address": {
            "street": "2024 W Broad Street, Richmond, VA 23220",
            "lat": "37.5581958",
            "lon": "-77.4612166"
        },
        "locations": "Restaurant/Retail",
        "wines": [
            "Rosé",
            "Foothills"
        ]
    },
    {
<<<<<<< Updated upstream
        "id": "7DgCLvGWLqIHMVrOk73Fd",
=======
        "id": "fb5T758_bko8nOzupcbh1",
>>>>>>> Stashed changes
        "name": "Locke Store",
        "address": {
            "street": "2049 Millwood Rd., Millwood, VA 22646",
            "lat": "39.0695452",
            "lon": "-78.0379379"
        },
        "locations": "Retail",
        "wines": [
            "Pétillant Naturel White",
            "Rosé",
            "Eluvium",
            "Shenandoah Valley Cabernet Franc"
        ]
    },
    {
<<<<<<< Updated upstream
        "id": "bohhKnMosIfWJUBRVu2jn",
=======
        "id": "GD3eoYIeS-9FurUETYSYa",
>>>>>>> Stashed changes
        "name": "Nourish Louisa",
        "address": {
            "street": "205 W Main St, Louisa, VA 23093",
            "lat": "38.0252902",
            "lon": "-78.0034953"
        },
        "locations": "Restaurant/Retail",
        "wines": [
            "Eluvium",
            "Foothills"
        ]
    },
    {
<<<<<<< Updated upstream
        "id": "T4wwTfZaOZWq-zuNfmz0O",
=======
        "id": "6s58l2HEt2OtDNQqBny7q",
>>>>>>> Stashed changes
        "name": "Quirk Hotel",
        "address": {
            "street": "201 W. Broad St., Richmond, VA 23220",
            "lat": "37.546436",
            "lon": "-77.4441523"
        },
        "locations": "Restaurant",
        "wines": [
            "Foothills"
        ]
    },
    {
<<<<<<< Updated upstream
        "id": "hUlFnqZmfZYwa28811t50",
=======
        "id": "2SGTZ2Dmk2NoFwKHkpDUh",
>>>>>>> Stashed changes
        "name": "Common House",
        "address": {
            "street": "206 West Market Street, Charlottesville, VA 22902",
            "lat": "38.0317194",
            "lon": "-78.4822538"
        },
        "locations": "Restaurant",
        "wines": [
            "Petit Manseng",
            "Eluvium",
            "Rosé"
        ]
    },
    {
<<<<<<< Updated upstream
        "id": "jQJWa94CT1ge2YzXV2Aek",
=======
        "id": "yRJZ8HB3fzGVgvorkAaKU",
>>>>>>> Stashed changes
        "name": "Foods of All Nations",
        "address": {
            "street": "2121 Ivy Rd, Charlottesville, VA 22903",
            "lat": "38.0432978",
            "lon": "-78.5119067"
        },
        "locations": "Retail",
        "wines": [
            "Pétillant Naturel White",
            "Rosé",
            "Petit Manseng",
            "Shenandoah Valley Cabernet Franc",
            "Chardonnay",
            "Foothills",
            "Eluvium",
            "RISE"
        ]
    },
    {
<<<<<<< Updated upstream
        "id": "R3YDgTmZPQA-TR9oIqJrM",
=======
        "id": "aNA4903EddAVV461UhVJF",
>>>>>>> Stashed changes
        "name": "Shields Market",
        "address": {
            "street": "206 North Shields Avenue, Richmond, VA 23220",
            "lat": "37.5530887",
            "lon": "-77.4668696"
        },
        "locations": "Retail",
        "wines": [
            "Shenandoah Valley Cabernet Franc"
        ]
    },
    {
<<<<<<< Updated upstream
        "id": "wvuLui1lACGBfskGyHQcN",
=======
        "id": "8UAn2YPOsd9l0uzZX850I",
>>>>>>> Stashed changes
        "name": "Crystal City Wine Shop",
        "address": {
            "street": "220 20th St. South, Arlington, VA 22202",
            "lat": "38.85597",
            "lon": "-77.0500304"
        },
        "locations": "Retail",
        "wines": [
            "Rosé",
            "Foothills",
            "Pétillant Naturel White",
            "Petit Manseng",
            "Young Wine Chambourcin"
        ]
    },
    {
<<<<<<< Updated upstream
        "id": "jgwB-jPwZvs-TpfoZ-jBz",
=======
        "id": "5XarTbRxYlwOU9fztpqxl",
>>>>>>> Stashed changes
        "name": "Ivy Inn",
        "address": {
            "street": "2244 Old Ivy Rd., Charlottesville, VA 22903",
            "lat": "38.045948",
            "lon": "-78.516234"
        },
        "locations": "Restaurant",
        "wines": [
            "Petit Manseng",
            "Eluvium",
            "RISE",
            "Chardonnay"
        ]
    },
    {
<<<<<<< Updated upstream
        "id": "zXcl_TTnoq0YKh6WyHvCl",
=======
        "id": "Eh6sEFvqixCTgn2VWEoYb",
>>>>>>> Stashed changes
        "name": "Saison",
        "address": {
            "street": "23 W Marshall St. Suite A, Richmond, VA 23220",
            "lat": "37.546819",
            "lon": "-77.4420934"
        },
        "locations": "Restaurant",
        "wines": [
            "Pétillant Naturel White",
            "Rosé"
        ]
    },
    {
<<<<<<< Updated upstream
        "id": "Pia8O4VijXtS4C__GMxhY",
=======
        "id": "_pAih5ZVNuAaXeKsnYRf7",
>>>>>>> Stashed changes
        "name": "Fry's Spring Beach Club",
        "address": {
            "street": "2513 Jefferson Park Ave, Charlottesville, VA 22903",
            "lat": "38.0192125",
            "lon": "-78.5141217"
        },
        "locations": "Restaurant",
        "wines": [
            "Foothills",
            "Rosé"
        ]
    },
    {
<<<<<<< Updated upstream
        "id": "5GXTYnRBNpQWQbZNaaWf8",
=======
        "id": "NHi4wKDjfFdVNniS16Jgt",
>>>>>>> Stashed changes
        "name": "Acacia - Midtown",
        "address": {
            "street": "2601 West Cary St., Richmond, VA 23220",
            "lat": "37.5505588",
            "lon": "-77.4741547"
        },
        "locations": "Restaurant/Retail",
        "wines": [
            "Chardonnay",
            "Eluvium"
        ]
    },
    {
<<<<<<< Updated upstream
        "id": "tfzSc53RT3CFcq2eL9Qk5",
=======
        "id": "oUQADWFH_NLQxYdE_A2C1",
>>>>>>> Stashed changes
        "name": "Department of Beer & Wine",
        "address": {
            "street": "2724 Richmond Hwy, Alexandria, VA 22301",
            "lat": "38.830645",
            "lon": "-77.051175"
        },
        "locations": "Retail",
        "wines": [
            "Foothills",
            "Rosé",
            "Shenandoah Valley Cabernet Franc",
            "Petit Manseng",
            "Young Wine Chambourcin"
        ]
    },
    {
<<<<<<< Updated upstream
        "id": "_4yqzS8wdnmuoYu1DCwts",
=======
        "id": "q2Ek4gMYZYykkWjRYnmkB",
>>>>>>> Stashed changes
        "name": "Cosmos Club",
        "address": {
            "street": "2121 Massachusetts Ave. NW, Washington, DC 20008",
            "lat": "38.911551",
            "lon": "-77.0475863"
        },
        "locations": "Restaurant",
        "wines": [
            "RISE"
        ]
    },
    {
<<<<<<< Updated upstream
        "id": "vTolzdV7l38Lfr1Sp9_tp",
=======
        "id": "rveS9GjTxH2N79UH_ntQe",
>>>>>>> Stashed changes
        "name": "White Moose Inn",
        "address": {
            "street": "291 Main St., Washington, VA 22747",
            "lat": "38.7123391",
            "lon": "-78.16034"
        },
        "locations": "Restaurant",
        "wines": [
            "Chardonnay",
            "Eluvium",
            "Foothills",
            "Rosé"
        ]
    },
    {
<<<<<<< Updated upstream
        "id": "bV6bmG6HFnkFuRuVzPqQo",
=======
        "id": "hbz3NVzWrOkBdjUsXtAku",
>>>>>>> Stashed changes
        "name": "Perch",
        "address": {
            "street": "2918 W. Broad Street, Richmond, VA 23230",
            "lat": "37.5640539",
            "lon": "-77.4719183"
        },
        "locations": "Restaurant",
        "wines": [
            "Petit Manseng",
            "Foothills",
            "Rosé",
            "Chardonnay"
        ]
    },
    {
<<<<<<< Updated upstream
        "id": "hlN4fbL8sdDdqZrOkMJZe",
=======
        "id": "Pf6BSjfYG8bBGjGcHl-rS",
>>>>>>> Stashed changes
        "name": "Swirl & Sip",
        "address": {
            "street": "2905 District  Ave. Ste. 112, Fairfax, VA 22031",
            "lat": "38.8733231",
            "lon": "-77.229401"
        },
        "locations": "Retail",
        "wines": [
            "Five Forks"
        ]
    },
    {
<<<<<<< Updated upstream
        "id": "ATVihvz50gLmQnhjgJ7mY",
=======
        "id": "ieFLzMHgdsWar3WOBYl7Q",
>>>>>>> Stashed changes
        "name": "Prime 109",
        "address": {
            "street": "300 East Main St., Charlottesville, VA 22902",
            "lat": "36.8605378",
            "lon": "-76.2996588"
        },
        "locations": "Restaurant",
        "wines": [
            "Shenandoah Valley Cabernet Franc",
            "Petit Manseng",
            "Chardonnay"
        ]
    },
    {
<<<<<<< Updated upstream
        "id": "f101M6h7Uv04QnEbph_rH",
=======
        "id": "A9oi-pEjX5gL8dBUUPmgD",
>>>>>>> Stashed changes
        "name": "Von",
        "address": {
            "street": "3 Bleeker St, Manhattan, NY 10012",
            "lat": "40.7254442",
            "lon": "-73.9926215"
        },
        "locations": "Restaurant",
        "wines": [
            "Eluvium"
        ]
    },
    {
<<<<<<< Updated upstream
        "id": "g7siLjJUAWj25xdm_pEfk",
=======
        "id": "iJpQ5iZFyzH4_CgzwJACR",
>>>>>>> Stashed changes
        "name": "In Vino Veritas",
        "address": {
            "street": "3015 Louisa Rd, Keswick, VA 22947",
            "lat": "38.0134664",
            "lon": "-78.3951928"
        },
        "locations": "Retail",
        "wines": [
            "Rosé",
            "Foothills",
            "Shenandoah Valley Cabernet Franc"
        ]
    },
    {
<<<<<<< Updated upstream
        "id": "pV3_XuthrUFICqB_74KRE",
=======
        "id": "7sbuC1mH2NJKIHPk7bON-",
>>>>>>> Stashed changes
        "name": "Urban Hang Suite",
        "address": {
            "street": "304 E. Broad Street, Richmond, VA 23219",
            "lat": "37.5441901",
            "lon": "-77.4388111"
        },
        "locations": "Restaurant/Retail",
        "wines": [
            "Foothills",
            "Chardonnay",
            "Rosé"
        ]
    },
    {
<<<<<<< Updated upstream
        "id": "-aFbAIwxjpfPAD07bwaPl",
=======
        "id": "dqRMQ692FdeYQ6bv4bskP",
>>>>>>> Stashed changes
        "name": "Each Peach Market",
        "address": {
            "street": "3068 Mt Pleasant St NW, Washington, DC 20009",
            "lat": "38.928548",
            "lon": "-77.0375272"
        },
        "locations": "Restaurant/Retail",
        "wines": [
            "Foothills"
        ]
    },
    {
<<<<<<< Updated upstream
        "id": "g8iTC-8LDOkIbG-Ts9aLL",
=======
        "id": "V-JswzezuT9UV08xY9ru3",
>>>>>>> Stashed changes
        "name": "Bottleworks",
        "address": {
            "street": "3078 Stony Point Rd., Richmond, VA 23235",
            "lat": "37.537796",
            "lon": "-77.5651916"
        },
        "locations": "Retail",
        "wines": [
            "Chardonnay",
            "Foothills"
        ]
    },
    {
<<<<<<< Updated upstream
        "id": "934kqLsTS5oohFNlzIaMl",
=======
        "id": "7zj2h90UNTXPf2i2IWgS-",
>>>>>>> Stashed changes
        "name": "Market Street Wine Shop",
        "address": {
            "street": "311 East Market St, Charlottesville, VA 22902",
            "lat": "38.0310663",
            "lon": "-78.4789692"
        },
        "locations": "Retail",
        "wines": [
            "Pétillant Naturel White",
            "Chardonnay",
            "Eluvium",
            "Foothills",
            "Petit Manseng",
            "Young Wine Chambourcin",
            "Rosé",
            "Shenandoah Valley Cabernet Franc"
        ]
    },
    {
<<<<<<< Updated upstream
        "id": "GWzgiPZn0FYM6Qc4y3XS2",
=======
        "id": "dZnBaxfwHgnh8jJOlEKFV",
>>>>>>> Stashed changes
        "name": "Grisette",
        "address": {
            "street": "3119 East Marshall Street, Richmond, VA 23223",
            "lat": "37.528621",
            "lon": "-77.4119182"
        },
        "locations": "Restaurant",
        "wines": [
            "Petit Manseng",
            "Foothills",
            "Eluvium"
        ]
    },
    {
<<<<<<< Updated upstream
        "id": "CIv8rJGJ74uNXrXRv12AR",
=======
        "id": "_ITe_SoZgvaHLTWbICI0V",
>>>>>>> Stashed changes
        "name": "Alewife",
        "address": {
            "street": "3120 E Marshall St., Richmond, VA 23223",
            "lat": "37.5288799",
            "lon": "-77.4116006"
        },
        "locations": "Restaurant",
        "wines": [
            "Young Wine Chambourcin",
            "Pétillant Naturel White",
            "Pétillant Naturel Red"
        ]
    },
    {
<<<<<<< Updated upstream
        "id": "R23GX126ZLrPvOq90Zppl",
=======
        "id": "afBlKs5Xan5SiuWezKf8h",
>>>>>>> Stashed changes
        "name": "Broken Tulip",
        "address": {
            "street": "3129 W. Cary Street, Richmond, VA 23221",
            "lat": "37.5532674",
            "lon": "-77.481503"
        },
        "locations": "Restaurant",
        "wines": [
            "Young Wine Chambourcin",
            "Pétillant Naturel White"
        ]
    },
    {
<<<<<<< Updated upstream
        "id": "ZuC0EDEozNSBwvZFqwAZB",
=======
        "id": "6BAoFZ6HnFAv2EtXFFZkl",
>>>>>>> Stashed changes
        "name": "313 Franklin",
        "address": {
            "street": "313 Franklin Street, South Hill, VA 23970",
            "lat": "36.726272",
            "lon": "-78.1245498"
        },
        "locations": "Restaurant/Retail",
        "wines": [
            "Shenandoah Valley Cabernet Franc",
            "Chardonnay",
            "Petit Manseng",
            "Foothills"
        ]
    },
    {
<<<<<<< Updated upstream
        "id": "11IRDLBLJirTj-MUegc4x",
=======
        "id": "QUvRXg7LnFCh07RHjOX6F",
>>>>>>> Stashed changes
        "name": "Fortunato",
        "address": {
            "street": "301 1st Street SW #300, Roanoke, VA 24011",
            "lat": "37.2710853",
            "lon": "-79.9427864"
        },
        "locations": "Restaurant",
        "wines": [
            "Foothills"
        ]
    },
    {
<<<<<<< Updated upstream
        "id": "nCRU9lVzHjADeL2gu6wXq",
=======
        "id": "qC3tSBbWQk0j6T7fN6ONZ",
>>>>>>> Stashed changes
        "name": "Good Wine",
        "address": {
            "street": "327 5th Ave, Brooklyn, NY 11215",
            "lat": "40.6724091",
            "lon": "-73.9833358"
        },
        "locations": "Retail",
        "wines": [
            "Petit Manseng",
            "Foothills"
        ]
    },
    {
<<<<<<< Updated upstream
        "id": "eYH3USdZBivmRibBm4TYP",
=======
        "id": "FZDVfdTD8rQdKVK8JcAO8",
>>>>>>> Stashed changes
        "name": "USA Wine Imports:Good Wine",
        "address": {
            "street": "327 5th Avenue, Brooklyn, NY 11215",
            "lat": "40.6724091",
            "lon": "-73.9833358"
        },
        "locations": "Retail",
        "wines": [
            "Foothills"
        ]
    },
    {
<<<<<<< Updated upstream
        "id": "UNSICcnr9iKDxFuamUg7r",
=======
        "id": "GD6LO_eVvIJnZhB-UvfCB",
>>>>>>> Stashed changes
        "name": "Odd Provisions",
        "address": {
            "street": "3301 11th Street NW, Washington, DC 20010",
            "lat": "38.9309006",
            "lon": "-77.0278015"
        },
        "locations": "Retail",
        "wines": [
            "Rosé"
        ]
    },
    {
<<<<<<< Updated upstream
        "id": "6v4nccSY7SOSizmDov0VF",
=======
        "id": "YnYBHSrpcKibgmHSMYYWv",
>>>>>>> Stashed changes
        "name": "Wine Gourmet",
        "address": {
            "street": "3524 Electric Road, Roanoke, VA 24014",
            "lat": "37.2271841",
            "lon": "-79.9984762"
        },
        "locations": "Retail",
        "wines": [
            "Chardonnay",
            "Eluvium",
            "Rosé"
        ]
    },
    {
<<<<<<< Updated upstream
        "id": "60SWgkJLAqrA3dK141Ank",
=======
        "id": "xv89_9Cwp0lo3zNvJFA8h",
>>>>>>> Stashed changes
        "name": "Valley Pike Farm Market",
        "address": {
            "street": "3494 Lee Highway, Weyers Cave, VA 24486",
            "lat": "40.6724091",
            "lon": "-73.9833358"
        },
        "locations": "Retail",
        "wines": [
            "Foothills"
        ]
    },
    {
<<<<<<< Updated upstream
        "id": "ALibyuvK0TjNz0b-0UbvE",
=======
        "id": "KMMvpq2NDXGMGSHrMX7oq",
>>>>>>> Stashed changes
        "name": "The Eastern ",
        "address": {
            "street": "360 7th ST SE, Washington, DC 20003",
            "lat": "38.885362",
            "lon": "-76.995888"
        },
        "locations": "Restaurant",
        "wines": [
            "Shenandoah Valley Cabernet Franc"
        ]
    },
    {
<<<<<<< Updated upstream
        "id": "nIcc3NZM4A1blbBK-srWG",
=======
        "id": "GReMkF2L1p4NdtoqWGI8t",
>>>>>>> Stashed changes
        "name": "Unwined Bradlee Shopping Center",
        "address": {
            "street": "3690-J King St, Alexandria, VA 22302",
            "lat": "38.8296628",
            "lon": "-77.0921948"
        },
        "locations": "Retail",
        "wines": [
            "Rosé",
            "Eluvium",
            "Foothills",
            "Chardonnay",
            "Pétillant Naturel Red",
            "Shenandoah Valley Cabernet Franc"
        ]
    },
    {
<<<<<<< Updated upstream
        "id": "CQiGCIdOYe-tMpd3FLBAL",
=======
        "id": "WoWLzziwa2dMsR8ExYMzK",
>>>>>>> Stashed changes
        "name": "Vino Market",
        "address": {
            "street": "3730 Winterfield Rd., Midlothian, VA 23113",
            "lat": "37.5535346",
            "lon": "-77.6685934"
        },
        "locations": "Retail",
        "wines": [
            "Foothills",
            "Rosé",
            "Young Wine Chambourcin"
        ]
    },
    {
<<<<<<< Updated upstream
        "id": "1_e3lu_Kqqsj1RnQ6aexM",
=======
        "id": "QF9EVACxF0jAeWyZQB8lA",
>>>>>>> Stashed changes
        "name": "Astor Wines & Spirits",
        "address": {
            "street": "399 Lafayette St, Manhattan, NY 10003",
            "lat": "40.7279823",
            "lon": "-73.9926938"
        },
        "locations": "Retail",
        "wines": [
            "Shenandoah Valley Cabernet Franc",
            "Petit Manseng",
            "Eluvium"
        ]
    },
    {
<<<<<<< Updated upstream
        "id": "nkWLt3_jz1z1PDKaESBtA",
=======
        "id": "V1NWX5USKzObmbtsDuqYU",
>>>>>>> Stashed changes
        "name": "Ellwood Thompson",
        "address": {
            "street": "4 N Thompson St, Richmond, VA 23221",
            "lat": "37.5574421",
            "lon": "-77.4886194"
        },
        "locations": "Retail",
        "wines": [
            "Quaker Run Chardonnay",
            "Petit Manseng",
            "Rosé",
            "Pétillant Naturel White",
            "Shenandoah Valley Cabernet Franc",
            "Eluvium",
            "Foothills",
            "Young Wine Chambourcin"
        ]
    },
    {
<<<<<<< Updated upstream
        "id": "S36LJVaQtjOC7JqXfaypc",
=======
        "id": "ibz8Y82W4uMd336vh9MhR",
>>>>>>> Stashed changes
        "name": "Libbie Market",
        "address": {
            "street": "400 Libbie Ave., Richmond, VA 23226",
            "lat": "37.5746309",
            "lon": "-77.5183971"
        },
        "locations": "Retail",
        "wines": [
            "Eluvium",
            "Rosé",
            "Petit Manseng",
            "Quaker Run Chardonnay",
            "Shenandoah Valley Cabernet Franc"
        ]
    },
    {
<<<<<<< Updated upstream
        "id": "ND5k2VILuXqaHkqAM2a5x",
=======
        "id": "zgKSXECQhCcMDN-0X4UdD",
>>>>>>> Stashed changes
        "name": "Dutch & Co.",
        "address": {
            "street": "400 N. 27th St., Richmond, VA 23223",
            "lat": "37.5316135",
            "lon": "-77.4162141"
        },
        "locations": "Restaurant",
        "wines": [
            "Foothills",
            "Quaker Run Chardonnay",
            "Chardonnay"
        ]
    },
    {
<<<<<<< Updated upstream
        "id": "zDUOiIZE2-uEvlBN6ftJ7",
=======
        "id": "gaBHY4VFJY_kewf5dGBVB",
>>>>>>> Stashed changes
        "name": "Blacksburg Wine Lab",
        "address": {
            "street": "400 Turner St. NW, Blacksburg, VA 24060",
            "lat": "37.2331938",
            "lon": "-80.421742"
        },
        "locations": "Restaurant",
        "wines": [
            "Foothills",
            "Chardonnay"
        ]
    },
    {
<<<<<<< Updated upstream
        "id": "BLQxrA2_JbOiV63zArjp9",
=======
        "id": "K0uMBFhswpaYS-vYx09Hw",
>>>>>>> Stashed changes
        "name": "Commonwealth Club",
        "address": {
            "street": "401 W. Franklin Street, Richmond, VA 23220",
            "lat": "37.5458434",
            "lon": "-77.447656"
        },
        "locations": "Restaurant",
        "wines": [
            "Rosé",
            "RISE"
        ]
    },
    {
<<<<<<< Updated upstream
        "id": "Vlx5jJgpDhFhLcP_ksb3B",
=======
        "id": "CFJMzGj2C0xXY8hSOdKBG",
>>>>>>> Stashed changes
        "name": "Barrel Chest",
        "address": {
            "street": "4035 Electric Rd. #B, Roanoke, VA 24018",
            "lat": "37.2235279",
            "lon": "-79.982868"
        },
        "locations": "Retail",
        "wines": [
            "Chardonnay",
            "Rosé",
            "Foothills"
        ]
    },
    {
<<<<<<< Updated upstream
        "id": "iM5ZZQ00fXqzm3cB8Z2st",
=======
        "id": "-Bk6QiNI0JNxpiAKEPmiX",
>>>>>>> Stashed changes
        "name": "Taste - Ghent",
        "address": {
            "street": "407 W 21st Street, Norfolk, VA 23517",
            "lat": "36.868141",
            "lon": "-76.290231"
        },
        "locations": "Restaurant/Retail",
        "wines": [
            "Five Forks",
            "Eluvium",
            "Rosé"
        ]
    },
    {
<<<<<<< Updated upstream
        "id": "6t1AwA4JMO-0EASEtHTX4",
=======
        "id": "tJKCDBMK93OG0LdiLjEoU",
>>>>>>> Stashed changes
        "name": "Rustico - Ballston",
        "address": {
            "street": "4075 Wilson Blvd., Arlington, VA 22203",
            "lat": "38.8803079",
            "lon": "-77.1085112"
        },
        "locations": "Restaurant",
        "wines": [
            "Rosé"
        ]
    },
    {
<<<<<<< Updated upstream
        "id": "Kon5xeLQunCGzvneqhlZV",
=======
        "id": "6iId-uddKrTeykeDBtqri",
>>>>>>> Stashed changes
        "name": "Taste - Bayville Farms",
        "address": {
            "street": "4097 Shore Drive, Virginia Beach, VA 23455",
            "lat": "36.9057286",
            "lon": "-76.1161963"
        },
        "locations": "Restaurant/Retail",
        "wines": [
            "Petit Manseng",
            "Foothills"
        ]
    },
    {
<<<<<<< Updated upstream
        "id": "oGf6WfTmGda1YYUJh43o1",
=======
        "id": "eRFJwM27LgjVdSr9Btr4k",
>>>>>>> Stashed changes
        "name": "Talk of the Table",
        "address": {
            "street": "410 Peachtree PKWY, Cumming, GA 30041",
            "lat": "34.1535941",
            "lon": "-84.1768731"
        },
        "locations": "Retail",
        "wines": [
            "Rosé",
            "Five Forks"
        ]
    },
    {
<<<<<<< Updated upstream
        "id": "4wW6yeC_SM0B1YDPI0SQh",
=======
        "id": "2iz8h8GWMrvS96qdguxkn",
>>>>>>> Stashed changes
        "name": "Taste - Oceanfront",
        "address": {
            "street": "3603 Pacific Avenue, Virginia Beach, VA 23451",
            "lat": "36.8641917",
            "lon": "-75.9803595"
        },
        "locations": "Restaurant/Retail",
        "wines": [
            "Petit Manseng"
        ]
    },
    {
<<<<<<< Updated upstream
        "id": "jPH1GBDSU6r-7TTf0BUO0",
=======
        "id": "PFzqKTFqDXH12P-gRncNT",
>>>>>>> Stashed changes
        "name": "Feast",
        "address": {
            "street": "416 W Main St Suite H, Charlottesville, VA 22902",
            "lat": "38.0304142",
            "lon": "-78.4872613"
        },
        "locations": "Retail",
        "wines": [
            "Rosé",
            "Foothills"
        ]
    },
    {
<<<<<<< Updated upstream
        "id": "0WHjRv1asiyLMvtPGLVBK",
=======
        "id": "JTgiYnlaPzFWOi94LtWDO",
>>>>>>> Stashed changes
        "name": "Blanca",
        "address": {
            "street": "4117 Granby St Ste A, Norfolk, VA 23504",
            "lat": "36.8846514",
            "lon": "-76.2818304"
        },
        "locations": "Restaurant",
        "wines": [
            "Foothills"
        ]
    },
    {
<<<<<<< Updated upstream
        "id": "ewURS36kjsXSFt7g0VMNb",
=======
        "id": "a2Flkml0D8MJX7oTyd7lI",
>>>>>>> Stashed changes
        "name": "Wine & Country",
        "address": {
            "street": "4282 Ivy Road, Charlottesville, VA 22903",
            "lat": "38.056209",
            "lon": "-78.5953366"
        },
        "locations": "Restaurant/Retail",
        "wines": [
            "Foothills",
            "Rosé",
            "Chardonnay"
        ]
    },
    {
<<<<<<< Updated upstream
        "id": "SIUCokWv1Lz48ZMIVQPb3",
=======
        "id": "uTolle_Jzi023bX5K368n",
>>>>>>> Stashed changes
        "name": "Cavalier Hotel",
        "address": {
            "street": "4200 Atlantic Avenue, Virginia Beach, VA 23451",
            "lat": "36.8692128",
            "lon": "-75.9837519"
        },
        "locations": "Restaurant",
        "wines": [
            "Foothills"
        ]
    },
    {
<<<<<<< Updated upstream
        "id": "tOSsk_8A2w95QYKccQ4pP",
=======
        "id": "tkdOvnC38HbRoapAJ09NO",
>>>>>>> Stashed changes
        "name": "Crystal Palate",
        "address": {
            "street": "4500 Pretty Lake Avenue, Norfolk, VA 23518",
            "lat": "36.925493",
            "lon": "-76.1880817"
        },
        "locations": "Retail",
        "wines": [
            "Chardonnay"
        ]
    },
    {
<<<<<<< Updated upstream
        "id": "2_ThtqwSMetwNtJGoYiZ2",
=======
        "id": "EATEDujqrw6SXUVxBKaCw",
>>>>>>> Stashed changes
        "name": "Arrowine",
        "address": {
            "street": "4508 Lee Hwy, Arlington, VA 22207",
            "lat": "38.8983733",
            "lon": "-77.1183586"
        },
        "locations": "Retail",
        "wines": [
            "Foothills",
            "Rosé",
            "Chardonnay",
            "Shenandoah Valley Cabernet Franc",
            "Young Wine Chambourcin",
            "Eluvium",
            "Petit Manseng"
        ]
    },
    {
<<<<<<< Updated upstream
        "id": "8bVc0wC-kPOiRR30_SVHy",
=======
        "id": "D_wNVAGSJxzHoFUG7pfso",
>>>>>>> Stashed changes
        "name": "Taste - Town Center",
        "address": {
            "street": "4513 Commerce Street, Virgina Beach, VA 23462",
            "lat": "36.8418021",
            "lon": "-76.1345125"
        },
        "locations": "Restaurant/Retail",
        "wines": [
            "Eluvium",
            "Foothills"
        ]
    },
    {
<<<<<<< Updated upstream
        "id": "U7rNS-LNVzU3hH6eUacvG",
=======
        "id": "zB_wmct6ifaq2LplOdJ4-",
>>>>>>> Stashed changes
        "name": "Wine Seller - Williamsburg",
        "address": {
            "street": "4680 Monticello Ave Suite 15, Williamsburg, VA 23188",
            "lat": "37.2719211",
            "lon": "-76.7595155"
        },
        "locations": "Retail",
        "wines": [
            "Rosé",
            "Foothills",
            "Pétillant Naturel White",
            "Petit Manseng",
            "RISE"
        ]
    },
    {
<<<<<<< Updated upstream
        "id": "8MrBxwrbDajBGsKdjpHlf",
=======
        "id": "hL48HJMgBcPSRKRjtL4p_",
>>>>>>> Stashed changes
        "name": "Outpost",
        "address": {
            "street": "4813 Forest Hill Ave., Richmond, VA 23225",
            "lat": "37.5211852",
            "lon": "-77.4878087"
        },
        "locations": "Retail",
        "wines": [
            "Foothills",
            "Rosé",
            "Young Wine Chambourcin",
            "RISE"
        ]
    },
    {
<<<<<<< Updated upstream
        "id": "DpRyf1NR4r2JbYT_XqPZx",
=======
        "id": "wTF_mk865pNKQSzJxXQDn",
>>>>>>> Stashed changes
        "name": "And Sons NYC",
        "address": {
            "street": "447 Rogers Ave, Brooklyn, NY 11225",
            "lat": "40.6616172",
            "lon": "-73.9534096"
        },
        "locations": "Restaurant",
        "wines": [
            "Petit Manseng"
        ]
    },
    {
<<<<<<< Updated upstream
        "id": "OXnLzp7qpCbJTrsOmGAFh",
=======
        "id": "_p8BewldtlQstyD_p9zhb",
>>>>>>> Stashed changes
        "name": "Quirk Hotel - Charlottesville",
        "address": {
            "street": "499 W Main Street, Charlottesville, VA 22902",
            "lat": "38.03121",
            "lon": "-78.48776"
        },
        "locations": "Restaurant",
        "wines": [
            "Foothills",
            "Five Forks"
        ]
    },
    {
<<<<<<< Updated upstream
        "id": "zQtCD_-ahL31GvH0zCyT8",
=======
        "id": "By2yOqbqc7iPd29BYTV49",
>>>>>>> Stashed changes
        "name": "Westside Produce & Provisions",
        "address": {
            "street": "5015 Colley Ave., Norfolk, VA 23508",
            "lat": "36.8890919",
            "lon": "-76.2954496"
        },
        "locations": "Retail",
        "wines": [
            "Five Forks",
            "Chardonnay",
            "Eluvium",
            "Foothills",
            "Shenandoah Valley Cabernet Franc",
            "Rosé"
        ]
    },
    {
<<<<<<< Updated upstream
        "id": "imms9ZPgDveUmVHUXHNFC",
=======
        "id": "STdY6lNraufxk1_iM9pDE",
>>>>>>> Stashed changes
        "name": "Tastings of Charlottesville",
        "address": {
            "street": "502 East Market St, Charlottesville, VA 22902",
            "lat": "38.0303427",
            "lon": "-78.4779714"
        },
        "locations": "Restaurant/Retail",
        "wines": [
            "Foothills"
        ]
    },
    {
<<<<<<< Updated upstream
        "id": "TkdatJSsu3GVqPeUY3GoV",
=======
        "id": "vgyyAacW0Vu6TU0BFcEnr",
>>>>>>> Stashed changes
        "name": "Shagbark",
        "address": {
            "street": "4901 Libbie Mill E Blvd. Ste 175, Richmond, VA 23230",
            "lat": "37.5906296",
            "lon": "-77.4937676"
        },
        "locations": "Restaurant",
        "wines": [
            "Shenandoah Valley Cabernet Franc"
        ]
    },
    {
<<<<<<< Updated upstream
        "id": "gNPTYZ8vZvH9Bhn-01Rfk",
=======
        "id": "rzgeBSFMlFhFQwsyUNqaO",
>>>>>>> Stashed changes
        "name": "Chat's Liquor",
        "address": {
            "street": "503 8th St SE, Washington, DC 20003",
            "lat": "38.8825132",
            "lon": "-76.9952785"
        },
        "locations": "Retail",
        "wines": [
            "Chardonnay"
        ]
    },
    {
<<<<<<< Updated upstream
        "id": "iOeuQ7edl1g4yLW_JdBbP",
=======
        "id": "wJeYBL_txvXXDarjvzbrm",
>>>>>>> Stashed changes
        "name": "Little Red Fox",
        "address": {
            "street": "5035 Connecticut Ave. NW, Washington, DC 20008",
            "lat": "38.9558822",
            "lon": "-77.0699601"
        },
        "locations": "Restaurant/Retail",
        "wines": [
            "Rosé",
            "Eluvium"
        ]
    },
    {
<<<<<<< Updated upstream
        "id": "_AP-6lmuSfPB1dh3iTZ4D",
=======
        "id": "Zl6LVG77_s3KLXrvQdEN3",
>>>>>>> Stashed changes
        "name": "C&O Restaurant",
        "address": {
            "street": "515 E Water St, Charlottesville, VA 22902",
            "lat": "38.0290618",
            "lon": "-78.4782802"
        },
        "locations": "Restaurant",
        "wines": [
            "Foothills"
        ]
    },
    {
<<<<<<< Updated upstream
        "id": "AFXokS9qHJZC5WpJkqORW",
=======
        "id": "SBXSaTAogvdgnXS5TJJtY",
>>>>>>> Stashed changes
        "name": "Paul's Discount Liquor",
        "address": {
            "street": "5205 Wisconsin Ave NW, Washington, DC 20015",
            "lat": "38.9574601",
            "lon": "-77.0837433"
        },
        "locations": "Retail",
        "wines": [
            "Eluvium",
            "Foothills",
            "Petit Manseng"
        ]
    },
    {
<<<<<<< Updated upstream
        "id": "3C0roN982wnjM_2SdotTg",
=======
        "id": "XGHZOxUkHJVdF-Z-Daqqp",
>>>>>>> Stashed changes
        "name": "Amber Ox Kitchen & Brewery",
        "address": {
            "street": "521 Prince George St., Williamsburg, VA 23185",
            "lat": "37.272864",
            "lon": "-76.708414"
        },
        "locations": "Restaurant",
        "wines": [
            "Foothills",
            "Chardonnay"
        ]
    },
    {
<<<<<<< Updated upstream
        "id": "IlFcYAj5Z0IoNBQldyMKt",
=======
        "id": "myYvNJfF7N2Uw32NH--eb",
>>>>>>> Stashed changes
        "name": "Prosperity Kitchen & Pantry",
        "address": {
            "street": "532 Virginia Beach Blvd Ste B, Virginia Beach, VA 23451",
            "lat": "36.8444829",
            "lon": "-75.9806406"
        },
        "locations": "Restaurant",
        "wines": [
            "Foothills",
            "RISE",
            "Eluvium"
        ]
    },
    {
<<<<<<< Updated upstream
        "id": "nPISfiLptXqBo8TcUJ97f",
=======
        "id": "5xBb_i9Hlz7ywZYxON41g",
>>>>>>> Stashed changes
        "name": "Savannah Wine Cellar",
        "address": {
            "street": "5500 Abercorn St, Savannah, GA 31405",
            "lat": "32.0229174",
            "lon": "-81.109395"
        },
        "locations": "Restaurant/Retail",
        "wines": [
            "Foothills",
            "RISE",
            "Quaker Run Chardonnay",
            "Eluvium"
        ]
    },
    {
<<<<<<< Updated upstream
        "id": "DVKvhjTGzDH_tAmah8Ni1",
=======
        "id": "Iz7TqcnC95YrKjSpaNQYH",
>>>>>>> Stashed changes
        "name": "Clay Restaurant",
        "address": {
            "street": "553 Manhattan Ave , Manhattan, NY 10027",
            "lat": "40.809486",
            "lon": "-73.9538229"
        },
        "locations": "Restaurant",
        "wines": [
            "Shenandoah Valley Cabernet Franc",
            "Chardonnay"
        ]
    },
    {
<<<<<<< Updated upstream
        "id": "LYjWPHs7z2KGWLKC35ics",
=======
        "id": "p5lNiub4f1gjyJWEcKV3n",
>>>>>>> Stashed changes
        "name": "Taste - Westhampton",
        "address": {
            "street": "5706 Grove Ave Ste 100, Richmond, VA 23226",
            "lat": "37.5732828",
            "lon": "-77.5173888"
        },
        "locations": "Restaurant/Retail",
        "wines": [
            "Chardonnay",
            "Eluvium",
            "Shenandoah Valley Cabernet Franc",
            "Rosé"
        ]
    },
    {
<<<<<<< Updated upstream
        "id": "pV_gc3RJ87NTOLUMVgdiC",
=======
        "id": "ARaoWKmj0PgkztfRf_mQv",
>>>>>>> Stashed changes
        "name": "J Emerson",
        "address": {
            "street": "5716 Grove Ave, Richmond, VA 23226",
            "lat": "37.5733362",
            "lon": "-77.5180274"
        },
        "locations": "Retail",
        "wines": [
            "Rosé",
            "Pétillant Naturel White",
            "Foothills",
            "Chardonnay",
            "Eluvium"
        ]
    },
    {
<<<<<<< Updated upstream
        "id": "kmLggbAx9qiAx--bvZuKL",
=======
        "id": "6JUnTU1nvBkdwTIMfHryO",
>>>>>>> Stashed changes
        "name": "Barrel Thief",
        "address": {
            "street": "5805 Patterson Ave, Richmond, VA 23226",
            "lat": "37.2235279",
            "lon": "-79.982868"
        },
        "locations": "Restaurant/Retail",
        "wines": [
            "Foothills",
            "Rosé",
            "Chardonnay"
        ]
    },
    {
<<<<<<< Updated upstream
        "id": "Irg7H4fMW3Z754CKoPFN-",
=======
        "id": "jQJPWR0lnqYS_RG3dSp-P",
>>>>>>> Stashed changes
        "name": "Buck's Fishing",
        "address": {
            "street": "5031 Connecticut Ave NW, Washington, DC 20008",
            "lat": "38.955832",
            "lon": "-77.0698701"
        },
        "locations": "Restaurant",
        "wines": [
            "Rosé"
        ]
    },
    {
<<<<<<< Updated upstream
        "id": "ON2fStvyLDyHOeveBwwXJ",
=======
        "id": "ShuC5nsWkvDQhXm9K9rYF",
>>>>>>> Stashed changes
        "name": "Vyne Yard",
        "address": {
            "street": "594 Rogers Ave, Brooklyn, NY 11225",
            "lat": "40.6571942",
            "lon": "-73.9534567"
        },
        "locations": "Retail",
        "wines": [
            "Rosé"
        ]
    },
    {
<<<<<<< Updated upstream
        "id": "hNGch5sxms86_qMMb1Jwq",
=======
        "id": "exg6tG4LnL3uEfnvGOVI9",
>>>>>>> Stashed changes
        "name": "Balducci's - Alexandria",
        "address": {
            "street": "600 Franklin St, Alexandria, VA 22314",
            "lat": "38.7978102",
            "lon": "-77.0479011"
        },
        "locations": "Retail",
        "wines": [
            "Chardonnay",
            "Rosé",
            "Shenandoah Valley Cabernet Franc",
            "Young Wine Chambourcin",
            "RISE"
        ]
    },
    {
<<<<<<< Updated upstream
        "id": "51vMqQNPLtUrjYtZ_bUGA",
=======
        "id": "rwG1nhN_pms98w25F1VGn",
>>>>>>> Stashed changes
        "name": "Whole Foods - H Street",
        "address": {
            "street": "600-A H Street, NE, Washington, DC 20002",
            "lat": "38.9005142",
            "lon": "-76.9976267"
        },
        "locations": "Restaurant/Retail",
        "wines": [
            "Foothills",
            "Rosé"
        ]
    },
    {
<<<<<<< Updated upstream
        "id": "3z8UxsMw9rXw2OMvOIdb9",
=======
        "id": "dgmjsOfqaCsP6F-ia4afm",
>>>>>>> Stashed changes
        "name": "Roosevelt",
        "address": {
            "street": "623 N. 25th St., Richmond, VA 23223",
            "lat": "37.534897",
            "lon": "-77.4154189"
        },
        "locations": "Restaurant",
        "wines": [
            "Foothills",
            "Five Forks"
        ]
    },
    {
<<<<<<< Updated upstream
        "id": "yVO5AHvplPsfsQwofXBkE",
=======
        "id": "fzBQaAF26tZdhixAwMgSa",
>>>>>>> Stashed changes
        "name": "Wardman Wines",
        "address": {
            "street": "625 Monroe St. NE, Ste.#A7, Washington, DC 20007",
            "lat": "38.9318318",
            "lon": "-76.9971246"
        },
        "locations": "Retail",
        "wines": [
            "Rosé",
            "Pétillant Naturel Red"
        ]
    },
    {
<<<<<<< Updated upstream
        "id": "LjrtS3up2TuqLHkoiTV3H",
=======
        "id": "1qaPaFvYpW2gpST72EDLH",
>>>>>>> Stashed changes
        "name": "Grape D'Vine",
        "address": {
            "street": "6 Depot Square, Sparkill, NY 10976",
            "lat": "41.0300375",
            "lon": "-73.928657"
        },
        "locations": "Retail",
        "wines": [
            "Foothills"
        ]
    },
    {
<<<<<<< Updated upstream
        "id": "OjdU-Ih1UWbXdXcfOc5Ct",
=======
        "id": "AkV6FcBBmkIooVIdY87MH",
>>>>>>> Stashed changes
        "name": "High Street on Hudson",
        "address": {
            "street": "637 Hudson St, Manhattan, NY 10014",
            "lat": "40.7388972",
            "lon": "-74.0057401"
        },
        "locations": "Restaurant",
        "wines": [
            "Young Wine Chambourcin",
            "Foothills"
        ]
    },
    {
<<<<<<< Updated upstream
        "id": "8zRx_V38knWO-tJkV1D4G",
=======
        "id": "lVzq6-s9IHKF25SSuxeCQ",
>>>>>>> Stashed changes
        "name": "Olmsted",
        "address": {
            "street": "659 Vanderbilt Ave, Brooklyn, NY 11238",
            "lat": "40.677064",
            "lon": "-73.9687578"
        },
        "locations": "Restaurant",
        "wines": [
            "Foothills",
            "Chardonnay"
        ]
    },
    {
<<<<<<< Updated upstream
        "id": "IWvwlULy4D5mAZ3fA15Pl",
=======
        "id": "r1ON8VH9u4po3mTn4Mtmw",
>>>>>>> Stashed changes
        "name": "Hazel Jane's",
        "address": {
            "street": "670 Dekalb Ave, Atlanta, GA 30307",
            "lat": "33.7535491",
            "lon": "-84.3655673"
        },
        "locations": "Restaurant/Retail",
        "wines": [
            "Petit Manseng",
            "Rosé",
            "Shenandoah Valley Cabernet Franc"
        ]
    },
    {
<<<<<<< Updated upstream
        "id": "ULjfVjz3crWSBchJ6tP-O",
=======
        "id": "81pcueyN0e6ZwsSYBXen4",
>>>>>>> Stashed changes
        "name": "Greenwood",
        "address": {
            "street": "6701 Rockfish Gap TPK, Crozet, VA 22932",
            "lat": "38.0413202",
            "lon": "-78.732343"
        },
        "locations": "Retail",
        "wines": [
            "Pétillant Naturel White",
            "Young Wine Chambourcin",
            "Rosé",
            "Chardonnay",
            "Quaker Run Chardonnay",
            "Foothills",
            "Shenandoah Valley Cabernet Franc"
        ]
    },
    {
<<<<<<< Updated upstream
        "id": "H81KolyjNEYh-imAgzcKY",
=======
        "id": "LZjTRLjA1qr44FCij6JAs",
>>>>>>> Stashed changes
        "name": "Organic Butcher of McLean",
        "address": {
            "street": "6712 Old Dominion Drive, McLean, VA 22101",
            "lat": "38.9335412",
            "lon": "-77.1758584"
        },
        "locations": "Retail",
        "wines": [
            "Shenandoah Valley Cabernet Franc",
            "RISE",
            "Foothills",
            "Eluvium",
            "Quaker Run Chardonnay",
            "Petit Manseng",
            "Rosé"
        ]
    },
    {
<<<<<<< Updated upstream
        "id": "lqVGCw0YJxJPvKFwiEABi",
=======
        "id": "xfPbJzBLiuY71GnldO9xk",
>>>>>>> Stashed changes
        "name": "Bon Ton",
        "address": {
            "street": "674 Myrtle Street NE , ATLANTA, GA 30308",
            "lat": "33.7729895",
            "lon": "-84.3804087"
        },
        "locations": "Restaurant",
        "wines": [
            "Rosé"
        ]
    },
    {
<<<<<<< Updated upstream
        "id": "sxd4G3UEMmcfzXr8efDRo",
=======
        "id": "gTO1gkG7g21vnHtkCZl7w",
>>>>>>> Stashed changes
        "name": "Ashby Inn",
        "address": {
            "street": "692 Federal St, Paris, VA 20130",
            "lat": "39.0045423",
            "lon": "-77.951727"
        },
        "locations": "Restaurant",
        "wines": [
            "Petit Manseng",
            "Eluvium"
        ]
    },
    {
<<<<<<< Updated upstream
        "id": "MgTI3t9kY8imIVacdKluk",
=======
        "id": "2dmYRBrySaLrixSZw8KUx",
>>>>>>> Stashed changes
        "name": "Press 626",
        "address": {
            "street": "626 West Olney Rd., Norfolk, VA 23507",
            "lat": "36.8605378",
            "lon": "-76.2996588"
        },
        "locations": "Restaurant/Retail",
        "wines": [
            "Rosé"
        ]
    },
    {
<<<<<<< Updated upstream
        "id": "Nv9opzNvQp0k-PNe9t1C6",
=======
        "id": "pgY2NbcBwKX2PiqgQfEDL",
>>>>>>> Stashed changes
        "name": "Rose's at Home",
        "address": {
            "street": "731 8th Street SE, Washington, DC 20003",
            "lat": "38.8801665",
            "lon": "-76.9953797"
        },
        "locations": "Restaurant",
        "wines": [
            "Foothills"
        ]
    },
    {
<<<<<<< Updated upstream
        "id": "r141UWnB5iIHufZAMP0vP",
=======
        "id": "YpbC5FgknJH9paSxY_NHW",
>>>>>>> Stashed changes
        "name": "Wine Cellar- Staunton",
        "address": {
            "street": "8 Byers St., Staunton, VA 24401",
            "lat": "38.1477303",
            "lon": "-79.0727371"
        },
        "locations": "Retail",
        "wines": [
            "Shenandoah Valley Cabernet Franc",
            "Foothills",
            "Chardonnay",
            "Eluvium"
        ]
    },
    {
<<<<<<< Updated upstream
        "id": "RtL_jZ-UAciDB_DwTa_tk",
=======
        "id": "6u419e0gAqQzGwyIjepGt",
>>>>>>> Stashed changes
        "name": "Whole Foods - Tysons",
        "address": {
            "street": "7511 Leesburg Pike, Falls Church, VA 22043",
            "lat": "38.903442",
            "lon": "-77.2044823"
        },
        "locations": "Restaurant/Retail",
        "wines": [
            "Foothills"
        ]
    },
    {
<<<<<<< Updated upstream
        "id": "3hAppgdjLFvkHyG-gWCfc",
=======
        "id": "WXRxygEQUcoz9LKWuwrT-",
>>>>>>> Stashed changes
        "name": "Heirloom Cafe",
        "address": {
            "street": "815 N Chase St, Athens, GA 30601",
            "lat": "33.9663133",
            "lon": "-83.3931064"
        },
        "locations": "Restaurant",
        "wines": [
            "Rosé",
            "Petit Manseng"
        ]
    },
    {
<<<<<<< Updated upstream
        "id": "xX8y8UCs4oo1ZVRn___-b",
=======
        "id": "vAixOM2_L8AKMRERGP1n8",
>>>>>>> Stashed changes
        "name": "Heirloom Café",
        "address": {
            "street": "815 N Chase St, Athens, GA 30601",
            "lat": "33.9663133",
            "lon": "-83.3931064"
        },
        "locations": "Restaurant/Retail",
        "wines": [
            "Rosé"
        ]
    },
    {
<<<<<<< Updated upstream
        "id": "piH_fIgS6iIf-DRdyTTJp",
=======
        "id": "X7xb3EgrVTSyyYkWCxK_U",
>>>>>>> Stashed changes
        "name": "Local, The",
        "address": {
            "street": "824 Hinton Ave, Charlottesville, VA 22901",
            "lat": "38.0244641",
            "lon": "-78.4755275"
        },
        "locations": "Restaurant",
        "wines": [
            "Shenandoah Valley Cabernet Franc"
        ]
    },
    {
<<<<<<< Updated upstream
        "id": "lnKRJBdKW4Dif90BIcoYh",
=======
        "id": "OHoKkqXM6tyQuzhICdOkC",
>>>>>>> Stashed changes
        "name": "Hill of Content",
        "address": {
            "street": "833 Tinsley Dr,, Charlottesville, VA 22732",
            "lat": "38.3228389",
            "lon": "-78.1944651"
        },
        "locations": "Restaurant",
        "wines": [
            "Chardonnay",
            "Shenandoah Valley Cabernet Franc"
        ]
    },
    {
<<<<<<< Updated upstream
        "id": "bfEN2aZxE8fjoqtVW0cB9",
=======
        "id": "CeYAUrDMAaUWa0JLTGlB5",
>>>>>>> Stashed changes
        "name": "Field & Main",
        "address": {
            "street": "8369 W. Main St., Marshall, VA 20115",
            "lat": "38.8647631",
            "lon": "-77.8574303"
        },
        "locations": "Restaurant/Retail",
        "wines": [
            "Rosé",
            "Foothills"
        ]
    },
    {
<<<<<<< Updated upstream
        "id": "5o2nU7ZchoaXOu-YdBQK1",
=======
        "id": "HFsH5Wa_OQBKQjN_GplLc",
>>>>>>> Stashed changes
        "name": "Whole Foods - Springfield",
        "address": {
            "street": "8402 Old Keene Mill Road, Springfield, VA 22152",
            "lat": "38.7796348",
            "lon": "-77.2343247"
        },
        "locations": "Restaurant/Retail",
        "wines": [
            "Foothills"
        ]
    },
    {
<<<<<<< Updated upstream
        "id": "cCOk7_wzZvTdvDwFP0vHz",
=======
        "id": "qBsah-xFUMycaMCYpa_ta",
>>>>>>> Stashed changes
        "name": "Enologo",
        "address": {
            "street": "857 9th Ave, Manhattan, NY 10019",
            "lat": "40.7671347",
            "lon": "-73.986653"
        },
        "locations": "Restaurant",
        "wines": [
            "Foothills"
        ]
    },
    {
<<<<<<< Updated upstream
        "id": "mUzNJojlJrsRla-F2DEon",
=======
        "id": "GvGM-ba8itdIoIwrvHnvO",
>>>>>>> Stashed changes
        "name": "Parc de Ville",
        "address": {
            "street": "8296 Glass Alley, Ste 110, Fairfax, VA 22031",
            "lat": "38.8736703",
            "lon": "-77.2304951"
        },
        "locations": "Restaurant",
        "wines": [
            "Young Wine Chambourcin"
        ]
    },
    {
<<<<<<< Updated upstream
        "id": "3JYZgpyXvF2t9MoHwp-QU",
=======
        "id": "AhZ-VsDJvZmqnXZ5qDiLY",
>>>>>>> Stashed changes
        "name": "Washington Street Purveyors",
        "address": {
            "street": "9 E Washington St, Lexington, VA 24450",
            "lat": "37.7845823",
            "lon": "-79.441534"
        },
        "locations": "Retail",
        "wines": [
            "Chardonnay"
        ]
    },
    {
<<<<<<< Updated upstream
        "id": "Zp0KicuApL_q8EBdzX2pW",
=======
        "id": "s2zBNTVotDbc8SLF2jopv",
>>>>>>> Stashed changes
        "name": "Olivino",
        "address": {
            "street": "905 Fulton Street , Brooklyn, NY 11238",
            "lat": "40.6837237",
            "lon": "-73.9671635"
        },
        "locations": "Retail",
        "wines": [
            "Rosé",
            "Chardonnay"
        ]
    },
    {
<<<<<<< Updated upstream
        "id": "og-mNZSTyyQIqKyFvHsdb",
=======
        "id": "roHAyj2E03Pinz9t6R2JD",
>>>>>>> Stashed changes
        "name": "Riggs Hotel DC",
        "address": {
            "street": "900 F St NW, Washington, DC 20004",
            "lat": "38.8971417",
            "lon": "-77.0243762"
        },
        "locations": "Restaurant",
        "wines": [
            "Five Forks"
        ]
    },
    {
<<<<<<< Updated upstream
        "id": "h6jDYutOj42FI_I74LscE",
=======
        "id": "7WrWKvb5K7xUaVEhdiY-n",
>>>>>>> Stashed changes
        "name": "Succotash",
        "address": {
            "street": "915 F St. NW, Washington, DC 20004",
            "lat": "38.897644",
            "lon": "-77.02474"
        },
        "locations": "Restaurant",
        "wines": [
            "Foothills"
        ]
    },
    {
<<<<<<< Updated upstream
        "id": "CKsQDeFoIwpqSgFNv4KVx",
=======
        "id": "T_zgOR-pO2-ZR4Dk_Srza",
>>>>>>> Stashed changes
        "name": "Mona Lisa",
        "address": {
            "street": "921 Preston Ave, Charlottesville, VA 22903",
            "lat": "38.038434",
            "lon": "-78.489901"
        },
        "locations": "Retail",
        "wines": [
            "Young Wine Chambourcin",
            "Rosé",
            "Foothills",
            "Shenandoah Valley Cabernet Franc",
            "Petit Manseng",
            "Eluvium"
        ]
    },
    {
<<<<<<< Updated upstream
        "id": "TMDZaHkmNz1UH8sF1HqX_",
=======
        "id": "b1Ugwo2iVa_vy8_EnleKj",
>>>>>>> Stashed changes
        "name": "Public Square",
        "address": {
            "street": "92 N Public Square, Jefferson, GA 30549",
            "lat": "34.1178855",
            "lon": "-83.5729874"
        },
        "locations": "Restaurant/Retail",
        "wines": [
            "Foothills"
        ]
    },
    {
<<<<<<< Updated upstream
        "id": "SJSIIT1O0uCQQOCRWZWaV",
=======
        "id": "GAwjhHdfEPwku-f9blHf4",
>>>>>>> Stashed changes
        "name": "Racines",
        "address": {
            "street": "94 Chambers St, Manhattan, NY 10007",
            "lat": "40.7145903",
            "lon": "-74.0075468"
        },
        "locations": "Restaurant",
        "wines": [
            "Chardonnay"
        ]
    },
    {
<<<<<<< Updated upstream
        "id": "veMqf403O-s_70_JMbO-M",
=======
        "id": "44IHbDeKzY_-HMFR1hc_6",
>>>>>>> Stashed changes
        "name": "Please Bring Chips",
        "address": {
            "street": "951 V St. NE, Washington, DC 20018",
            "lat": "38.9171218",
            "lon": "-76.9916225"
        },
        "locations": "Restaurant",
        "wines": [
            "Shenandoah Valley Cabernet Franc"
        ]
    },
    {
<<<<<<< Updated upstream
        "id": "L-6O8KY3CxciznvJvN2jz",
=======
        "id": "m218EqfECsSSajQTqOFW-",
>>>>>>> Stashed changes
        "name": "Newtown Baking",
        "address": {
            "street": "960 W Beverlely Street, Staunton, VA 244001",
            "lat": "38.1496916",
            "lon": "-79.0738108"
        },
        "locations": "Retail",
        "wines": [
            "Foothills"
        ]
    },
    {
<<<<<<< Updated upstream
        "id": "qx-oA1W81tBwbjBxs9Fty",
=======
        "id": "vaZ1A94EHwx6o785_bRUW",
>>>>>>> Stashed changes
        "name": "Hot Cakes",
        "address": {
            "street": "Barracks Road Shopping Center, Charlottesville, VA 22903",
            "lat": "38.0528154",
            "lon": "-78.5012568"
        },
        "locations": "Retail",
        "wines": [
            "Rosé"
        ]
    },
    {
<<<<<<< Updated upstream
        "id": "cVpa8nP3PBkCz2HxfsOT3",
=======
        "id": "aQnJVweG6gpTolkad26W2",
>>>>>>> Stashed changes
        "name": "Montgomery Co. Dept. of Liquor Control",
        "address": {
            "street": "Division of Financial, Gaithersburg, MD 20878",
            "lat": "39.139876",
            "lon": "-77.1926495"
        },
        "locations": "Retail",
        "wines": [
            "Rosé"
        ]
    },
    {
<<<<<<< Updated upstream
        "id": "my50-6XVa53finsdKu5U-",
=======
        "id": "WuPzZzjmfmDxSpWH3uD-q",
>>>>>>> Stashed changes
        "name": "Fat Canary",
        "address": {
            "street": "The Cheese Shop of VA, Inc., Williamsburg, VA 23185",
            "lat": "37.2706994",
            "lon": "-76.7061859"
        },
        "locations": "Restaurant",
        "wines": [
            "Foothills",
            "Rosé",
            "Eluvium",
            "Shenandoah Valley Cabernet Franc",
            "Pétillant Naturel Red",
            "Young Wine Chambourcin"
        ]
    },
    {
<<<<<<< Updated upstream
        "id": "L4FNAHU5eVFYNAO9PXhd6",
=======
        "id": "LPgQ2ThBZS1uTzzovsyie",
>>>>>>> Stashed changes
        "name": "Thornton River Grille",
        "address": {
            "street": "Thornton River Grille, Sperryville, VA 22740",
            "lat": "38.6525114",
            "lon": "-78.2667447"
        },
        "locations": "Restaurant",
        "wines": [
            "Rosé",
            "Chardonnay",
            "Petit Manseng",
            "Foothills"
        ]
    }
]