[
    {
        "id": "ZzG4rK4evlkT6wqATdvp-",
        "name": "313 Franklin",
        "address": {
            "street": "313 Franklin Street, South Hill, VA 23970",
            "lat": "36.726272",
            "lon": "-78.1245498"
        },
        "locations": "Restaurant/Retail",
        "wines": [
            "Shenandoah Valley Cabernet Franc",
            "Chardonnay",
            "Foothills",
            "Petit Manseng"
        ]
    },
    {
        "id": "iEsMqk67IayDuqzaFfRTa",
        "name": "Alewife",
        "address": {
            "street": "3120 E Marshall St., Richmond, VA 23223",
            "lat": "37.5288799",
            "lon": "-77.4116006"
        },
        "locations": "Restaurant",
        "wines": [
            "Young Wine Chambourcin",
            "Pétillant Naturel Red",
            "Pétillant Naturel White"
        ]
    },
    {
        "id": "pKwiLwXDUz562suI2GKZM",
        "name": "Alley Light",
        "address": {
            "street": "108 2nd St. SW, Charlottesville, VA 22902",
            "lat": "38.0305995",
            "lon": "-78.482276"
        },
        "locations": "Restaurant",
        "wines": [
            "Shenandoah Valley Cabernet Franc",
            "RISE"
        ]
    },
    {
        "id": "qs50HXUADla28ghvxXcwl",
        "name": "Amber Ox Kitchen & Brewery",
        "address": {
            "street": "521 Prince George St., Williamsburg, VA 23185",
            "lat": "37.272864",
            "lon": "-76.708414"
        },
        "locations": "Restaurant",
        "wines": [
            "Chardonnay",
            "Foothills",
            "Five Forks"
        ]
    },
    {
        "id": "nk9hwzpqqa2FrW-V6vveV",
        "name": "Ashby Inn",
        "address": {
            "street": "692 Federal St, Paris, VA 20130",
            "lat": "39.0045423",
            "lon": "-77.951727"
        },
        "locations": "Restaurant",
        "wines": [
            "Eluvium",
            "Petit Manseng"
        ]
    },
    {
        "id": "bPRTu5l1b1Y_CjjAp88_o",
        "name": "Astor Wines & Spirits",
        "address": {
            "street": "399 Lafayette St, Manhattan, NY 10003",
            "lat": "40.7279823",
            "lon": "-73.9926938"
        },
        "locations": "Retail",
        "wines": [
            "Eluvium",
            "Petit Manseng",
            "Shenandoah Valley Cabernet Franc"
        ]
    },
    {
        "id": "fWagWOO52g9gvnECPkWns",
        "name": "Barrel Thief",
        "address": {
            "street": "5805 Patterson Ave, Richmond, VA 23226",
            "lat": "37.2235279",
            "lon": "-79.982868"
        },
        "locations": "Restaurant/Retail",
        "wines": [
            "Foothills",
            "Rosé",
            "Pétillant Naturel White",
            "Petit Manseng"
        ]
    },
    {
        "id": "c2rMCq7UusuxWDluFHof6",
        "name": "A Rake's Progress",
        "address": {
            "street": "1773 Euclid St NW, Washington, DC 20009",
            "lat": "38.9230686",
            "lon": "-77.0414415"
        },
        "locations": "Restaurant",
        "wines": [
            "Shenandoah Valley Cabernet Franc"
        ]
    },
    {
        "id": "GCDUPEbx5dPI5HmJntFVu",
        "name": "Beer Run",
        "address": {
            "street": "156 Carlton Rd Ste 203, Charlottesville, VA 22902",
            "lat": "38.0246361",
            "lon": "-78.468401"
        },
        "locations": "Restaurant/Retail",
        "wines": [
            "Shenandoah Valley Cabernet Franc",
            "Young Wine"
        ]
    },
    {
        "id": "SW2TvGqn1SrNXzWbAx2Ey",
        "name": "Bon Ton",
        "address": {
            "street": "674 Myrtle Street NE , ATLANTA, GA 30308",
            "lat": "33.7729895",
            "lon": "-84.3804087"
        },
        "locations": "Restaurant",
        "wines": [
            "Rosé"
        ]
    },
    {
        "id": "64d-5JsemLndenePTludB",
        "name": "C&O Restaurant",
        "address": {
            "street": "515 E Water St, Charlottesville, VA 22902",
            "lat": "38.0290618",
            "lon": "-78.4782802"
        },
        "locations": "Restaurant",
        "wines": [
            "Foothills"
        ]
    },
    {
        "id": "Yh87Ibca-jg8Me4WWxfnI",
        "name": "Brooklyn Wine Exchange",
        "address": {
            "street": "138 Court Street, Brooklyn, NY 11201",
            "lat": "40.6893227",
            "lon": "-73.992801"
        },
        "locations": "Retail",
        "wines": [
            "Five Forks"
        ]
    },
    {
        "id": "-CB5F7nZ11QvyBeMZMEyw",
        "name": "Clay Restaurant",
        "address": {
            "street": "553 Manhattan Ave , Manhattan, NY 10027",
            "lat": "40.809486",
            "lon": "-73.9538229"
        },
        "locations": "Restaurant",
        "wines": [
            "Chardonnay",
            "Shenandoah Valley Cabernet Franc"
        ]
    },
    {
        "id": "cvnpagO9OAJBOPtcIAY2V",
        "name": "Cavalier Hotel",
        "address": {
            "street": "4200 Atlantic Avenue, Virginia Beach, VA 23451",
            "lat": "36.8692128",
            "lon": "-75.9837519"
        },
        "locations": "Restaurant",
        "wines": [
            "Foothills"
        ]
    },
    {
        "id": "GAwoqXPvuQL0uD_I0_GlM",
        "name": "Clementine Cafe",
        "address": {
            "street": "153 S Main St, Harrisonburg, VA 22801",
            "lat": "38.4478062",
            "lon": "-78.8692932"
        },
        "locations": "Restaurant",
        "wines": [
            "Chardonnay",
            "Eluvium"
        ]
    },
    {
        "id": "rEykscN0BWNJsHZba3bkL",
        "name": "Department of Beer & Wine",
        "address": {
            "street": "2724 Richmond Hwy, Alexandria, VA 22301",
            "lat": "38.830645",
            "lon": "-77.051175"
        },
        "locations": "Retail",
        "wines": [
            "Foothills",
            "Rosé",
            "Five Forks",
            "Petit Manseng"
        ]
    },
    {
        "id": "TwRCzuiNhqq6bw9V3Izr8",
        "name": "Dominion Wine and Beer",
        "address": {
            "street": "107 Rowell Ct., Falls Church, VA 22046",
            "lat": "38.8897048",
            "lon": "-77.183834"
        },
        "locations": "Restaurant/Retail",
        "wines": [
            "Chardonnay",
            "Petit Manseng",
            "Rosé",
            "Foothills",
            "Five Forks"
        ]
    },
    {
        "id": "UP_gHOYUR7L-VA21NwunM",
        "name": "Downtown Grille",
        "address": {
            "street": "201 West Main Street, Charlottesville, VA 22902",
            "lat": "38.0312386",
            "lon": "-78.4823426"
        },
        "locations": "Restaurant",
        "wines": [
            "Chardonnay",
            "Eluvium",
            "RISE"
        ]
    },
    {
        "id": "Vj6bVrJfycy6em9A_3-7c",
        "name": "Dutch & Co.",
        "address": {
            "street": "400 N. 27th St., Richmond, VA 23223",
            "lat": "37.5316135",
            "lon": "-77.4162141"
        },
        "locations": "Restaurant",
        "wines": [
            "Chardonnay",
            "Quaker Run Chardonnay",
            "Foothills"
        ]
    },
    {
        "id": "5gPArK4Dx2rnrLrHF8yQl",
        "name": "Dabney",
        "address": {
            "street": "122 Blagden Alley NW, Washington, DC 20009",
            "lat": "38.9062837",
            "lon": "-77.0246047"
        },
        "locations": "Restaurant",
        "wines": [
            "Eluvium"
        ]
    },
    {
        "id": "vAVE7cDmuiDvP_RFc5fs2",
        "name": "Enologo",
        "address": {
            "street": "857 9th Ave, Manhattan, NY 10019",
            "lat": "40.7671347",
            "lon": "-73.986653"
        },
        "locations": "Restaurant",
        "wines": [
            "Foothills"
        ]
    },
    {
        "id": "PDWso65sxKaY5-2itQO51",
        "name": "Fat Canary",
        "address": {
            "street": "The Cheese Shop of VA, Inc., Williamsburg, VA 23185",
            "lat": "37.2706994",
            "lon": "-76.7061859"
        },
        "locations": "Restaurant",
        "wines": [
            "Eluvium",
            "Foothills",
            "Shenandoah Valley Cabernet Franc",
            "Rosé",
            "Five Forks",
            "Pétillant Naturel White"
        ]
    },
    {
        "id": "LdwIg0awcXNFZrBlyXSPl",
        "name": "Essex Pearl",
        "address": {
            "street": "115 Delancey Street, Manhattan, NY 10002",
            "lat": "40.7182566",
            "lon": "-73.9881462"
        },
        "locations": "Restaurant",
        "wines": [
            "Five Forks",
            "Petit Manseng"
        ]
    },
    {
        "id": "N4ERz8tujAnnitAacrr_8",
        "name": "Feast",
        "address": {
            "street": "416 W Main St Suite H, Charlottesville, VA 22902",
            "lat": "38.0304142",
            "lon": "-78.4872613"
        },
        "locations": "Retail",
        "wines": [
            "Foothills",
            "Rosé"
        ]
    },
    {
        "id": "S1DoJtFBAJF-2KTdNCTJg",
        "name": "Foods of All Nations",
        "address": {
            "street": "2121 Ivy Rd, Charlottesville, VA 22903",
            "lat": "38.0432978",
            "lon": "-78.5119067"
        },
        "locations": "Retail",
        "wines": [
            "Eluvium",
            "Foothills",
            "Petit Manseng",
            "Shenandoah Valley Cabernet Franc",
            "Chardonnay",
            "Rosé",
            "Pétillant Naturel White",
            "Young Wine",
            "RISE"
        ]
    },
    {
        "id": "HcMQYqfmD1angJSHPXc0-",
        "name": "Field & Main",
        "address": {
            "street": "8369 W. Main St., Marshall, VA 20115",
            "lat": "38.8647631",
            "lon": "-77.8574303"
        },
        "locations": "Restaurant/Retail",
        "wines": [
            "Rosé",
            "Shenandoah Valley Cabernet Franc"
        ]
    },
    {
        "id": "Cj5J6DiUy8amC-CX-AHSW",
        "name": "Friendly City Food Co-op",
        "address": {
            "street": "150 E Wolfe St, Harrisonburg, VA 22802",
            "lat": "38.4516609",
            "lon": "-78.8665291"
        },
        "locations": "Retail",
        "wines": [
            "Foothills",
            "Rosé",
            "Pétillant Naturel White",
            "Petit Manseng",
            "Young Wine",
            "RISE"
        ]
    },
    {
        "id": "2UXUwz611UaAkVhrPG1qX",
        "name": "Glen's Garden Market",
        "address": {
            "street": "2001 S St. NW, Washington, DC 20009",
            "lat": "38.9143274",
            "lon": "-77.0451575"
        },
        "locations": "Restaurant/Retail",
        "wines": [
            "Foothills",
            "Shenandoah Valley Cabernet Franc",
            "Rosé",
            "Pétillant Naturel White"
        ]
    },
    {
        "id": "C7eyQj-Wkr3FgBk3Enkpd",
        "name": "Greenwood",
        "address": {
            "street": "6701 Rockfish Gap TPK, Crozet, VA 22932",
            "lat": "38.0413202",
            "lon": "-78.732343"
        },
        "locations": "Retail",
        "wines": [
            "Chardonnay",
            "Foothills",
            "Quaker Run Chardonnay",
            "Rosé",
            "Pétillant Naturel White",
            "Five Forks",
            "Young Wine",
            "RISE"
        ]
    },
    {
        "id": "LQQpi-cX6CPWkt7PzxGJA",
        "name": "Fortunato",
        "address": {
            "street": "301 1st Street SW #300, Roanoke, VA 24011",
            "lat": "37.2710853",
            "lon": "-79.9427864"
        },
        "locations": "Restaurant",
        "wines": [
            "Foothills"
        ]
    },
    {
        "id": "dmPMSI8VgzqsnyjWw4tP8",
        "name": "Heirloom Cafe",
        "address": {
            "street": "815 N CHASE ST, ATHENS, GA 30601",
            "lat": "33.9663133",
            "lon": "-83.3931064"
        },
        "locations": "Restaurant",
        "wines": [
            "Petit Manseng",
            "Rosé"
        ]
    },
    {
        "id": "SIk8XdEMZqWgxE2rGuJI4",
        "name": "Hill of Content",
        "address": {
            "street": "833 Tinsley Dr,, Charlottesville, VA 22732",
            "lat": "38.3228389",
            "lon": "-78.1944651"
        },
        "locations": "Restaurant",
        "wines": [
            "Chardonnay",
            "Shenandoah Valley Cabernet Franc"
        ]
    },
    {
        "id": "VdIwZybH5WErbN-B_nEhb",
        "name": "Hazel Jane's",
        "address": {
            "street": "670 DEKALB AVE, ATLANTA, GA 30307",
            "lat": "33.7535491",
            "lon": "-84.3655673"
        },
        "locations": "Restaurant/Retail",
        "wines": [
            "Rosé",
            "Petit Manseng",
            "Five Forks"
        ]
    },
    {
        "id": "_eNNlummbJL5-8ujzDnrw",
        "name": "J Emerson",
        "address": {
            "street": "5716 Grove Ave, Richmond, VA 23226",
            "lat": "37.5733362",
            "lon": "-77.5180274"
        },
        "locations": "Retail",
        "wines": [
            "Chardonnay",
            "Foothills",
            "Rosé",
            "Pétillant Naturel White"
        ]
    },
    {
        "id": "bgngGjn7f51lGiFjsaVPz",
        "name": "Jefferson Hotel",
        "address": {
            "street": "101 W Franklin St, Richmond, VA 23220",
            "lat": "37.5442364",
            "lon": "-77.4454155"
        },
        "locations": "Restaurant",
        "wines": [
            "Eluvium",
            "Foothills"
        ]
    },
    {
        "id": "GKc-ConlicSFfAy47yAex",
        "name": "Ivy Inn",
        "address": {
            "street": "2244 Old Ivy Rd., Charlottesville, VA 22903",
            "lat": "38.045948",
            "lon": "-78.516234"
        },
        "locations": "Restaurant",
        "wines": [
            "Petit Manseng",
            "RISE"
        ]
    },
    {
        "id": "hr9UoAwdvOPEYg8QdY0w9",
        "name": "La Fromagerie",
        "address": {
            "street": "1222 King St, Alexandria, VA 22314",
            "lat": "38.805648",
            "lon": "-77.053429"
        },
        "locations": "Restaurant/Retail",
        "wines": [
            "Petit Manseng",
            "Shenandoah Valley Cabernet Franc",
            "Eluvium",
            "Pétillant Naturel White",
            "Rosé",
            "Young Wine"
        ]
    },
    {
        "id": "jhkWA2aJd84meI1JFg77r",
        "name": "Little Red Fox",
        "address": {
            "street": "5035 Connecticut Ave. NW, Washington, DC 20008",
            "lat": "38.9558822",
            "lon": "-77.0699601"
        },
        "locations": "Restaurant/Retail",
        "wines": [
            "Rosé",
            "Pétillant Naturel White"
        ]
    },
    {
        "id": "_6rxsTORIaIyUdYKlKMI4",
        "name": "Market Street Wine Shop",
        "address": {
            "street": "311 East Market St, Charlottesville, VA 22902",
            "lat": "38.0310663",
            "lon": "-78.4789692"
        },
        "locations": "Retail",
        "wines": [
            "Chardonnay",
            "Foothills",
            "Eluvium",
            "Rosé",
            "Shenandoah Valley Cabernet Franc",
            "Pétillant Naturel White",
            "Petit Manseng",
            "Young Wine Chambourcin",
            "Five Forks"
        ]
    },
    {
        "id": "JLwoUJx-peSf2cw8vigMC",
        "name": "Momofuku DC",
        "address": {
            "street": "1090 I St. NW, Washington, DC 20001",
            "lat": "38.9007039",
            "lon": "-77.0268751"
        },
        "locations": "Restaurant",
        "wines": [
            "Eluvium",
            "Rosé",
            "Young Wine Chambourcin"
        ]
    },
    {
        "id": "IngBTuzGskMWK9lE3_8Ia",
        "name": "Mona Lisa",
        "address": {
            "street": "921 Preston Ave, Charlottesville, VA 22903",
            "lat": "38.038434",
            "lon": "-78.489901"
        },
        "locations": "Retail",
        "wines": [
            "Foothills",
            "Shenandoah Valley Cabernet Franc",
            "Eluvium",
            "Petit Manseng",
            "Rosé",
            "Five Forks",
            "Young Wine"
        ]
    },
    {
        "id": "A-g6QgzMhxUQ7D4NUtG-2",
        "name": "Local, The",
        "address": {
            "street": "824 Hinton Ave, Charlottesville, VA 22901",
            "lat": "38.0244641",
            "lon": "-78.4755275"
        },
        "locations": "Restaurant",
        "wines": [
            "Shenandoah Valley Cabernet Franc"
        ]
    },
    {
        "id": "YhOEgkT9dTTB3AyIDzovn",
        "name": "Now & Zen",
        "address": {
            "street": "Pinnacle Planning Inc, Charlottesville, VA 22902",
            "lat": "37.99295",
            "lon": "-78.502142"
        },
        "locations": "Restaurant",
        "wines": [
            "Rosé"
        ]
    },
    {
        "id": "iRno-JLFTBjKg41Kbdq3S",
        "name": "Organic Butcher of McLean",
        "address": {
            "street": "6712 Old Dominion Drive, McLean, VA 22101",
            "lat": "38.9335412",
            "lon": "-77.1758584"
        },
        "locations": "Retail",
        "wines": [
            "Eluvium",
            "Foothills",
            "Shenandoah Valley Cabernet Franc",
            "Rosé",
            "Young Wine",
            "RISE"
        ]
    },
    {
        "id": "iM0wbEW2b91efn-1xX-KC",
        "name": "Outpost",
        "address": {
            "street": "4813 Forest Hill Ave., Richmond, VA 23225",
            "lat": "37.5211852",
            "lon": "-77.4878087"
        },
        "locations": "Retail",
        "wines": [
            "Young Wine Chambourcin",
            "Foothills",
            "Rosé",
            "Shenandoah Valley Cabernet Franc",
            "Young Wine",
            "RISE"
        ]
    },
    {
        "id": "azk2Pti3neZz6rp1pBa9t",
        "name": "Please Bring Chips",
        "address": {
            "street": "951 V St. NE, Washington, DC 20018",
            "lat": "38.9171218",
            "lon": "-76.9916225"
        },
        "locations": "Restaurant",
        "wines": [
            "Shenandoah Valley Cabernet Franc"
        ]
    },
    {
        "id": "0I7qPMuUmB7zbiRifPAoN",
        "name": "Prime 109",
        "address": {
            "street": "300 East Main St., Charlottesville, VA 22902",
            "lat": "36.8605378",
            "lon": "-76.2996588"
        },
        "locations": "Restaurant",
        "wines": [
            "Petit Manseng",
            "Shenandoah Valley Cabernet Franc"
        ]
    },
    {
        "id": "uxvYi_t2uHcm_Y9bGbzNp",
        "name": "Red Hen-DC",
        "address": {
            "street": "1822 1st St. NW, Washington, DC 20001",
            "lat": "38.9149738",
            "lon": "-77.0124095"
        },
        "locations": "Restaurant",
        "wines": [
            "Eluvium",
            "Five Forks",
            "Rosé"
        ]
    },
    {
        "id": "J7Ve99tcpZDCDvPZcjGz_",
        "name": "Rio Hill Wine & Beer",
        "address": {
            "street": "1908 Rio Hill Center, Charlottesville, VA 22901",
            "lat": "38.0877905",
            "lon": "-78.4749043"
        },
        "locations": "Retail",
        "wines": [
            "Foothills",
            "Petit Manseng",
            "Chardonnay",
            "Eluvium",
            "Rosé"
        ]
    },
    {
        "id": "4tbvGTeKJp0MUIN8SB7Hl",
        "name": "Prosperity Kitchen & Pantry",
        "address": {
            "street": "532 Virginia Beach Blvd Ste B, Virginia Beach, VA 23451",
            "lat": "36.8444829",
            "lon": "-75.9806406"
        },
        "locations": "Restaurant",
        "wines": [
            "Foothills",
            "RISE"
        ]
    },
    {
        "id": "Jm1xgyaOks-z4dWij57GE",
        "name": "Roosevelt",
        "address": {
            "street": "623 N. 25th St., Richmond, VA 23223",
            "lat": "37.534897",
            "lon": "-77.4154189"
        },
        "locations": "Restaurant",
        "wines": [
            "Foothills",
            "Five Forks"
        ]
    },
    {
        "id": "48Ixqn4QKNmaeF_RUI3tB",
        "name": "Savannah Wine Cellar",
        "address": {
            "street": "5502 Abercorn St, Savannah, GA 31405",
            "lat": "32.0229174",
            "lon": "-81.109395"
        },
        "locations": "Restaurant/Retail",
        "wines": [
            "Foothills",
            "RISE"
        ]
    },
    {
        "id": "iUxTutTskSSq9z_Y72jsP",
        "name": "Shack, The",
        "address": {
            "street": "105 S. Coalter St., Staunton, VA 24401",
            "lat": "38.148151",
            "lon": "-79.0681357"
        },
        "locations": "Restaurant",
        "wines": [
            "Chardonnay",
            "Foothills",
            "Young Wine"
        ]
    },
    {
        "id": "qp5ngiwBD95e5Bn3hiy1V",
        "name": "South Street Brewery",
        "address": {
            "street": "106 South St., Charlottesville, VA 22902",
            "lat": "38.029338",
            "lon": "-78.482687"
        },
        "locations": "Restaurant",
        "wines": [
            "Foothills",
            "Chardonnay"
        ]
    },
    {
        "id": "sAdfKTy-KeWpMREgCh2O6",
        "name": "Talk of the Table",
        "address": {
            "street": "410 PEACHTREE PKWY, Cumming, GA 30041",
            "lat": "34.1535941",
            "lon": "-84.1768731"
        },
        "locations": "Retail",
        "wines": [
            "Five Forks",
            "Rosé"
        ]
    },
    {
        "id": "V0I2N4X_G25jIkVsMAp9V",
        "name": "Taste - Town Center",
        "address": {
            "street": "4513 Commerce Street, Virgina Beach, VA 23462",
            "lat": "36.8418021",
            "lon": "-76.1345125"
        },
        "locations": "Restaurant/Retail",
        "wines": [
            "Eluvium",
            "Foothills"
        ]
    },
    {
        "id": "jjWFYhU9GOnuB2ca5rTK7",
        "name": "Taste - Westhampton",
        "address": {
            "street": "5706 Grove Ave Ste 100, Richmond, VA 23226",
            "lat": "37.5732828",
            "lon": "-77.5173888"
        },
        "locations": "Restaurant/Retail",
        "wines": [
            "Chardonnay",
            "Eluvium",
            "Rosé"
        ]
    },
    {
        "id": "oPR0KM559LwgZ0IxauWNX",
        "name": "Tastings of Charlottesville",
        "address": {
            "street": "502 East Market St, Charlottesville, VA 22902",
            "lat": "38.0303427",
            "lon": "-78.4779714"
        },
        "locations": "Restaurant/Retail",
        "wines": [
            "Foothills"
        ]
    },
    {
        "id": "Dhe9-EamI-GA6M_Evt1Of",
        "name": "Tail Up Goat",
        "address": {
            "street": "1827 Adams Mill Rd. NW, Washington, DC 20009",
            "lat": "38.923447",
            "lon": "-77.043176"
        },
        "locations": "Restaurant",
        "wines": [
            "Rosé"
        ]
    },
    {
        "id": "fv1uqGP7EGjtfFrBzwC-m",
        "name": "Town Duck",
        "address": {
            "street": "100 Main St, Warrenton, VA 20186",
            "lat": "38.7122701",
            "lon": "-77.7930779"
        },
        "locations": "Retail",
        "wines": [
            "Foothills",
            "Rosé",
            "Eluvium"
        ]
    },
    {
        "id": "YpCD1Qp2txcEhOdzQkPhB",
        "name": "Unwined Belle View",
        "address": {
            "street": "1600 Belle View Blvd., Alexandria, VA 22307",
            "lat": "38.7761672",
            "lon": "-77.0597746"
        },
        "locations": "Retail",
        "wines": [
            "Eluvium",
            "Foothills",
            "Rosé",
            "Pétillant Naturel White",
            "Petit Manseng",
            "Young Wine"
        ]
    },
    {
        "id": "mRijBPCQqXEWdSz6dxQIV",
        "name": "Thornton River Grille",
        "address": {
            "street": "Thornton River Grille, Sperryville, VA 22740",
            "lat": "38.6525114",
            "lon": "-78.2667447"
        },
        "locations": "Restaurant",
        "wines": [
            "Rosé",
            "Chardonnay",
            "Foothills",
            "Petit Manseng",
            "Young Wine"
        ]
    },
    {
        "id": "xCfNkebmrztB4WPvGmhKD",
        "name": "Unwined Bradlee Shopping Center",
        "address": {
            "street": "3690-J King St, Alexandria, VA 22302",
            "lat": "38.8296628",
            "lon": "-77.0921948"
        },
        "locations": "Retail",
        "wines": [
            "Eluvium",
            "Chardonnay",
            "Foothills",
            "Rosé"
        ]
    },
    {
        "id": "dfvmi9tSatxk4PftuTxA2",
        "name": "Valley Pike Farm Market",
        "address": {
            "street": "3494 Lee Highway, Weyers Cave, VA 24486",
            "lat": "40.6724091",
            "lon": "-73.9833358"
        },
        "locations": "Retail",
        "wines": [
            "Foothills"
        ]
    },
    {
        "id": "cRVulfBRut9IBPEb3ameg",
        "name": "Vinosity",
        "address": {
            "street": "174 E Davis St,, Charlottesville, VA 22732",
            "lat": "38.0293059",
            "lon": "-78.4766781"
        },
        "locations": "Retail",
        "wines": [
            "Foothills"
        ]
    },
    {
        "id": "ziCTt63h7U6M7uRiTghyb",
        "name": "Vermillion",
        "address": {
            "street": "1120 King St, Alexandria, VA 22314",
            "lat": "38.8055661",
            "lon": "-77.0522637"
        },
        "locations": "Restaurant",
        "wines": [
            "Foothills"
        ]
    },
    {
        "id": "VrPGdtQK13Tyf6mc8i0Bn",
        "name": "Vintage Cellar",
        "address": {
            "street": "1338 South Main St., Blacksburg, VA 24060",
            "lat": "37.215963",
            "lon": "-80.402101"
        },
        "locations": "Retail",
        "wines": [
            "Foothills",
            "Eluvium"
        ]
    },
    {
        "id": "SIkYjLvziT47Bm0-TBiWj",
        "name": "White Moose Inn",
        "address": {
            "street": "291 Main St., Washington, VA 22747",
            "lat": "38.7123391",
            "lon": "-78.16034"
        },
        "locations": "Restaurant",
        "wines": [
            "Chardonnay",
            "Quaker Run Chardonnay"
        ]
    },
    {
        "id": "KeRmqmtVNgbvuy_N3mZPM",
        "name": "Whole Foods - Ashburn",
        "address": {
            "street": "19800 Belmont Chase Dr, Ashburn, VA 20147",
            "lat": "39.0684834",
            "lon": "-77.4843963"
        },
        "locations": "Restaurant/Retail",
        "wines": [
            "Eluvium",
            "Foothills"
        ]
    },
    {
        "id": "nhtQO2uqGb1yhMibQNRiw",
        "name": "Whole Foods - Boro Tysons",
        "address": {
            "street": "1635 Boro Place, McLean, VA 22102",
            "lat": "38.9246153",
            "lon": "-77.2335301"
        },
        "locations": "Restaurant/Retail",
        "wines": [
            "Rosé",
            "Five Forks",
            "Foothills"
        ]
    },
    {
        "id": "BIA-DEeTo7qN1djLrpV7Y",
        "name": "Whole Foods - H Street",
        "address": {
            "street": "600-A H Street, NE, Washington, DC 20002",
            "lat": "38.9005142",
            "lon": "-76.9976267"
        },
        "locations": "Restaurant/Retail",
        "wines": [
            "Foothills"
        ]
    },
    {
        "id": "JV9eQt2RtYG3tv1mBrT6-",
        "name": "Whole Foods - Short Pump",
        "address": {
            "street": "11173 West Broad St., Richmond, VA 23060",
            "lat": "37.6475665",
            "lon": "-77.5997292"
        },
        "locations": "Restaurant/Retail",
        "wines": [
            "Rosé",
            "Foothills"
        ]
    },
    {
        "id": "m7n__bPTQPGsP4t0NjYF8",
        "name": "Whole Foods - Tysons",
        "address": {
            "street": "7511 Leesburg Pike, Falls Church, VA 22043",
            "lat": "38.903442",
            "lon": "-77.2044823"
        },
        "locations": "Restaurant/Retail",
        "wines": [
            "Foothills"
        ]
    },
    {
        "id": "8ApFYZ91mq5N56PsuqPjD",
        "name": "Whole Foods - Virginia Beach",
        "address": {
            "street": "1800 Laskin Road, Virginia Beach, VA 23454",
            "lat": "36.8509319",
            "lon": "-76.0281576"
        },
        "locations": "Restaurant/Retail",
        "wines": [
            "Rosé",
            "Foothills",
            "Five Forks"
        ]
    },
    {
        "id": "reB0DDx0PTJU888-DR9EM",
        "name": "Whole Foods - West Broad",
        "address": {
            "street": "2024 W Broad Street, Richmond, VA 23220",
            "lat": "37.5581958",
            "lon": "-77.4612166"
        },
        "locations": "Restaurant/Retail",
        "wines": [
            "Rosé",
            "Foothills"
        ]
    },
    {
        "id": "1a57f3V7es-EBJBSg1cvr",
        "name": "Wine Cellar- Staunton",
        "address": {
            "street": "8 Byers St., Staunton, VA 24401",
            "lat": "38.1477303",
            "lon": "-79.0727371"
        },
        "locations": "Retail",
        "wines": [
            "Shenandoah Valley Cabernet Franc"
        ]
    },
    {
        "id": "JYyE2EK9G9cnUQ0dWQz60",
        "name": "Wine Seller - Williamsburg",
        "address": {
            "street": "4680 Monticello Ave Suite 15, Williamsburg, VA 23188",
            "lat": "37.2719211",
            "lon": "-76.7595155"
        },
        "locations": "Retail",
        "wines": [
            "Petit Manseng",
            "Foothills",
            "Pétillant Naturel White",
            "Rosé",
            "Five Forks",
            "RISE"
        ]
    },
    {
        "id": "GLunKPRYHtQlCm37-Opns",
        "name": "Zynodoa",
        "address": {
            "street": "115 E Beverly St, Staunton, VA 24401",
            "lat": "38.149814",
            "lon": "-79.0709713"
        },
        "locations": "Restaurant",
        "wines": [
            "Eluvium",
            "Petit Manseng"
        ]
    },
    {
        "id": "Y5ook-3U3sdfgFVlWTYWh",
        "name": "Zap Wines & Spirits",
        "address": {
            "street": "105 Court Street, Brooklyn, NY 11201",
            "lat": "40.6907763",
            "lon": "-73.9915424"
        },
        "locations": "Retail",
        "wines": [
            "Young Wine Chambourcin"
        ]
    },
    {
        "id": "tulQJv8MfdlQ-Aergi_yx",
        "name": "313 Franklin",
        "address": {
            "street": "313 Franklin Street, South Hill, VA 23970",
            "lat": "36.726272",
            "lon": "-78.1245498"
        },
        "locations": "Restaurant/Retail",
        "wines": [
            "Petit Manseng"
        ]
    },
    {
        "id": "TsiK3l-_alVfAQ-xb3_Z1",
        "name": "Amber Ox Kitchen & Brewery",
        "address": {
            "street": "521 Prince George St., Williamsburg, VA 23185",
            "lat": "37.272864",
            "lon": "-76.708414"
        },
        "locations": "Restaurant",
        "wines": [
            "Foothills"
        ]
    },
    {
        "id": "vWlXdq5I-4eIszHKzcolc",
        "name": "Arrowine",
        "address": {
            "street": "4508 Lee Hwy, Arlington, VA 22207",
            "lat": "38.8983733",
            "lon": "-77.1183586"
        },
        "locations": "Retail",
        "wines": [
            "Eluvium",
            "Rosé",
            "Shenandoah Valley Cabernet Franc",
            "Young Wine Chambourcin",
            "Chardonnay",
            "Foothills",
            "Pétillant Naturel White"
        ]
    },
    {
        "id": "3VI_ovUEG3ow7KUAv-ZNq",
        "name": "And Sons NYC",
        "address": {
            "street": "447 Rogers Ave, Brooklyn, NY 11225",
            "lat": "40.6616172",
            "lon": "-73.9534096"
        },
        "locations": "Restaurant",
        "wines": [
            "Petit Manseng"
        ]
    },
    {
        "id": "X6khhrbhRXGbDCSqd1E1A",
        "name": "Balducci's - Alexandria",
        "address": {
            "street": "600 Franklin St, Alexandria, VA 22314",
            "lat": "38.7978102",
            "lon": "-77.0479011"
        },
        "locations": "Retail",
        "wines": [
            "Chardonnay",
            "Rosé",
            "Eluvium",
            "Young Wine",
            "RISE"
        ]
    },
    {
        "id": "m6jXoRjOqkz8eBI775HbI",
        "name": "Barrel Chest",
        "address": {
            "street": "4035 Electric Rd. #B, Roanoke, VA 24018",
            "lat": "37.2235279",
            "lon": "-79.982868"
        },
        "locations": "Retail",
        "wines": [
            "Chardonnay",
            "Rosé",
            "Foothills",
            "Pétillant Naturel White",
            "Young Wine"
        ]
    },
    {
        "id": "5NzoSpklK2mLkN7jo9Sad",
        "name": "Barrel Thief",
        "address": {
            "street": "5805 Patterson Ave, Richmond, VA 23226",
            "lat": "37.2235279",
            "lon": "-79.982868"
        },
        "locations": "Restaurant/Retail",
        "wines": [
            "Rosé",
            "Foothills",
            "Petit Manseng"
        ]
    },
    {
        "id": "0GF_cCAfkTFu-s5EBFH54",
        "name": "Back Bay's Farmhouse Brewing",
        "address": {
            "street": "1805 Kempsville Rd, Virginia Beach, VA 23464",
            "lat": "36.7830652",
            "lon": "-76.1893622"
        },
        "locations": "Restaurant",
        "wines": [
            "Rosé"
        ]
    },
    {
        "id": "Ak2TDBkXrim2oYkGvdbT6",
        "name": "Bloom",
        "address": {
            "street": "1109 Main St. SW, Roanoke, VA 24015",
            "lat": "37.264562",
            "lon": "-79.958762"
        },
        "locations": "Restaurant",
        "wines": [
            "Petit Manseng"
        ]
    },
    {
        "id": "3MugGESWW6Y2ZA3JrC1xc",
        "name": "Caboose",
        "address": {
            "street": "108 S. Railroad Ave., Ashland, VA 23005",
            "lat": "37.758286",
            "lon": "-77.4816338"
        },
        "locations": "Restaurant/Retail",
        "wines": [
            "Foothills",
            "Chardonnay"
        ]
    },
    {
        "id": "-EpcQiLTrZ1jOOI6Q7qxJ",
        "name": "DeVine",
        "address": {
            "street": "121 Blue Ridge Dr, Wintergreen, VA 22958",
            "lat": "37.8848619",
            "lon": "-78.8994672"
        },
        "locations": "Retail",
        "wines": [
            "Petit Manseng",
            "Shenandoah Valley Cabernet Franc"
        ]
    },
    {
        "id": "5hghQk9oEazK8XpdQ5PT-",
        "name": "Crystal City Wine Shop",
        "address": {
            "street": "220 20th St. South, Arlington, VA 22202",
            "lat": "38.85597",
            "lon": "-77.0500304"
        },
        "locations": "Retail",
        "wines": [
            "Rosé",
            "Foothills",
            "Five Forks",
            "Young Wine"
        ]
    },
    {
        "id": "LdHA4qH_ws0rtjWX7yVsp",
        "name": "Each Peach Market",
        "address": {
            "street": "3068 Mt Pleasant St NW, Washington, DC 20009",
            "lat": "38.928548",
            "lon": "-77.0375272"
        },
        "locations": "Restaurant/Retail",
        "wines": [
            "Foothills"
        ]
    },
    {
        "id": "z5bN25ydcNhqgGF694RnK",
        "name": "Ellwood Thompson",
        "address": {
            "street": "4 N Thompson St, Richmond, VA 23221",
            "lat": "37.5574421",
            "lon": "-77.4886194"
        },
        "locations": "Retail",
        "wines": [
            "Rosé",
            "Eluvium",
            "Petit Manseng",
            "Pétillant Naturel White",
            "Quaker Run Chardonnay",
            "Shenandoah Valley Cabernet Franc",
            "Chardonnay",
            "Five Forks",
            "Foothills"
        ]
    },
    {
        "id": "G_1vphUbrfwJfSVljf9M_",
        "name": "Foods of All Nations",
        "address": {
            "street": "2121 Ivy Rd, Charlottesville, VA 22903",
            "lat": "38.0432978",
            "lon": "-78.5119067"
        },
        "locations": "Retail",
        "wines": [
            "Petit Manseng",
            "Shenandoah Valley Cabernet Franc",
            "Rosé",
            "Five Forks",
            "Young Wine"
        ]
    },
    {
        "id": "e6sknTS63KRh6KHVsPffn",
        "name": "Fat Canary",
        "address": {
            "street": "The Cheese Shop of VA, Inc., Williamsburg, VA 23185",
            "lat": "37.2706994",
            "lon": "-76.7061859"
        },
        "locations": "Restaurant",
        "wines": [
            "Foothills",
            "Rosé",
            "Shenandoah Valley Cabernet Franc"
        ]
    },
    {
        "id": "5H7SUo900kyIt4jO6Ud_w",
        "name": "Fry's Spring Beach Club",
        "address": {
            "street": "2513 Jefferson Park Ave, Charlottesville, VA 22903",
            "lat": "38.0192125",
            "lon": "-78.5141217"
        },
        "locations": "Restaurant",
        "wines": [
            "Foothills",
            "Rosé"
        ]
    },
    {
        "id": "7Mcfw10YMuwssvusTliyA",
        "name": "Glen's Garden Market",
        "address": {
            "street": "2001 S St. NW, Washington, DC 20009",
            "lat": "38.9143274",
            "lon": "-77.0451575"
        },
        "locations": "Restaurant/Retail",
        "wines": [
            "Foothills",
            "Rosé",
            "Shenandoah Valley Cabernet Franc"
        ]
    },
    {
        "id": "1rpgJb6vqHim1aR0LVLJ2",
        "name": "Grisette",
        "address": {
            "street": "3119 East Marshall Street, Richmond, VA 23223",
            "lat": "37.528621",
            "lon": "-77.4119182"
        },
        "locations": "Restaurant",
        "wines": [
            "Eluvium",
            "Foothills",
            "Petit Manseng"
        ]
    },
    {
        "id": "VM_8I0dnSg_pQ5fRGM95m",
        "name": "Friendly City Food Co-op",
        "address": {
            "street": "150 E Wolfe St, Harrisonburg, VA 22802",
            "lat": "38.4516609",
            "lon": "-78.8665291"
        },
        "locations": "Retail",
        "wines": [
            "Petit Manseng",
            "Rosé"
        ]
    },
    {
        "id": "kFhAlBMS6lS6KAyNd3Zqy",
        "name": "Hamilton's",
        "address": {
            "street": "101 W Main St, Charlottesville, VA 22902",
            "lat": "38.030928",
            "lon": "-78.4815455"
        },
        "locations": "Restaurant",
        "wines": [
            "Petit Manseng"
        ]
    },
    {
        "id": "EdIYmqPjQFudD67AbZUvE",
        "name": "High Street on Hudson",
        "address": {
            "street": "637 Hudson St, Manhattan, NY 10014",
            "lat": "40.7388972",
            "lon": "-74.0057401"
        },
        "locations": "Restaurant",
        "wines": [
            "Young Wine Chambourcin"
        ]
    },
    {
        "id": "vPlCGuS610t2MY3aYQDwi",
        "name": "J Emerson",
        "address": {
            "street": "5716 Grove Ave, Richmond, VA 23226",
            "lat": "37.5733362",
            "lon": "-77.5180274"
        },
        "locations": "Retail",
        "wines": [
            "Foothills",
            "Rosé",
            "Chardonnay"
        ]
    },
    {
        "id": "sMQVA9HvZ43X2UgYBiDpf",
        "name": "Libbie Market",
        "address": {
            "street": "400 Libbie Ave., Richmond, VA 23226",
            "lat": "37.5746309",
            "lon": "-77.5183971"
        },
        "locations": "Retail",
        "wines": [
            "Quaker Run Chardonnay",
            "Shenandoah Valley Cabernet Franc",
            "Eluvium",
            "Petit Manseng",
            "Rosé"
        ]
    },
    {
        "id": "BorOQaExpm5eznPNgkx5E",
        "name": "Inn at Warm Springs",
        "address": {
            "street": "12968 Sam Snead Hwy, Warm Springs, VA 24484",
            "lat": "38.0534747",
            "lon": "-79.7791928"
        },
        "locations": "Restaurant",
        "wines": [
            "Rosé"
        ]
    },
    {
        "id": "CWklDCZPLiVdhp8NnlBHs",
        "name": "Locke Store",
        "address": {
            "street": "2049 Millwood Rd., Millwood, VA 22646",
            "lat": "39.0695452",
            "lon": "-78.0379379"
        },
        "locations": "Retail",
        "wines": [
            "Eluvium",
            "Rosé",
            "Pétillant Naturel White"
        ]
    },
    {
        "id": "OMxc0f9A308_F8_m34Tdt",
        "name": "Market Street Wine Shop",
        "address": {
            "street": "311 East Market St, Charlottesville, VA 22902",
            "lat": "38.0310663",
            "lon": "-78.4789692"
        },
        "locations": "Retail",
        "wines": [
            "Foothills",
            "Rosé",
            "Chardonnay",
            "Pétillant Naturel White"
        ]
    },
    {
        "id": "44Wm4xuJpcNm7na8zEL5h",
        "name": "Lucky",
        "address": {
            "street": "18 Kirk Ave SW, Roanoke, VA 24011",
            "lat": "37.2709987",
            "lon": "-79.9414035"
        },
        "locations": "Restaurant",
        "wines": [
            "Quaker Run Chardonnay",
            "RISE"
        ]
    },
    {
        "id": "v87mK42kXSKKjob7YK45p",
        "name": "Mona Lisa",
        "address": {
            "street": "921 Preston Ave, Charlottesville, VA 22903",
            "lat": "38.038434",
            "lon": "-78.489901"
        },
        "locations": "Retail",
        "wines": [
            "Foothills",
            "Rosé",
            "Young Wine Chambourcin",
            "Petit Manseng"
        ]
    },
    {
        "id": "DKsheWmbt4evJaTb1XTJW",
        "name": "Norm's Beer & Wine",
        "address": {
            "street": "136 Branch Rd SE, Vienna, VA 22180",
            "lat": "38.9062317",
            "lon": "-77.257151"
        },
        "locations": "Retail",
        "wines": [
            "Eluvium",
            "Rosé",
            "Quaker Run Chardonnay",
            "Five Forks"
        ]
    },
    {
        "id": "6TCe8QjnB7eoYqVMK-fp0",
        "name": "One Eared Stag",
        "address": {
            "street": "1029 EDGEWOOD AVE NE, ATLANTA, GA 30374",
            "lat": "33.7572073",
            "lon": "-84.3541197"
        },
        "locations": "Restaurant",
        "wines": [
            "Eluvium"
        ]
    },
    {
        "id": "7Y3XUQpTEUs_I-LTNmS-W",
        "name": "Organic Butcher of McLean",
        "address": {
            "street": "6712 Old Dominion Drive, McLean, VA 22101",
            "lat": "38.9335412",
            "lon": "-77.1758584"
        },
        "locations": "Retail",
        "wines": [
            "Foothills",
            "Five Forks"
        ]
    },
    {
        "id": "M-X6grrItJ8Lp5sg0P0jk",
        "name": "Outpost",
        "address": {
            "street": "4813 Forest Hill Ave., Richmond, VA 23225",
            "lat": "37.5211852",
            "lon": "-77.4878087"
        },
        "locations": "Retail",
        "wines": [
            "Rosé",
            "Young Wine"
        ]
    },
    {
        "id": "tnDDfrzl9zudxP2oS_cV2",
        "name": "Planet Wine",
        "address": {
            "street": "2000-2004 Mount Vernon Ave, Alexandria, VA 22301",
            "lat": "38.8239944",
            "lon": "-77.0585361"
        },
        "locations": "Retail",
        "wines": [
            "Rosé",
            "Shenandoah Valley Cabernet Franc",
            "Petit Manseng"
        ]
    },
    {
        "id": "HlkVYhAAsCzEoczkWm40S",
        "name": "Perch",
        "address": {
            "street": "2918 W. Broad Street, Richmond, VA 23230",
            "lat": "37.5640539",
            "lon": "-77.4719183"
        },
        "locations": "Restaurant",
        "wines": [
            "Chardonnay",
            "Foothills",
            "Rosé"
        ]
    },
    {
        "id": "gujBPgXUtIhIhAVjKdnpF",
        "name": "Quirk Hotel - Charlottesville",
        "address": {
            "street": "499 W Main Street, Charlottesville, VA 22902",
            "lat": "38.03121",
            "lon": "-78.48776"
        },
        "locations": "Restaurant",
        "wines": [
            "Five Forks",
            "Foothills"
        ]
    },
    {
        "id": "H_dhQqAIgp4Wt_EYNt4hi",
        "name": "Press 626",
        "address": {
            "street": "626 West Olney Rd., Norfolk, VA 23507",
            "lat": "36.8605378",
            "lon": "-76.2996588"
        },
        "locations": "Restaurant/Retail",
        "wines": [
            "Rosé"
        ]
    },
    {
        "id": "mB6WkfzGXPKI1TwJbJwr4",
        "name": "Rio Hill Wine & Beer",
        "address": {
            "street": "1908 Rio Hill Center, Charlottesville, VA 22901",
            "lat": "38.0877905",
            "lon": "-78.4749043"
        },
        "locations": "Retail",
        "wines": [
            "Eluvium",
            "Rosé",
            "Quaker Run Chardonnay"
        ]
    },
    {
        "id": "d65MtdWlzpRYmcq3zEVKN",
        "name": "Roanoke Natural Foods Co-op",
        "address": {
            "street": "1319 Grandin Rd SW, Roanoke, VA 24015",
            "lat": "37.2652232",
            "lon": "-79.9776246"
        },
        "locations": "Retail",
        "wines": [
            "Foothills",
            "Rosé",
            "Young Wine"
        ]
    },
    {
        "id": "WVxDtqt2XVvagJzjdpjeO",
        "name": "Screwtop",
        "address": {
            "street": "1025 Fillmore St. N, Arlington, VA 22201",
            "lat": "38.8859072",
            "lon": "-77.0926894"
        },
        "locations": "Restaurant/Retail",
        "wines": [
            "Foothills",
            "Rosé",
            "Eluvium"
        ]
    },
    {
        "id": "fhkidm3eXkRDS-X0jlnvQ",
        "name": "Rose's at Home",
        "address": {
            "street": "731 8th Street SE, Washington, DC 20003",
            "lat": "38.8801665",
            "lon": "-76.9953797"
        },
        "locations": "Restaurant",
        "wines": [
            "Foothills"
        ]
    },
    {
        "id": "c7qz24Pjub2iYA83O6owO",
        "name": "Taste - Ghent",
        "address": {
            "street": "407 W 21st Street, Norfolk, VA 23517",
            "lat": "36.868141",
            "lon": "-76.290231"
        },
        "locations": "Restaurant/Retail",
        "wines": [
            "Eluvium",
            "Five Forks",
            "Rosé"
        ]
    },
    {
        "id": "Xpriv_mRd3Ld1Q0ilUShT",
        "name": "Swirl & Sip",
        "address": {
            "street": "2905 District  Ave. Ste. 112, Fairfax, VA 22031",
            "lat": "38.8733231",
            "lon": "-77.229401"
        },
        "locations": "Retail",
        "wines": [
            "Five Forks"
        ]
    },
    {
        "id": "23DvcKEs1SrcHyOqkCyUj",
        "name": "Taste - Oceanfront",
        "address": {
            "street": "3603 Pacific Avenue, Virginia Beach, VA 23451",
            "lat": "36.8641917",
            "lon": "-75.9803595"
        },
        "locations": "Restaurant/Retail",
        "wines": [
            "Petit Manseng"
        ]
    },
    {
        "id": "FEJbyHTjxouXLreNujxEC",
        "name": "Thornton River Grille",
        "address": {
            "street": "Thornton River Grille, Sperryville, VA 22740",
            "lat": "38.6525114",
            "lon": "-78.2667447"
        },
        "locations": "Restaurant",
        "wines": [
            "Foothills",
            "Rosé"
        ]
    },
    {
        "id": "zEEYRFAQmNxI4bFjZmsTa",
        "name": "Unwined Belle View",
        "address": {
            "street": "1600 Belle View Blvd., Alexandria, VA 22307",
            "lat": "38.7761672",
            "lon": "-77.0597746"
        },
        "locations": "Retail",
        "wines": [
            "Foothills",
            "Petit Manseng",
            "Rosé"
        ]
    },
    {
        "id": "89Foc4LpfjME3T6EUv0Rb",
        "name": "Ten Sushi",
        "address": {
            "street": "120B East Main St, Charlottesville, VA 22902",
            "lat": "38.0303542",
            "lon": "-78.4810329"
        },
        "locations": "Restaurant",
        "wines": [
            "Foothills",
            "Rosé"
        ]
    },
    {
        "id": "tKH0oF0_bF1wQh6K3VFF-",
        "name": "Urban Hang Suite",
        "address": {
            "street": "304 E. Broad Street, Richmond, VA 23219",
            "lat": "37.5441901",
            "lon": "-77.4388111"
        },
        "locations": "Restaurant/Retail",
        "wines": [
            "Chardonnay",
            "Rosé",
            "Foothills"
        ]
    },
    {
        "id": "7GbD80w2MKO2R5Zn_JNq5",
        "name": "Vino Market",
        "address": {
            "street": "3730 Winterfield Rd., Midlothian, VA 23113",
            "lat": "37.5535346",
            "lon": "-77.6685934"
        },
        "locations": "Retail",
        "wines": [
            "Foothills",
            "Rosé",
            "Five Forks"
        ]
    },
    {
        "id": "MhCaWyxoF7H7DDyj9YtDY",
        "name": "Unwined Bradlee Shopping Center",
        "address": {
            "street": "3690-J King St, Alexandria, VA 22302",
            "lat": "38.8296628",
            "lon": "-77.0921948"
        },
        "locations": "Retail",
        "wines": [
            "Eluvium",
            "Rosé"
        ]
    },
    {
        "id": "Gzqm-u3RXAUUl0FQh_ioo",
        "name": "Westside Produce & Provisions",
        "address": {
            "street": "5015 Colley Ave., Norfolk, VA 23508",
            "lat": "36.8890919",
            "lon": "-76.2954496"
        },
        "locations": "Retail",
        "wines": [
            "Chardonnay",
            "Eluvium",
            "Five Forks",
            "Foothills",
            "Shenandoah Valley Cabernet Franc",
            "Rosé",
            "Young Wine"
        ]
    },
    {
        "id": "FKyM5Fm_VZ5g0n9Esx0Ph",
        "name": "Wardman Wines",
        "address": {
            "street": "625 Monroe St. NE, Ste.#A7, Washington, DC 20007",
            "lat": "38.9318318",
            "lon": "-76.9971246"
        },
        "locations": "Retail",
        "wines": [
            "Pétillant Naturel Red",
            "Rosé"
        ]
    },
    {
        "id": "UHtmTCtzkr4kGGcWQgV_U",
        "name": "Whole Foods - Charlottesville",
        "address": {
            "street": "1797 Hydraulic Road, Charlottesville, VA 22901",
            "lat": "38.059773",
            "lon": "-78.4891351"
        },
        "locations": "Restaurant/Retail",
        "wines": [
            "Foothills",
            "Rosé",
            "Five Forks"
        ]
    },
    {
        "id": "nEbZVJM_g7GSLLIdznov6",
        "name": "Whole Foods - H Street",
        "address": {
            "street": "600-A H Street, NE, Washington, DC 20002",
            "lat": "38.9005142",
            "lon": "-76.9976267"
        },
        "locations": "Restaurant/Retail",
        "wines": [
            "Rosé"
        ]
    },
    {
        "id": "vaHcpRfK5tqWi4fqr5bTx",
        "name": "Whole Foods - Springfield",
        "address": {
            "street": "8402 Old Keene Mill Road, Springfield, VA 22152",
            "lat": "38.7796348",
            "lon": "-77.2343247"
        },
        "locations": "Restaurant/Retail",
        "wines": [
            "Foothills",
            "Rosé"
        ]
    },
    {
        "id": "25z6Oktt05ZSYh0SltRNR",
        "name": "Whole Foods - Old Town",
        "address": {
            "street": "1700 Duke Street, Alexandria, VA 22314",
            "lat": "38.8041416",
            "lon": "-77.0600615"
        },
        "locations": "Restaurant/Retail",
        "wines": [
            "Rosé"
        ]
    },
    {
        "id": "F1daDyHXNzMYBW1iVr0TR",
        "name": "Wine Seller - Williamsburg",
        "address": {
            "street": "4680 Monticello Ave Suite 15, Williamsburg, VA 23188",
            "lat": "37.2719211",
            "lon": "-76.7595155"
        },
        "locations": "Retail",
        "wines": [
            "Foothills",
            "Rosé"
        ]
    },
    {
        "id": "VCxqZMjltBA8TYEB11qUP",
        "name": "Wine Warehouse",
        "address": {
            "street": "1804 Hydraulic Rd, Charlottesville, VA 22902",
            "lat": "38.0607943",
            "lon": "-78.4914214"
        },
        "locations": "Retail",
        "wines": [
            "Shenandoah Valley Cabernet Franc",
            "Young Wine",
            "RISE"
        ]
    },
    {
        "id": "aO1fTYLBHTRr0cjVqKWPd",
        "name": "Zocalo",
        "address": {
            "street": "201 E Main St Suite E, Charlottesville, VA 22902",
            "lat": "38.0307918",
            "lon": "-78.4803003"
        },
        "locations": "Restaurant",
        "wines": [
            "Foothills",
            "Pétillant Naturel White",
            "Rosé"
        ]
    },
    {
        "id": "zWF5v6qlagWEEo3rDi0f7",
        "name": "Arrowine",
        "address": {
            "street": "4508 Lee Hwy, Arlington, VA 22207",
            "lat": "38.8983733",
            "lon": "-77.1183586"
        },
        "locations": "Retail",
        "wines": [
            "Rosé",
            "Foothills"
        ]
    },
    {
        "id": "fH6F-n5VFiWmS5tlWECIM",
        "name": "Bottleworks",
        "address": {
            "street": "3078 Stony Point Rd., Richmond, VA 23235",
            "lat": "37.537796",
            "lon": "-77.5651916"
        },
        "locations": "Retail",
        "wines": [
            "Chardonnay",
            "Foothills"
        ]
    },
    {
        "id": "xnL_eXZIviKQGXBg15Av8",
        "name": "Barrel Thief",
        "address": {
            "street": "5805 Patterson Ave, Richmond, VA 23226",
            "lat": "37.2235279",
            "lon": "-79.982868"
        },
        "locations": "Restaurant/Retail",
        "wines": [
            "Rosé",
            "Pétillant Naturel White"
        ]
    },
    {
        "id": "dbbyzvtnJrG2iVvoAZYMa",
        "name": "Cairo Wine & Liquor",
        "address": {
            "street": "1618 17th St NW, Washington, DC 20009",
            "lat": "38.9117809",
            "lon": "-77.0387481"
        },
        "locations": "Retail",
        "wines": [
            "Rosé"
        ]
    },
    {
        "id": "huP66SYJMNnko9Lcueq7k",
        "name": "Commonwealth Club",
        "address": {
            "street": "401 W. Franklin Street, Richmond, VA 23220",
            "lat": "37.5458434",
            "lon": "-77.447656"
        },
        "locations": "Restaurant",
        "wines": [
            "Rosé",
            "RISE"
        ]
    },
    {
        "id": "jDkZIwVqOR8fbbb8lKuic",
        "name": "Crystal Palate",
        "address": {
            "street": "4500 Pretty Lake Avenue, Norfolk, VA 23518",
            "lat": "36.925493",
            "lon": "-76.1880817"
        },
        "locations": "Retail",
        "wines": [
            "Chardonnay"
        ]
    },
    {
        "id": "0dzZRwgKuhARyAEDEdC05",
        "name": "Crystal City Wine Shop",
        "address": {
            "street": "220 20th St. South, Arlington, VA 22202",
            "lat": "38.85597",
            "lon": "-77.0500304"
        },
        "locations": "Retail",
        "wines": [
            "Petit Manseng",
            "Pétillant Naturel White",
            "Rosé",
            "Young Wine"
        ]
    },
    {
        "id": "J-xiNFigj8Fq_yUsKLXIt",
        "name": "Department of Beer & Wine",
        "address": {
            "street": "2724 Richmond Hwy, Alexandria, VA 22301",
            "lat": "38.830645",
            "lon": "-77.051175"
        },
        "locations": "Retail",
        "wines": [
            "Rosé",
            "Pétillant Naturel White"
        ]
    },
    {
        "id": "D0K0JtgXn7Z4L_DWqBE9p",
        "name": "Ellwood Thompson",
        "address": {
            "street": "4 N Thompson St, Richmond, VA 23221",
            "lat": "37.5574421",
            "lon": "-77.4886194"
        },
        "locations": "Retail",
        "wines": [
            "Foothills",
            "Shenandoah Valley Cabernet Franc",
            "Petit Manseng",
            "Quaker Run Chardonnay"
        ]
    },
    {
        "id": "XxyWnTcmHxZzKsAGWSmEZ",
        "name": "Dominion Wine and Beer",
        "address": {
            "street": "107 Rowell Ct., Falls Church, VA 22046-3126",
            "lat": "38.8897048",
            "lon": "-77.183834"
        },
        "locations": "Restaurant/Retail",
        "wines": [
            "Petit Manseng",
            "Rosé",
            "Foothills"
        ]
    },
    {
        "id": "ehfS7EF8zo5832h28z_kW",
        "name": "Founding Farmers - Reston",
        "address": {
            "street": "1904 Reston Metro Plaza, Suite 100, Reston, VA 20190",
            "lat": "38.9488917",
            "lon": "-77.3383807"
        },
        "locations": "Restaurant",
        "wines": [
            "Rosé"
        ]
    },
    {
        "id": "L9ix9ZvPBcZLE5r2_dcjl",
        "name": "Founding Farmers - Tyson's Corner",
        "address": {
            "street": "1800 Tyson's Blvd., McLean, VA 22102",
            "lat": "38.9488917",
            "lon": "-77.3383807"
        },
        "locations": "Restaurant",
        "wines": [
            "Rosé"
        ]
    },
    {
        "id": "OOxK_0mLRiWNGuPjCDdiY",
        "name": "Glen's Garden Market",
        "address": {
            "street": "2001 S St. NW, Washington, DC 20009",
            "lat": "38.9143274",
            "lon": "-77.0451575"
        },
        "locations": "Restaurant/Retail",
        "wines": [
            "Rosé",
            "Shenandoah Valley Cabernet Franc"
        ]
    },
    {
        "id": "1vhonwPYYycTZK8ByOtRy",
        "name": "Greenwood",
        "address": {
            "street": "6701 Rockfish Gap TPK, Crozet, VA 22932",
            "lat": "38.0413202",
            "lon": "-78.732343"
        },
        "locations": "Retail",
        "wines": [
            "Rosé",
            "Young Wine Chambourcin",
            "Petit Manseng"
        ]
    },
    {
        "id": "nirKQxoReg_cpN9OgwE5-",
        "name": "J Emerson",
        "address": {
            "street": "5716 Grove Ave, Richmond, VA 23226",
            "lat": "37.5733362",
            "lon": "-77.5180274"
        },
        "locations": "Retail",
        "wines": [
            "Rosé"
        ]
    },
    {
        "id": "o23jE-Z3CiSzfvqDeu0B6",
        "name": "Perch",
        "address": {
            "street": "2918 W. Broad Street, Richmond, VA 23230",
            "lat": "37.5640539",
            "lon": "-77.4719183"
        },
        "locations": "Restaurant",
        "wines": [
            "Petit Manseng",
            "Rosé"
        ]
    },
    {
        "id": "vighfUM5a8e0cvnhwx_Re",
        "name": "Planet Wine",
        "address": {
            "street": "2000-2004 Mount Vernon Ave, Alexandria, VA 22301",
            "lat": "38.8239944",
            "lon": "-77.0585361"
        },
        "locations": "Retail",
        "wines": [
            "Rosé",
            "Shenandoah Valley Cabernet Franc",
            "Young Wine"
        ]
    },
    {
        "id": "dVbeC4QkVvurV2ErXVYjC",
        "name": "Montgomery Co. Dept. of Liquor Control",
        "address": {
            "street": "Division of Financial, Gaithersburg, MD 20878",
            "lat": "39.139876",
            "lon": "-77.1926495"
        },
        "locations": "Retail",
        "wines": [
            "Rosé"
        ]
    },
    {
        "id": "fXILncLBrIHYlxaFjokaC",
        "name": "Rustico - Ballston",
        "address": {
            "street": "4075 Wilson Blvd., Arlington, VA 22203",
            "lat": "38.8803079",
            "lon": "-77.1085112"
        },
        "locations": "Restaurant",
        "wines": [
            "Rosé"
        ]
    },
    {
        "id": "4_TGwWy60B7s31pQxs295",
        "name": "Prosperity Kitchen & Pantry",
        "address": {
            "street": "532 Virginia Beach Blvd Ste B, Virginia Beach, VA 23451",
            "lat": "36.8444829",
            "lon": "-75.9806406"
        },
        "locations": "Restaurant",
        "wines": [
            "Foothills"
        ]
    },
    {
        "id": "vlg_vLnZUMdGmorTdQsQG",
        "name": "Salisbury Country Club",
        "address": {
            "street": "13620 W. Salisbury Rd, Midlothian, VA 23113",
            "lat": "37.5278854",
            "lon": "-77.6533788"
        },
        "locations": "Restaurant",
        "wines": [
            "Foothills",
            "Petit Manseng",
            "Rosé",
            "Pétillant Naturel White",
            "Five Forks",
            "Young Wine",
            "RISE"
        ]
    },
    {
        "id": "IxytCnzJ9dC0BstPPtGov",
        "name": "Saison",
        "address": {
            "street": "23 W Marshall St. Suite A, Richmond, VA 23220",
            "lat": "37.546819",
            "lon": "-77.4420934"
        },
        "locations": "Restaurant",
        "wines": [
            "Rosé",
            "Pétillant Naturel White"
        ]
    },
    {
        "id": "8CPVevbS6lyMUP-Sbt7qx",
        "name": "Stone Tower Winery",
        "address": {
            "street": "19925 Hogback Mountain Road, Leesburg, VA 20175",
            "lat": "39.063064",
            "lon": "-77.635397"
        },
        "locations": "Restaurant/Retail",
        "wines": [
            "Shenandoah Valley Cabernet Franc"
        ]
    },
    {
        "id": "jTc4J_6pFg-SOp58hdUgd",
        "name": "Taste - Headquarters",
        "address": {
            "street": "1391 Air Rail Avenue, Virginia Beach, VA 23455",
            "lat": "36.8929573",
            "lon": "-76.1918905"
        },
        "locations": "Restaurant/Retail",
        "wines": [
            "Rosé"
        ]
    },
    {
        "id": "aTxHu7Rqdsu19T29SyLOt",
        "name": "Thornton River Grille",
        "address": {
            "street": "Thornton River Grille, Sperryville, VA 22740",
            "lat": "38.6525114",
            "lon": "-78.2667447"
        },
        "locations": "Restaurant",
        "wines": [
            "Rosé"
        ]
    },
    {
        "id": "6oOT8Vvngpgy0XfKqiIRH",
        "name": "Urban Hang Suite",
        "address": {
            "street": "304 E. Broad Street, Richmond, VA 23219",
            "lat": "37.5441901",
            "lon": "-77.4388111"
        },
        "locations": "Restaurant/Retail",
        "wines": [
            "Foothills"
        ]
    },
    {
        "id": "Si0YVvUhxTfAUwoDl7PCy",
        "name": "USA Wine Imports:Good Wine",
        "address": {
            "street": "327 5th Avenue, Brooklyn, NY 11215",
            "lat": "40.6724091",
            "lon": "-73.9833358"
        },
        "locations": "Retail",
        "wines": [
            "Foothills"
        ]
    },
    {
        "id": "IlAauOj7OAhgYrh2Wdlyf",
        "name": "USA Wine Imports:Kings County Wines",
        "address": {
            "street": "1420 Cortelyou Road, Brooklyn, NY 11226",
            "lat": "40.6724091",
            "lon": "-73.9833358"
        },
        "locations": "Retail",
        "wines": [
            "Rosé"
        ]
    },
    {
        "id": "u4Z0cvLSsaIKru5WwDpyf",
        "name": "USA Wine Imports:Sorso Wine Boutique",
        "address": {
            "street": "1069 Bedford Avenue, Brooklyn, NY 11216",
            "lat": "40.6724091",
            "lon": "-73.9833358"
        },
        "locations": "Retail",
        "wines": [
            "Rosé"
        ]
    },
    {
        "id": "EB_UkEoxXQgCBBbyN6hn3",
        "name": "W2 Wines, LLC",
        "address": {
            "street": "16031 Hillsboro Road, Purcellville, VA 20132",
            "lat": "39.173889",
            "lon": "-77.725546"
        },
        "locations": "Retail",
        "wines": [
            "Petit Manseng",
            "Rosé",
            "Shenandoah Valley Cabernet Franc"
        ]
    },
    {
        "id": "yjpsjJPcXmR0t45E6Gxap",
        "name": "USA Wine Imports:Zap Wines & Spirits",
        "address": {
            "street": "105 Court Street, Brooklyn, NY 11201",
            "lat": "40.6724091",
            "lon": "-73.9833358"
        },
        "locations": "Retail",
        "wines": [
            "Foothills"
        ]
    },
    {
        "id": "4Irx-Gt_Feuan9h1sxDP7",
        "name": "Westside Produce & Provisions",
        "address": {
            "street": "5015 Colley Ave., Norfolk, VA 23508-2039",
            "lat": "36.8890919",
            "lon": "-76.2954496"
        },
        "locations": "Retail",
        "wines": [
            "Eluvium",
            "Foothills",
            "Rosé",
            "Shenandoah Valley Cabernet Franc",
            "Five Forks"
        ]
    },
    {
        "id": "Rp_2r4leOk6c5XrxAbhlY",
        "name": "Washington Street Purveyors",
        "address": {
            "street": "9 E Washington St, Lexington, VA 24450",
            "lat": "37.7845823",
            "lon": "-79.441534"
        },
        "locations": "Retail",
        "wines": [
            "Chardonnay"
        ]
    },
    {
        "id": "JlamUhCvFFsEhNnA2WyCs",
        "name": "Whole Foods - Ashburn",
        "address": {
            "street": "19800 Belmont Chase Dr, Ashburn, VA 20147",
            "lat": "39.0684834",
            "lon": "-77.4843963"
        },
        "locations": "Restaurant/Retail",
        "wines": [
            "Foothills"
        ]
    },
    {
        "id": "Pds5AZ_D1RHnb9h2NlxJb",
        "name": "Whole Foods - Charlottesville",
        "address": {
            "street": "1797 Hydraulic Road, Charlottesville, VA 22901",
            "lat": "38.059773",
            "lon": "-78.4891351"
        },
        "locations": "Restaurant/Retail",
        "wines": [
            "Foothills",
            "Rosé"
        ]
    },
    {
        "id": "5e79_UBeHSW6LwNc7m2GC",
        "name": "Wine Gourmet",
        "address": {
            "street": "3524 Electric Road, Roanoke, VA 24014-1109",
            "lat": "37.2271841",
            "lon": "-79.9984762"
        },
        "locations": "Retail",
        "wines": [
            "Rosé"
        ]
    },
    {
        "id": "oWtKeRj2yiOHBQVQhECMQ",
        "name": "Whole Foods - Boro Tysons",
        "address": {
            "street": "1635 Boro Place, McLean, VA 22102",
            "lat": "38.9246153",
            "lon": "-77.2335301"
        },
        "locations": "Restaurant/Retail",
        "wines": [
            "Rosé"
        ]
    },
    {
        "id": "cVYZCPlUXlKNfPpZ1vGIr",
        "name": "67 Liquor Shop",
        "address": {
            "street": "179 Columbus Ave, New York, NY 10023",
            "lat": "40.7746082",
            "lon": "-73.9805925"
        },
        "locations": "Retail",
        "wines": [
            "Rosé"
        ]
    },
    {
        "id": "qmQzlgZ2sIgc9DxSYEKqt",
        "name": "Alewife",
        "address": {
            "street": "3120 E Marshall St., Richmond, VA 23223-7437",
            "lat": "37.5288799",
            "lon": "-77.4116006"
        },
        "locations": "Restaurant",
        "wines": [
            "Pétillant Naturel White"
        ]
    },
    {
        "id": "ZjlxyUcnszq67S10BaR_N",
        "name": "Arrowine",
        "address": {
            "street": "4508 Lee Hwy, Arlington, VA 22207",
            "lat": "38.8983733",
            "lon": "-77.1183586"
        },
        "locations": "Retail",
        "wines": [
            "Rosé"
        ]
    },
    {
        "id": "eqiXD0Tzmrx-DMxNmO5n7",
        "name": "Broken Tulip",
        "address": {
            "street": "3129 W. Cary Street, Richmond, VA 23221",
            "lat": "37.5532674",
            "lon": "-77.481503"
        },
        "locations": "Restaurant",
        "wines": [
            "Pétillant Naturel White",
            "Young Wine Chambourcin"
        ]
    },
    {
        "id": "B6nmoWjpLLAmNzoH4rUKL",
        "name": "Blacksburg Wine Lab",
        "address": {
            "street": "400 Turner St. NW, Blacksburg, VA 24060",
            "lat": "37.2331938",
            "lon": "-80.421742"
        },
        "locations": "Restaurant",
        "wines": [
            "Foothills"
        ]
    },
    {
        "id": "Cw9AMFcKfEC10UOxg3_oT",
        "name": "Buck's Fishing",
        "address": {
            "street": "5031 Connecticut Ave NW, Washington, DC 20008",
            "lat": "38.955832",
            "lon": "-77.0698701"
        },
        "locations": "Restaurant",
        "wines": [
            "Rosé"
        ]
    },
    {
        "id": "QZYGmQdr-pbHLxEU0KSPa",
        "name": "Common House",
        "address": {
            "street": "206 West Market Street, Charlottesville, VA 22902",
            "lat": "38.0317194",
            "lon": "-78.4822538"
        },
        "locations": "Restaurant",
        "wines": [
            "Eluvium",
            "Petit Manseng",
            "Rosé",
            "Pétillant Naturel White"
        ]
    },
    {
        "id": "_0z71eqrhTtuN2nmwjyUL",
        "name": "Chain Bridge Cellars",
        "address": {
            "street": "1351 Chain Bridge Rd, McLean, VA 22101",
            "lat": "38.9385421",
            "lon": "-77.1746454"
        },
        "locations": "Retail",
        "wines": [
            "Foothills"
        ]
    },
    {
        "id": "8F1cB4lKrx0mlnJevorrp",
        "name": "Crystal City Wine Shop",
        "address": {
            "street": "220 20th St. South, Arlington, VA 22202",
            "lat": "38.85597",
            "lon": "-77.0500304"
        },
        "locations": "Retail",
        "wines": [
            "Rosé"
        ]
    },
    {
        "id": "_yUlpWZJvxwVu4SAFzUVu",
        "name": "Ellwood Thompson",
        "address": {
            "street": "4 N Thompson St, Richmond, VA 23221",
            "lat": "37.5574421",
            "lon": "-77.4886194"
        },
        "locations": "Retail",
        "wines": [
            "Rosé"
        ]
    },
    {
        "id": "IdR3M4OWSIDX7W7OG9tk0",
        "name": "Grisette",
        "address": {
            "street": "3119 East Marshall Street, Richmond, VA 23223",
            "lat": "37.528621",
            "lon": "-77.4119182"
        },
        "locations": "Restaurant",
        "wines": [
            "Petit Manseng"
        ]
    },
    {
        "id": "2N2MDq7MyGwYcMVTG0xO-",
        "name": "Heirloom Café",
        "address": {
            "street": "815 N Chase St, Athens, GA 30601",
            "lat": "33.9663133",
            "lon": "-83.3931064"
        },
        "locations": "Restaurant/Retail",
        "wines": [
            "Rosé"
        ]
    },
    {
        "id": "zZXO_q45wvTK9Hbu4IJA3",
        "name": "La Fromagerie",
        "address": {
            "street": "1222 King St, Alexandria, VA 22314-2927",
            "lat": "38.805648",
            "lon": "-77.053429"
        },
        "locations": "Restaurant/Retail",
        "wines": [
            "Pétillant Naturel White",
            "Quaker Run Chardonnay",
            "Rosé"
        ]
    },
    {
        "id": "fIf3reZS6Tby4SjCRlC14",
        "name": "Libbie Market",
        "address": {
            "street": "400 Libbie Ave., Richmond, VA 23226",
            "lat": "37.5746309",
            "lon": "-77.5183971"
        },
        "locations": "Retail",
        "wines": [
            "Eluvium",
            "Rosé"
        ]
    },
    {
        "id": "uWLe4sRP6aaNqVS4qopKC",
        "name": "Kings County Wines",
        "address": {
            "street": "1420 Cortelyou Rd, Brooklyn, NY 11226",
            "lat": "40.6409745",
            "lon": "-73.9644848"
        },
        "locations": "Retail",
        "wines": [
            "Foothills"
        ]
    },
    {
        "id": "_1IgzD8Qq4_TiCo5S5jSq",
        "name": "Market Street Wine Shop",
        "address": {
            "street": "311 East Market St, Charlottesville, VA 22902",
            "lat": "38.0310663",
            "lon": "-78.4789692"
        },
        "locations": "Retail",
        "wines": [
            "Foothills",
            "Pétillant Naturel White",
            "Rosé"
        ]
    },
    {
        "id": "3x5sNaCHgXqid89C5M5al",
        "name": "Locke Store",
        "address": {
            "street": "2049 Millwood Rd., Millwood, VA 22646",
            "lat": "39.0695452",
            "lon": "-78.0379379"
        },
        "locations": "Retail",
        "wines": [
            "Pétillant Naturel White"
        ]
    },
    {
        "id": "7DJy3Fswa_GPn64pepDiX",
        "name": "Mount Airy Winegrowers LLC",
        "address": {
            "street": "1609 Lee Highway, Fort Defiance, VA 24437",
            "lat": "38.2353215",
            "lon": "-78.976582"
        },
        "locations": "Retail",
        "wines": [
            "Pétillant Naturel White"
        ]
    },
    {
        "id": "2rZI0zftAESWn9KpVo7pP",
        "name": "Newtown Baking",
        "address": {
            "street": "960 W Beverlely Street, Staunton, VA 244001",
            "lat": "38.1496916",
            "lon": "-79.0738108"
        },
        "locations": "Retail",
        "wines": [
            "Foothills"
        ]
    },
    {
        "id": "dDy7Y41NQgcwepHUP0uXO",
        "name": "Rio Hill Wine & Beer",
        "address": {
            "street": "1908 Rio Hill Center, Charlottesville, VA 22901",
            "lat": "38.0877905",
            "lon": "-78.4749043"
        },
        "locations": "Retail",
        "wines": [
            "Foothills",
            "Shenandoah Valley Cabernet Franc"
        ]
    },
    {
        "id": "wmTFZcM-olOwkoCQBIrTW",
        "name": "Odd Provisions",
        "address": {
            "street": "3301 11th Street NW, Washington, DC 20010",
            "lat": "38.9309006",
            "lon": "-77.0278015"
        },
        "locations": "Retail",
        "wines": [
            "Rosé",
            "Pétillant Naturel White"
        ]
    },
    {
        "id": "ySeiek88p-XSWUL8JJl0n",
        "name": "Salisbury Country Club",
        "address": {
            "street": "13620 W. Salisbury Rd, Midlothian, VA 23113",
            "lat": "37.5278854",
            "lon": "-77.6533788"
        },
        "locations": "Restaurant",
        "wines": [
            "Rosé",
            "Shenandoah Valley Cabernet Franc"
        ]
    },
    {
        "id": "uxwh8y9LPnqTN0Pm7bVLb",
        "name": "Screwtop",
        "address": {
            "street": "1025 Fillmore St. N, Arlington, VA 22201",
            "lat": "38.8859072",
            "lon": "-77.0926894"
        },
        "locations": "Restaurant/Retail",
        "wines": [
            "Rosé",
            "Eluvium"
        ]
    },
    {
        "id": "Sd1jv3wjmf2C6W4sFWbx7",
        "name": "Unwined Belle View",
        "address": {
            "street": "1600 Belle View Blvd., Alexandria, VA 22307",
            "lat": "38.7761672",
            "lon": "-77.0597746"
        },
        "locations": "Retail",
        "wines": [
            "Shenandoah Valley Cabernet Franc",
            "Eluvium"
        ]
    },
    {
        "id": "wCTEAsC4vDQsPHNkylcQi",
        "name": "Unwined Bradlee Shopping Center",
        "address": {
            "street": "3690-J King St, Alexandria, VA 22302",
            "lat": "38.8296628",
            "lon": "-77.0921948"
        },
        "locations": "Retail",
        "wines": [
            "Rosé"
        ]
    },
    {
        "id": "cKGBrT5ddpMofL37mOcYz",
        "name": "Vino Market",
        "address": {
            "street": "3730 Winterfield Rd., Midlothian, VA 23113",
            "lat": "37.5535346",
            "lon": "-77.6685934"
        },
        "locations": "Retail",
        "wines": [
            "Rosé"
        ]
    },
    {
        "id": "pYnYY_Z7_2xV4vGkl_AWf",
        "name": "Vintage Cellar",
        "address": {
            "street": "1338 South Main St., Blacksburg, VA 24060",
            "lat": "37.215963",
            "lon": "-80.402101"
        },
        "locations": "Retail",
        "wines": [
            "Foothills"
        ]
    },
    {
        "id": "jvuILxqC5r2N3LeM88SQ9",
        "name": "Vyne Yard",
        "address": {
            "street": "594 Rogers Ave, Brooklyn, NY 11225",
            "lat": "40.6571942",
            "lon": "-73.9534567"
        },
        "locations": "Retail",
        "wines": [
            "Rosé"
        ]
    },
    {
        "id": "6koeryurxJwWZvKejKFkx",
        "name": "Whole Foods - West Broad",
        "address": {
            "street": "2024 W Broad Street, Richmond, VA 23220",
            "lat": "37.5581958",
            "lon": "-77.4612166"
        },
        "locations": "Restaurant/Retail",
        "wines": [
            "Rosé"
        ]
    },
    {
        "id": "p-p4KFHwJ578uhTo0Jn1A",
        "name": "Wine Seller - Williamsburg",
        "address": {
            "street": "4680 Monticello Ave Suite 15, Williamsburg, VA 23188",
            "lat": "37.2719211",
            "lon": "-76.7595155"
        },
        "locations": "Retail",
        "wines": [
            "Rosé"
        ]
    },
    {
        "id": "2azAh_mSzDS6B7m8H0_Wt",
        "name": "Barrel Chest",
        "address": {
            "street": "4035 Electric Rd. #B, Roanoke, VA 24018",
            "lat": "37.2235279",
            "lon": "-79.982868"
        },
        "locations": "Retail",
        "wines": [
            "Five Forks"
        ]
    },
    {
        "id": "2Ga3Q-zUEnbuYQ0tNDKfT",
        "name": "Blanca",
        "address": {
            "street": "4117 Granby St Ste A, Norfolk, VA 23504",
            "lat": "36.8846514",
            "lon": "-76.2818304"
        },
        "locations": "Restaurant",
        "wines": [
            "Petit Manseng"
        ]
    },
    {
        "id": "6UXM7jH-MmyVz_FoqcuL3",
        "name": "City Vino",
        "address": {
            "street": "810 Caroline St Suite 101, Fredericksburg, VA 22401",
            "lat": "38.3019961",
            "lon": "-77.4590376"
        },
        "locations": "Retail",
        "wines": [
            "Rosé",
            "Eluvium",
            "Young Wine",
            "Five Forks"
        ]
    },
    {
        "id": "H7T4ejZQlIQ-hnLUtieAT",
        "name": "Caboose",
        "address": {
            "street": "108 S. Railroad Ave., Ashland, VA 23005",
            "lat": "37.758286",
            "lon": "-77.4816338"
        },
        "locations": "Restaurant/Retail",
        "wines": [
            "Foothills"
        ]
    },
    {
        "id": "sYsMZy_ADdvbk6IkjPqdQ",
        "name": "Common House",
        "address": {
            "street": "206 West Market Street, Charlottesville, VA 22902",
            "lat": "38.0317194",
            "lon": "-78.4822538"
        },
        "locations": "Restaurant",
        "wines": [
            "Rosé"
        ]
    },
    {
        "id": "xXEr32hEDmBOjwCGv08ge",
        "name": "Commune - Virginia Beach",
        "address": {
            "street": "501 Virginia Beach Blvd. Ste. B, Virginia Beach, VA 23451",
            "lat": "36.8441296",
            "lon": "-75.9793877"
        },
        "locations": "Restaurant",
        "wines": [
            "Foothills"
        ]
    },
    {
        "id": "F0I3tPfPXK4gmsLaJ3Xdv",
        "name": "Fat Canary",
        "address": {
            "street": "The Cheese Shop of VA, Inc., Williamsburg, VA 23185",
            "lat": "37.2706994",
            "lon": "-76.7061859"
        },
        "locations": "Restaurant",
        "wines": [
            "Five Forks"
        ]
    },
    {
        "id": "XfO48dXoZouUDQ3NTLOMY",
        "name": "Field & Main",
        "address": {
            "street": "8369 W. Main St., Marshall, VA 20115",
            "lat": "38.8647631",
            "lon": "-77.8574303"
        },
        "locations": "Restaurant/Retail",
        "wines": [
            "Red Vine"
        ]
    },
    {
        "id": "u7DtE9MpUPbrLJERHtuvU",
        "name": "Foods of All Nations",
        "address": {
            "street": "2121 Ivy Rd, Charlottesville, VA 22903",
            "lat": "38.0432978",
            "lon": "-78.5119067"
        },
        "locations": "Retail",
        "wines": [
            "Foothills"
        ]
    },
    {
        "id": "wpVOYbAmJE1l0Q3ZwI5rM",
        "name": "Founding Farmers - DC",
        "address": {
            "street": "1924 Pennsylvania Ave. NW, Washington, DC 20006",
            "lat": "38.9002854",
            "lon": "-77.0445269"
        },
        "locations": "Restaurant",
        "wines": [
            "Rosé"
        ]
    },
    {
        "id": "eWmit0eVwKPV33eJJjx3B",
        "name": "Fort Lewis Lodge",
        "address": {
            "street": "603 Old Plantation Way, Millboro, VA 24460",
            "lat": "38.114054",
            "lon": "-79.6110139"
        },
        "locations": "Retail",
        "wines": [
            "Foothills",
            "Young Wine"
        ]
    },
    {
        "id": "a_6q3pu72tYDx8d_UvuKi",
        "name": "Founding Farmers - Tyson's Corner",
        "address": {
            "street": "1800 Tyson's Blvd., McLean, VA 22102",
            "lat": "38.9223637",
            "lon": "-77.2224625"
        },
        "locations": "Restaurant",
        "wines": [
            "Rosé"
        ]
    },
    {
        "id": "oo67kJHafNKsyZOwchb6f",
        "name": "Frankly Wines",
        "address": {
            "street": "66 West Broadway, New York, NY 10007",
            "lat": "40.7146846",
            "lon": "-74.0101186"
        },
        "locations": "Retail",
        "wines": [
            "Rosé"
        ]
    },
    {
        "id": "lgA18haVS8GnDJSpZSb1U",
        "name": "Friendly City Food Co-op",
        "address": {
            "street": "150 E Wolfe St, Harrisonburg, VA 22802",
            "lat": "38.4516609",
            "lon": "-78.8665291"
        },
        "locations": "Retail",
        "wines": [
            "Pétillant Naturel White"
        ]
    },
    {
        "id": "iDofiPmjPE7q2vokoyXhp",
        "name": "Jackson River Cellars",
        "address": {
            "street": "180 Oakley Farm Ln, Warm Springs, VA 24484",
            "lat": "38.0425248",
            "lon": "-79.7906726"
        },
        "locations": "Retail",
        "wines": [
            "Young Wine",
            "Pétillant Naturel White"
        ]
    },
    {
        "id": "_ssdT6VDA5hvRRoFHt6T9",
        "name": "Good Wine",
        "address": {
            "street": "327 5th Avenue, Brooklyn, NY 11215",
            "lat": "40.6724091",
            "lon": "-73.9833358"
        },
        "locations": "Retail",
        "wines": [
            "Rosé"
        ]
    },
    {
        "id": "v0rG3m2dBWblqegux3bNq",
        "name": "Libbie Market",
        "address": {
            "street": "400 Libbie Ave., Richmond, VA 23226",
            "lat": "37.5746309",
            "lon": "-77.5183971"
        },
        "locations": "Retail",
        "wines": [
            "Eluvium"
        ]
    },
    {
        "id": "LLU_3F1tl3XpFCJVlh6Xp",
        "name": "Little Red Fox",
        "address": {
            "street": "5035 Connecticut Ave. NW, Washington, DC 20008",
            "lat": "38.9558822",
            "lon": "-77.0699601"
        },
        "locations": "Restaurant/Retail",
        "wines": [
            "Pétillant Naturel White"
        ]
    },
    {
        "id": "SybMqNZPTe4hhLquTyPxi",
        "name": "Norm's Beer & Wine",
        "address": {
            "street": "136 Branch Rd SE, Vienna, VA 22180",
            "lat": "38.9062317",
            "lon": "-77.257151"
        },
        "locations": "Retail",
        "wines": [
            "Rosé"
        ]
    },
    {
        "id": "i5PU85U-XdPsM6oXKWYD5",
        "name": "Nota Bene",
        "address": {
            "street": "2110 E Main St., Richmond, VA 23223",
            "lat": "37.5311605",
            "lon": "-77.4243981"
        },
        "locations": "Restaurant",
        "wines": [
            "Five Forks"
        ]
    },
    {
        "id": "Zn4JKXNvuXw4AnYIE3Hi6",
        "name": "Pendulum Fine Meats",
        "address": {
            "street": "820 Shirley Avenue, Norfolk, VA 23517",
            "lat": "36.8683635",
            "lon": "-76.2987524"
        },
        "locations": "Retail",
        "wines": [
            "Rosé"
        ]
    },
    {
        "id": "w87PA6eKCh_WCpuFkLDHu",
        "name": "Red Hen-DC",
        "address": {
            "street": "1822 1st St. NW, Washington, DC 20001",
            "lat": "38.9149738",
            "lon": "-77.0124095"
        },
        "locations": "Restaurant",
        "wines": [
            "Rosé"
        ]
    },
    {
        "id": "mV1QFZjzxslxz4U8iTRqO",
        "name": "Succotash",
        "address": {
            "street": "915 F St. NW, Washington, DC 20004",
            "lat": "38.897644",
            "lon": "-77.02474"
        },
        "locations": "Restaurant",
        "wines": [
            "Five Forks"
        ]
    },
    {
        "id": "tBBzoumzcTIOy7C-Rj8zc",
        "name": "The Inn at Meander Plantation",
        "address": {
            "street": "2333 N James Madison Hwy, Locust Dale, VA 22948",
            "lat": "38.3494656",
            "lon": "-78.118313"
        },
        "locations": "Restaurant",
        "wines": [
            "Rosé",
            "Petit Manseng",
            "Foothills",
            "Shenandoah Valley Cabernet Franc"
        ]
    },
    {
        "id": "_JV30DIsF_FOPlFdKfPIQ",
        "name": "The Market at Grelen",
        "address": {
            "street": "15091 Yager Rd, Somerset, VA 22972",
            "lat": "38.199417",
            "lon": "-78.194607"
        },
        "locations": "Restaurant/Retail",
        "wines": [
            "Rosé",
            "Chardonnay"
        ]
    },
    {
        "id": "CGEJ0IGv9HUYjvpd94O_C",
        "name": "Town Duck",
        "address": {
            "street": "100 Main St, Warrenton, VA 20186",
            "lat": "38.7122701",
            "lon": "-77.7930779"
        },
        "locations": "Retail",
        "wines": [
            "Foothills",
            "Five Forks"
        ]
    },
    {
        "id": "EAQ9CQAGI4nrhfS9VWIfR",
        "name": "Thamee",
        "address": {
            "street": "1320 H St NE, Washington, DC 20002",
            "lat": "38.9004226",
            "lon": "-76.9874602"
        },
        "locations": "Restaurant",
        "wines": [
            "Young Wine"
        ]
    },
    {
        "id": "YGPuhJEvHmALbFnvtvxbq",
        "name": "Westside Produce & Provisions",
        "address": {
            "street": "5015 Colley Ave., Norfolk, VA 23508",
            "lat": "36.8890919",
            "lon": "-76.2954496"
        },
        "locations": "Retail",
        "wines": [
            "Chardonnay"
        ]
    },
    {
        "id": "J-wGy3PnIuCmFoI-nEwxG",
        "name": "Whole Foods - Arlington",
        "address": {
            "street": "2700 Wilson Blvd., Arlington, VA 22201",
            "lat": "38.8892254",
            "lon": "-77.0912401"
        },
        "locations": "Restaurant/Retail",
        "wines": [
            "Five Forks"
        ]
    },
    {
        "id": "Mj9FCXYGoQAj_AXfLnRjA",
        "name": "Whole Foods - Short Pump",
        "address": {
            "street": "11173 West Broad St., Richmond, VA 23060",
            "lat": "37.6475665",
            "lon": "-77.5997292"
        },
        "locations": "Restaurant/Retail",
        "wines": [
            "Foothills"
        ]
    },
    {
        "id": "EMckd-DplScU9icBaGqZc",
        "name": "Whole Foods - South Capitol Hill",
        "address": {
            "street": "101 H St. SE, Washington, DC 20003",
            "lat": "38.8802819",
            "lon": "-77.005121"
        },
        "locations": "Restaurant/Retail",
        "wines": [
            "Rosé",
            "Five Forks"
        ]
    },
    {
        "id": "3AfQ6pXJhYHS6T_me5f7j",
        "name": "Wine Guild",
        "address": {
            "street": "221 Carlton Rd, Suite 1, Charlottesville, VA 22902",
            "lat": "38.0236619",
            "lon": "-78.4696887"
        },
        "locations": "Retail",
        "wines": [
            "Young Wine",
            "Rosé"
        ]
    },
    {
        "id": "cIqfwD4TtUS4bCTfr8l2H",
        "name": "Wool Factory, The",
        "address": {
            "street": "1837 Broadway Street, Charlottesville, VA 22902",
            "lat": "38.0201796",
            "lon": "-78.4580027"
        },
        "locations": "Restaurant/Retail",
        "wines": [
            "Foothills",
            "Rosé",
            "Eluvium",
            "Five Forks",
            "Pétillant Naturel White",
            "Young Wine"
        ]
    },
    {
        "id": "NIV29GcQqs0jyv984ItQM",
        "name": "Williamsburg Winery",
        "address": {
            "street": "5800 Wessex Hundred, Williamsburg, VA 23185",
            "lat": "37.2315138",
            "lon": "-76.718275"
        },
        "locations": "Restaurant/Retail",
        "wines": [
            "Rosé",
            "Eluvium"
        ]
    },
    {
        "id": "kjoTLbo4Dfn8Hh6bDQiqw",
        "name": "Copake Wine Works",
        "address": {
            "street": "69 Main St, Copake, NY 12516",
            "lat": "42.1040725",
            "lon": "-73.5494551"
        },
        "locations": "Restaurant/Retail",
        "wines": [
            "Chardonnay"
        ]
    },
    {
        "id": "ErWteDoxCTuRsFzNlaNCF",
        "name": "Olivino",
        "address": {
            "street": "905 Fulton Street, Broooklyn, NY 11238",
            "lat": "40.6837237",
            "lon": "-73.9671635"
        },
        "locations": "Retail",
        "wines": [
            "Chardonnay",
            "Rosé"
        ]
    },
    {
        "id": "RSYQ3AGDeaPx0GHAD0EW9",
        "name": "Buckhead's Chop House",
        "address": {
            "street": "8510 Patterson Ave., Richmond, VA 23229",
            "lat": "37.5951667",
            "lon": "-77.5639423"
        },
        "locations": "Restaurant",
        "wines": [
            "Eluvium"
        ]
    },
    {
        "id": "ZsbcXQ5lGXZpRTJ1mutpC",
        "name": "Lafayette Inn",
        "address": {
            "street": "146 Main St, Stanardsville, VA 22973",
            "lat": "38.2973151",
            "lon": "-78.4385435"
        },
        "locations": "Restaurant",
        "wines": [
            "Eluvium",
            "Five Forks",
            "Shenandoah Valley Cabernet Franc"
        ]
    },
    {
        "id": "ys-k1eZxXNr0mDy5UmB5P",
        "name": "Mom's Apple Pie",
        "address": {
            "street": "126 A Commerce St, Occoquan Historic Dist., VA 22125",
            "lat": "38.6822873",
            "lon": "-77.2600693"
        },
        "locations": "Retail",
        "wines": [
            "Eluvium",
            "Pétillant Naturel White",
            "Petit Manseng"
        ]
    },
    {
        "id": "ogk7d_tiJwDQGrzkeAzz5",
        "name": "Mom's Apple Pie Hill High",
        "address": {
            "street": "35246 Harry Byrd Hwy Ste. 100, Round Hill, VA 20141",
            "lat": "39.1277991",
            "lon": "-77.7873132"
        },
        "locations": "Retail",
        "wines": [
            "Eluvium",
            "Pétillant Naturel White"
        ]
    },
    {
        "id": "sfAjii8o8HK3Y-zjOXkRu",
        "name": "Roosevelt",
        "address": {
            "street": "623 N. 25th St., Richmond, VA 23223",
            "lat": "37.534897",
            "lon": "-77.4154189"
        },
        "locations": "Restaurant",
        "wines": [
            "Five Forks"
        ]
    },
    {
        "id": "yf_MXyeqRKYED1dJMSSA_",
        "name": "Tall Boy Beverage Co.",
        "address": {
            "street": "2095 South Milledge, Athens, GA 30605",
            "lat": "33.9229175",
            "lon": "-83.377894"
        },
        "locations": "Restaurant/Retail",
        "wines": [
            "Five Forks",
            "Rosé"
        ]
    },
    {
        "id": "vmNI5iuqJt4EqANvo8VzU",
        "name": "Whole Foods - Florida Ave",
        "address": {
            "street": "FAV - BU# 10651, Washington, DC 20001",
            "lat": "38.912068",
            "lon": "-77.0190228"
        },
        "locations": "Restaurant/Retail",
        "wines": [
            "Five Forks",
            "Rosé"
        ]
    },
    {
        "id": "jtgtqScLogF_vNFJias5s",
        "name": "Whole Foods - Tenley",
        "address": {
            "street": "4530 40th Street NW, Washington, DC 20016",
            "lat": "38.9490789",
            "lon": "-77.0792007"
        },
        "locations": "Restaurant/Retail",
        "wines": [
            "Five Forks"
        ]
    },
    {
        "id": "1_1CGYgrRF0mBNQRy-diR",
        "name": "Wool Factory, The",
        "address": {
            "street": "1837 Broadway Street, Charlottesville, VA 22902",
            "lat": "38.0195964",
            "lon": "-78.4553634"
        },
        "locations": "Restaurant/Retail",
        "wines": [
            "Five Forks",
            "Foothills",
            "Rosé",
            "Young Wine"
        ]
    },
    {
        "id": "rjHFeWiN3erU4UyICcZlp",
        "name": "Shields Market",
        "address": {
            "street": "206 North Shields Avenue, Richmond, VA 23220",
            "lat": "37.5530887",
            "lon": "-77.4668696"
        },
        "locations": "Restaurant/Retail",
        "wines": [
            "Foothills"
        ]
    },
    {
        "id": "80QbwB7U7xwsQCIiRUfUR",
        "name": "Irving Bottle",
        "address": {
            "street": "155 Irving Ave, Brooklyn, NY 11237",
            "lat": "40.7026833",
            "lon": "-73.9205791"
        },
        "locations": "Retail",
        "wines": [
            "Pétillant Naturel White",
            "Young Wine"
        ]
    },
    {
        "id": "-RatH9GCl_vkJNWg3_cA-",
        "name": "Mom's Apple Pie Hill High",
        "address": {
            "street": "35246 Harry Byrd Hwy Ste. 100, Round Hill, VA 20141",
            "lat": "39.1277991",
            "lon": "-77.7873132"
        },
        "locations": "Retail",
        "wines": [
            "Petit Manseng"
        ]
    },
    {
        "id": "ChzOslmuG4xbSQlDfmaEs",
        "name": "Slope Cellars",
        "address": {
            "street": "436 7th Ave, Brooklyn, NY 11215",
            "lat": "40.6635697",
            "lon": "-73.9846443"
        },
        "locations": "Restaurant/Retail",
        "wines": [
            "Quaker Run Chardonnay",
            "Young Wine"
        ]
    },
    {
        "id": "FkyOmFFmqB194ZROj4JPD",
        "name": "All Purpose Pizzeria - Waterfront",
        "address": {
            "street": "79 Potomac Ave SE, Washington, DC 20003",
            "lat": "38.871234",
            "lon": "-77.0072947"
        },
        "locations": "Restaurant",
        "wines": [
            "Rosé"
        ]
    },
    {
        "id": "F5Z-kxjR9JQuwZ_uGvQiP",
        "name": "Barcelona Wine Store",
        "address": {
            "street": "280 Elizabeth Street, Atlanta, GA 30307",
            "lat": "33.7620933",
            "lon": "-84.3583112"
        },
        "locations": "Restaurant/Retail",
        "wines": [
            "Rosé"
        ]
    },
    {
        "id": "s5BcLEbYZrLDbDmDEws_7",
        "name": "Glen Manor Vineyards LLC",
        "address": {
            "street": "2244 Browntown Road, Front Royal, VA 22630",
            "lat": "38.840197",
            "lon": "-78.228299"
        },
        "locations": "Restaurant",
        "wines": [
            "Rosé"
        ]
    },
    {
        "id": "UFooNxq4Z1zcR1_ZbUCot",
        "name": "Kinship",
        "address": {
            "street": "1015 7th St NW, Washington, DC 20001",
            "lat": "38.9035135",
            "lon": "-77.0216296"
        },
        "locations": "Restaurant",
        "wines": [
            "Rosé"
        ]
    },
    {
        "id": "cgOBe9FrrTGDCbpC4RJ8c",
        "name": "My Friends Bottle Shop",
        "address": {
            "street": "275 Memorial Drive SE, Atlanta, GA 30312",
            "lat": "33.7464701",
            "lon": "-84.3784358"
        },
        "locations": "Restaurant/Retail",
        "wines": [
            "Rosé"
        ]
    },
    {
        "id": "VMQHI5C-ASvKJtGHnXDEB",
        "name": "Sorso Wine Boutique",
        "address": {
            "street": "1069 Bedford Ave, Brooklyn, NY 11216",
            "lat": "40.6874318",
            "lon": "-73.954402"
        },
        "locations": "Retail",
        "wines": [
            "Rosé",
            "RISE"
        ]
    },
    {
        "id": "fdDsUH4uiGR99yztRGRqT",
        "name": "Red Hen-DC",
        "address": {
            "street": "1822 1st St. NW, Washington, DC 20001",
            "lat": "38.9149738",
            "lon": "-77.0124095"
        },
        "locations": "Restaurant",
        "wines": [
            "Rosé"
        ]
    },
    {
        "id": "YJt20ZWVME_Zor1-1E2Ej",
        "name": "Whole Foods - Charlottesville",
        "address": {
            "street": "1797 Hydraulic Road, Charlottesville, VA 22901",
            "lat": "38.059773",
            "lon": "-78.4891351"
        },
        "locations": "Restaurant/Retail",
        "wines": [
            "Rosé"
        ]
    },
    {
        "id": "_l7smMpA9sCq8hWeAAtvx",
        "name": "Whole Foods - Old Town",
        "address": {
            "street": "1700 Duke Street, Alexandria, VA 22314",
            "lat": "38.8041416",
            "lon": "-77.0600615"
        },
        "locations": "Restaurant/Retail",
        "wines": [
            "Rosé"
        ]
    },
    {
        "id": "_pu9mbNaSeAqTLVeWKWHC",
        "name": "Whole Foods - Florida Ave",
        "address": {
            "street": "FAV - BU# 10651, Washington, DC 20001",
            "lat": "38.912068",
            "lon": "-77.0190228"
        },
        "locations": "Restaurant/Retail",
        "wines": [
            "Rosé"
        ]
    },
    {
        "id": "9MAvHbrNhy0sZnKuiCZ91",
        "name": "Whole Foods - South Capitol Hill",
        "address": {
            "street": "101 H St. SE, Washington, DC 20003",
            "lat": "38.8802819",
            "lon": "-77.005121"
        },
        "locations": "Restaurant/Retail",
        "wines": [
            "Rosé"
        ]
    },
    {
        "id": "zSX1yWsRBfN_BwPq4FIHU",
        "name": "Primland Resort",
        "address": {
            "street": "2000 Busted Rock Road, Meadows of Dan, VA 24120",
            "lat": "36.6617827",
            "lon": "-80.4318697"
        },
        "locations": "Restaurant",
        "wines": [
            "Shenandoah Valley Cabernet Franc"
        ]
    },