[
    {
        "id": "sHrLvl4iq0jEWJSpfnqS8",
        "name": "Main (The)",
        "address": {
            "street": "100 E. Main Street, Norfolk, VA 23510",
            "lat": "36.8464518",
            "lon": "-76.2921155"
        },
        "locations": "Restaurant",
        "wines": [
            "RISE"
        ]
    },
    {
        "id": "nQSILzRIPKWVoYtt2INFP",
        "name": "Town Duck",
        "address": {
            "street": "100 Main St, Warrenton, VA 20186",
            "lat": "38.7122701",
            "lon": "-77.7930779"
        },
        "locations": "Retail",
        "wines": [
            "Foothills",
            "Rosé"
        ]
    },
    {
        "id": "zvR-z13dl_cWMWwbp7H7y",
        "name": "Jefferson Hotel",
        "address": {
            "street": "101 W Franklin St, Richmond, VA 23220",
            "lat": "37.5442364",
            "lon": "-77.4454155"
        },
        "locations": "Restaurant",
        "wines": [
            "Eluvium",
            "Foothills"
        ]
    },
    {
        "id": "mVnRFoBih_40ohgfVqoKd",
        "name": "Screwtop",
        "address": {
            "street": "1025 Fillmore St. N, Arlington, VA 22201",
            "lat": "38.8859072",
            "lon": "-77.0926894"
        },
        "locations": "Restaurant/Retail",
        "wines": [
            "Rosé",
            "Foothills"
        ]
    },
    {
        "id": "qgrJANmnxdZSnWoaKIKwC",
        "name": "One Eared Stag",
        "address": {
            "street": "1029 Edgewood Ave NE, Atlanta, GA 30374",
            "lat": "33.7572073",
            "lon": "-84.3541197"
        },
        "locations": "Restaurant",
        "wines": [
            "Eluvium",
            "Petit Manseng"
        ]
    },
    {
        "id": "UhWwCskDzpMSfHSGUxSak",
        "name": "Hamilton's",
        "address": {
            "street": "101 W Main St, Charlottesville, VA 22902",
            "lat": "38.030928",
            "lon": "-78.4815455"
        },
        "locations": "Restaurant",
        "wines": [
            "Petit Manseng"
        ]
    },
    {
        "id": "12EDabQ3nnINj690h6bUm",
        "name": "USA Wine Imports:Zap Wines & Spirits",
        "address": {
            "street": "105 Court Street, Brooklyn, NY 11201",
            "lat": "40.6724091",
            "lon": "-73.9833358"
        },
        "locations": "Retail",
        "wines": [
            "Foothills"
        ]
    },
    {
        "id": "kl332hwgIOK5ldV4IaRkx",
        "name": "Shack, The",
        "address": {
            "street": "105 S. Coalter St., Staunton, VA 24401",
            "lat": "38.148151",
            "lon": "-79.0681357"
        },
        "locations": "Restaurant",
        "wines": [
            "Foothills",
            "Chardonnay",
            "Five Forks"
        ]
    },
    {
        "id": "6nbiQcCjfnjidlX52XmD8",
        "name": "South Street Brewery",
        "address": {
            "street": "106 South St., Charlottesville, VA 22902",
            "lat": "38.029338",
            "lon": "-78.482687"
        },
        "locations": "Restaurant",
        "wines": [
            "Chardonnay",
            "Foothills"
        ]
    },
    {
        "id": "ru2ETFNUWq7s0ReDV0EXc",
        "name": "Sorso Wine Boutique",
        "address": {
            "street": "1069 Bedford Ave, Brooklyn, NY 11216",
            "lat": "40.6874318",
            "lon": "-73.954402"
        },
        "locations": "Restaurant/Retail",
        "wines": [
            "RISE"
        ]
    },
    {
        "id": "ERC-sXcKivnpt2gngHlAR",
        "name": "Zap Wines & Spirits",
        "address": {
            "street": "105 Court Street, Brooklyn, NY 11201",
            "lat": "40.6907763",
            "lon": "-73.9915424"
        },
        "locations": "Retail",
        "wines": [
            "Young Wine Chambourcin"
        ]
    },
    {
        "id": "sWQOAdChaLLXveLOCXxZz",
        "name": "Dominion Wine and Beer",
        "address": {
            "street": "107 Rowell Ct., Falls Church, VA 22046",
            "lat": "38.8897048",
            "lon": "-77.183834"
        },
        "locations": "Restaurant/Retail",
        "wines": [
            "Rosé",
            "Chardonnay",
            "Petit Manseng",
            "Foothills"
        ]
    },
    {
        "id": "DBCVh0pLXcsLWxar1L5fV",
        "name": "Home.Made",
        "address": {
            "street": "1072 Baxter Street, Athens, GA 30606",
            "lat": "33.9476529",
            "lon": "-83.3980925"
        },
        "locations": "Restaurant/Retail",
        "wines": [
            "Eluvium",
            "Petit Manseng"
        ]
    },
    {
        "id": "f9eVR-7UicYjZGgCOwDKk",
        "name": "Alley Light",
        "address": {
            "street": "108 2nd St. SW, Charlottesville, VA 22902",
            "lat": "38.0305995",
            "lon": "-78.482276"
        },
        "locations": "Restaurant",
        "wines": [
            "Shenandoah Valley Cabernet Franc",
            "RISE"
        ]
    },
    {
        "id": "rJISXigiwwxCelYqKeA9X",
        "name": "Caboose",
        "address": {
            "street": "108 S. Railroad Ave., Ashland, VA 23005",
            "lat": "37.758286",
            "lon": "-77.4816338"
        },
        "locations": "Restaurant/Retail",
        "wines": [
            "Foothills",
            "Chardonnay"
        ]
    },
    {
        "id": "TyUuYLr5kszKzJQVPkpdR",
        "name": "Momofuku DC",
        "address": {
            "street": "1090 I St. NW, Washington, DC 20001",
            "lat": "38.9007039",
            "lon": "-77.0268751"
        },
        "locations": "Restaurant",
        "wines": [
            "Young Wine Chambourcin",
            "Rosé",
            "Eluvium"
        ]
    },
    {
        "id": "XuuTCBXlllNtI08jgSZp_",
        "name": "USA Wine Imports:Sorso Wine Boutique",
        "address": {
            "street": "1069 Bedford Avenue, Brooklyn, NY 11216",
            "lat": "40.6724091",
            "lon": "-73.9833358"
        },
        "locations": "Retail",
        "wines": [
            "Rosé"
        ]
    },
    {
        "id": "u4ZDAylG_22gOAvg63_-r",
        "name": "Whole Foods - Short Pump",
        "address": {
            "street": "11173 West Broad St., Richmond, VA 23060",
            "lat": "37.6475665",
            "lon": "-77.5997292"
        },
        "locations": "Restaurant/Retail",
        "wines": [
            "Foothills",
            "Rosé"
        ]
    },
    {
        "id": "wor9D0pVLuUiDY9yjMaP0",
        "name": "Vermillion",
        "address": {
            "street": "1120 King St, Alexandria, VA 22314",
            "lat": "38.8055661",
            "lon": "-77.0522637"
        },
        "locations": "Restaurant",
        "wines": [
            "Foothills"
        ]
    },
    {
        "id": "4eVvneixBbXb2Q-qorC32",
        "name": "Essex Pearl",
        "address": {
            "street": "115 Delancey Street, Manhattan, NY 10002",
            "lat": "40.7182566",
            "lon": "-73.9881462"
        },
        "locations": "Restaurant",
        "wines": [
            "Petit Manseng",
            "Five Forks"
        ]
    },
    {
        "id": "W8ouLeaJ0ilU2jVTNvIf8",
        "name": "Zynodoa",
        "address": {
            "street": "115 E Beverly St, Staunton, VA 24401",
            "lat": "38.149814",
            "lon": "-79.0709713"
        },
        "locations": "Restaurant",
        "wines": [
            "Petit Manseng",
            "Eluvium",
            "Foothills",
            "Rosé"
        ]
    },
    {
        "id": "poZNeM1MkqG-pTPlCDIqC",
        "name": "Bloom",
        "address": {
            "street": "1109 Main St. SW, Roanoke, VA 24015",
            "lat": "37.264562",
            "lon": "-79.958762"
        },
        "locations": "Restaurant",
        "wines": [
            "Petit Manseng"
        ]
    },
    {
        "id": "tW7oT6W83OiVbqpb9l3-D",
        "name": "DeVine",
        "address": {
            "street": "121 Blue Ridge Dr, Wintergreen, VA 22958",
            "lat": "37.8848619",
            "lon": "-78.8994672"
        },
        "locations": "Retail",
        "wines": [
            "Shenandoah Valley Cabernet Franc",
            "Petit Manseng"
        ]
    },
    {
        "id": "V4pGTQkMia9uYKoXkObUL",
        "name": "Dabney",
        "address": {
            "street": "122 Blagden Alley NW, Washington, DC 20009",
            "lat": "38.9062837",
            "lon": "-77.0246047"
        },
        "locations": "Restaurant",
        "wines": [
            "Eluvium"
        ]
    },
    {
        "id": "N-qexsOcfeckx2wwJHU8G",
        "name": "La Fromagerie",
        "address": {
            "street": "1222 King St, Alexandria, VA 22314",
            "lat": "38.805648",
            "lon": "-77.053429"
        },
        "locations": "Restaurant/Retail",
        "wines": [
            "Shenandoah Valley Cabernet Franc",
            "Petit Manseng",
            "Rosé",
            "Pétillant Naturel White",
            "Eluvium",
            "Quaker Run Chardonnay"
        ]
    },
    {
        "id": "VTxSi_Wpt2vG26-Vuq3VJ",
        "name": "Ten Sushi",
        "address": {
            "street": "120B East Main St, Charlottesville, VA 22902",
            "lat": "38.0303542",
            "lon": "-78.4810329"
        },
        "locations": "Restaurant",
        "wines": [
            "Foothills"
        ]
    },
    {
        "id": "-SJ_L78CAkhq2Rn9EcjvP",
        "name": "Clifton Inn",
        "address": {
            "street": "1296 Clifton Inn Dr, Charlottesville, VA 22911",
            "lat": "38.007264",
            "lon": "-78.397257"
        },
        "locations": "Restaurant",
        "wines": [
            "RISE"
        ]
    },
    {
        "id": "8tvM4yFAnnzkuK8C3B7ia",
        "name": "Saint Anselm",
        "address": {
            "street": "1250 5th St. NE, Washington, DC 20002",
            "lat": "38.9077745",
            "lon": "-76.9990918"
        },
        "locations": "Restaurant",
        "wines": [
            "Shenandoah Valley Cabernet Franc"
        ]
    },
    {
        "id": "VbjG_h2DbucX-DKolKQjH",
        "name": "Roanoke Natural Foods Co-op",
        "address": {
            "street": "1319 Grandin Rd SW, Roanoke, VA 24015",
            "lat": "37.2652232",
            "lon": "-79.9776246"
        },
        "locations": "Retail",
        "wines": [
            "Foothills",
            "Eluvium"
        ]
    },
    {
        "id": "MVja5xS4iDQx9FwurlGJT",
        "name": "Vintage Cellar",
        "address": {
            "street": "1338 South Main St., Blacksburg, VA 24060",
            "lat": "37.215963",
            "lon": "-80.402101"
        },
        "locations": "Retail",
        "wines": [
            "Eluvium",
            "Foothills"
        ]
    },
    {
        "id": "KK7fu3O3RrcqN3HiXTCxd",
        "name": "Inn at Warm Springs",
        "address": {
            "street": "12968 Sam Snead Hwy, Warm Springs, VA 24484",
            "lat": "38.0534747",
            "lon": "-79.7791928"
        },
        "locations": "Restaurant",
        "wines": [
            "Rosé"
        ]
    },
    {
        "id": "nt6UhmJvqAAAMpgRcRpgy",
        "name": "Norm's Beer & Wine",
        "address": {
            "street": "136 Branch Rd SE, Vienna, VA 22180",
            "lat": "38.9062317",
            "lon": "-77.257151"
        },
        "locations": "Retail",
        "wines": [
            "Rosé",
            "Eluvium",
            "Shenandoah Valley Cabernet Franc",
            "Quaker Run Chardonnay",
            "Chardonnay",
            "Foothills"
        ]
    },
    {
        "id": "ZzWguiyYD7tCykhsIeJJW",
        "name": "Chain Bridge Cellars",
        "address": {
            "street": "1351 Chain Bridge Rd, McLean, VA 22101",
            "lat": "38.9385421",
            "lon": "-77.1746454"
        },
        "locations": "Retail",
        "wines": [
            "Foothills"
        ]
    },
    {
        "id": "ODDIsnhg2vM4Sbg5HVMmG",
        "name": "Salisbury Country Club",
        "address": {
            "street": "13620 W. Salisbury Rd, Midlothian, VA 23113",
            "lat": "37.5278854",
            "lon": "-77.6533788"
        },
        "locations": "Restaurant",
        "wines": [
            "Pétillant Naturel White",
            "Rosé",
            "Petit Manseng",
            "Foothills",
            "Shenandoah Valley Cabernet Franc",
            "RISE"
        ]
    },
    {
        "id": "DgUgyqO-6o_JQH3NAZYJI",
        "name": "Cellar d'Or",
        "address": {
            "street": "136 E State St, Ithaca, NY 14850",
            "lat": "42.4397353",
            "lon": "-76.4977365"
        },
        "locations": "Retail",
        "wines": [
            "Shenandoah Valley Cabernet Franc"
        ]
    },
    {
        "id": "xUfkBOdrjl-AL7Wb3eRBj",
        "name": "Brooklyn Wine Exchange",
        "address": {
            "street": "138 Court Street, Brooklyn, NY 11201",
            "lat": "40.6893227",
            "lon": "-73.992801"
        },
        "locations": "Retail",
        "wines": [
            "Five Forks"
        ]
    },
    {
        "id": "3eCC_hUUaGobsjPoiqEea",
        "name": "Taste - Headquarters",
        "address": {
            "street": "1391 Air Rail Avenue, Virginia Beach, VA 23455",
            "lat": "36.8929573",
            "lon": "-76.1918905"
        },
        "locations": "Restaurant/Retail",
        "wines": [
            "Rosé"
        ]
    },
    {
        "id": "yjilQqYApUp2dgcVG8iz5",
        "name": "Kings County Wines",
        "address": {
            "street": "1420 Cortelyou Rd, Brooklyn, NY 11226",
            "lat": "40.6409745",
            "lon": "-73.9644848"
        },
        "locations": "Retail",
        "wines": [
            "Foothills",
            "Petit Manseng"
        ]
    },
    {
        "id": "XJco7aWsDTHwhcLSZ2dJC",
        "name": "Friendly City Food Co-op",
        "address": {
            "street": "150 E Wolfe St, Harrisonburg, VA 22802",
            "lat": "38.4516609",
            "lon": "-78.8665291"
        },
        "locations": "Retail",
        "wines": [
            "Foothills",
            "Rosé",
            "Petit Manseng",
            "RISE"
        ]
    },
    {
        "id": "0X-4q8O6h2buRJWstbsYJ",
        "name": "Clementine Cafe",
        "address": {
            "street": "153 S Main St, Harrisonburg, VA 22801",
            "lat": "38.4478062",
            "lon": "-78.8692932"
        },
        "locations": "Restaurant",
        "wines": [
            "Eluvium",
            "Chardonnay"
        ]
    },
    {
        "id": "V2SSEWo8KsLC3d6sI1G-n",
        "name": "Beer Run",
        "address": {
            "street": "156 Carlton Rd Ste 203, Charlottesville, VA 22902",
            "lat": "38.0246361",
            "lon": "-78.468401"
        },
        "locations": "Restaurant/Retail",
        "wines": [
            "Shenandoah Valley Cabernet Franc",
            "Young Wine Chambourcin"
        ]
    },
    {
        "id": "QQ70Mf9ayJYnxqDtt9SWB",
        "name": "Unwined Belle View",
        "address": {
            "street": "1600 Belle View Blvd., Alexandria, VA 22307",
            "lat": "38.7761672",
            "lon": "-77.0597746"
        },
        "locations": "Retail",
        "wines": [
            "Rosé",
            "Pétillant Naturel White",
            "Shenandoah Valley Cabernet Franc",
            "Petit Manseng",
            "Eluvium",
            "Foothills",
            "Pétillant Naturel Red",
            "Chardonnay"
        ]
    },
    {
        "id": "s4TEFdHSwiIcrkL6xKe7t",
        "name": "W2 Wines, LLC",
        "address": {
            "street": "16031 Hillsboro Road, Purcellville, VA 20132",
            "lat": "39.173889",
            "lon": "-77.725546"
        },
        "locations": "Retail",
        "wines": [
            "Shenandoah Valley Cabernet Franc",
            "Petit Manseng",
            "Rosé"
        ]
    },
    {
        "id": "kIBwsVu-En7mU1wZMXIbA",
        "name": "USA Wine Imports:Kings County Wines",
        "address": {
            "street": "1420 Cortelyou Road, Brooklyn, NY 11226",
            "lat": "40.6724091",
            "lon": "-73.9833358"
        },
        "locations": "Retail",
        "wines": [
            "Rosé"
        ]
    },
    {
        "id": "xmjddR4gW_GMDsFCU9TIy",
        "name": "Mount Airy Winegrowers LLC",
        "address": {
            "street": "1609 Lee Highway, Fort Defiance, VA 24437",
            "lat": "38.2353215",
            "lon": "-78.976582"
        },
        "locations": "Retail",
        "wines": [
            "Pétillant Naturel White"
        ]
    },
    {
        "id": "tUsgiqSTjU54NvJHSieNg",
        "name": "Cairo Wine & Liquor",
        "address": {
            "street": "1618 17th St NW, Washington, DC 20009",
            "lat": "38.9117809",
            "lon": "-77.0387481"
        },
        "locations": "Retail",
        "wines": [
            "Rosé"
        ]
    },
    {
        "id": "3-Tfen8M6EwWZ_xiJ73Al",
        "name": "Whole Foods - Boro Tysons",
        "address": {
            "street": "1635 Boro Place, McLean, VA 22102",
            "lat": "38.9246153",
            "lon": "-77.2335301"
        },
        "locations": "Restaurant/Retail",
        "wines": [
            "Rosé",
            "Foothills",
            "Five Forks"
        ]
    },
    {
        "id": "Y4d1Ah9TVrfqNNMlpCaF8",
        "name": "Farmington Country Club",
        "address": {
            "street": "1625 Country Club Circle, Charlottesville, VA 22901",
            "lat": "38.0616369",
            "lon": "-78.5419503"
        },
        "locations": "Restaurant",
        "wines": [
            "RISE"
        ]
    },
    {
        "id": "D2WpLUA7m9PXRElZiC-n_",
        "name": "Vinosity",
        "address": {
            "street": "174 E Davis St,, Charlottesville, VA 22732",
            "lat": "38.0293059",
            "lon": "-78.4766781"
        },
        "locations": "Retail",
        "wines": [
            "Foothills"
        ]
    },
    {
        "id": "mczNi3BKWuW_5uocqXPzg",
        "name": "A Rake's Progress",
        "address": {
            "street": "1771 Euclid St NW, Washington, DC 20009",
            "lat": "38.9230696",
            "lon": "-77.0413986"
        },
        "locations": "Restaurant",
        "wines": [
            "Shenandoah Valley Cabernet Franc"
        ]
    },
    {
        "id": "XJowpU00zV1MiOQitB4Vg",
        "name": "Whole Foods - Old Town",
        "address": {
            "street": "1700 Duke Street, Alexandria, VA 22314",
            "lat": "38.8041416",
            "lon": "-77.0600615"
        },
        "locations": "Restaurant/Retail",
        "wines": [
            "Rosé"
        ]
    },
    {
        "id": "1sneM4U8DvucsDsXBOTAG",
        "name": "Whole Foods - Charlottesville",
        "address": {
            "street": "1797 Hydraulic Road, Charlottesville, VA 22901",
            "lat": "38.059773",
            "lon": "-78.4891351"
        },
        "locations": "Restaurant/Retail",
        "wines": [
            "Foothills",
            "Rosé"
        ]
    },
    {
        "id": "d1DxzrY5gTaXOGP4OF8R0",
        "name": "Lucky",
        "address": {
            "street": "18 Kirk Ave SW, Roanoke, VA 24011",
            "lat": "37.2709987",
            "lon": "-79.9414035"
        },
        "locations": "Restaurant",
        "wines": [
            "Quaker Run Chardonnay",
            "RISE"
        ]
    },
    {
        "id": "z-hclxG1TwlIcv5pCx8eX",
        "name": "Whole Foods - Virginia Beach",
        "address": {
            "street": "1800 Laskin Road, Virginia Beach, VA 23454",
            "lat": "36.8509319",
            "lon": "-76.0281576"
        },
        "locations": "Restaurant/Retail",
        "wines": [
            "Foothills",
            "Rosé"
        ]
    },
    {
        "id": "VRLeWQL0giuKKo31gZU2V",
        "name": "67 Liquor Shop",
        "address": {
            "street": "179 Columbus Ave, New York, NY 10023",
            "lat": "40.7746082",
            "lon": "-73.9805925"
        },
        "locations": "Retail",
        "wines": [
            "Rosé"
        ]
    },
    {
        "id": "PWy5xdr_omzVIYWMOsZyp",
        "name": "Wine Warehouse",
        "address": {
            "street": "1804 Hydraulic Rd, Charlottesville, VA 22902",
            "lat": "38.0607943",
            "lon": "-78.4914214"
        },
        "locations": "Retail",
        "wines": [
            "Shenandoah Valley Cabernet Franc",
            "Foothills",
            "Five Forks",
            "RISE"
        ]
    },
    {
        "id": "ht29kKJ8CqLQcPXoEnXya",
        "name": "Founding Farmers - Tyson's Corner",
        "address": {
            "street": "1800 Tyson's Blvd., McLean, VA 22102",
            "lat": "38.9488917",
            "lon": "-77.3383807"
        },
        "locations": "Restaurant",
        "wines": [
            "Rosé"
        ]
    },
    {
        "id": "ybed8AcW0Equ11YwJh_dW",
        "name": "Red Hen-DC",
        "address": {
            "street": "1822 1st St. NW, Washington, DC 20001",
            "lat": "38.9149738",
            "lon": "-77.0124095"
        },
        "locations": "Restaurant",
        "wines": [
            "Five Forks",
            "Eluvium"
        ]
    },
    {
        "id": "d2FfDvTarZvSKPVPAx8kT",
        "name": "Back Bay's Farmhouse Brewing",
        "address": {
            "street": "1805 Kempsville Rd, Virginia Beach, VA 23464",
            "lat": "36.7830652",
            "lon": "-76.1893622"
        },
        "locations": "Restaurant",
        "wines": [
            "Rosé"
        ]
    },
    {
        "id": "r2x7K_nx3KFht1IQ8Syen",
        "name": "Tail Up Goat",
        "address": {
            "street": "1827 Adams Mill Rd. NW, Washington, DC 20009",
            "lat": "38.923447",
            "lon": "-77.043176"
        },
        "locations": "Restaurant",
        "wines": [
            "Rosé"
        ]
    },
    {
        "id": "9_3CyoixsnV1mfKFqcmYl",
        "name": "Rio Hill Wine & Beer",
        "address": {
            "street": "1908 Rio Hill Center, Charlottesville, VA 22901",
            "lat": "38.0877905",
            "lon": "-78.4749043"
        },
        "locations": "Retail",
        "wines": [
            "Eluvium",
            "Foothills",
            "Quaker Run Chardonnay",
            "Shenandoah Valley Cabernet Franc",
            "Chardonnay",
            "Rosé",
            "Petit Manseng"
        ]
    },
    {
        "id": "PqC6HN6Wv9Iw4M8kdDl7f",
        "name": "Founding Farmers - Reston",
        "address": {
            "street": "1904 Reston Metro Plaza, Suite 100, Reston, VA 20190",
            "lat": "38.9488917",
            "lon": "-77.3383807"
        },
        "locations": "Restaurant",
        "wines": [
            "Rosé"
        ]
    },
    {
        "id": "wQny5XziF7G9MnuraiBcr",
        "name": "Whole Foods - Ashburn",
        "address": {
            "street": "19800 Belmont Chase Dr, Ashburn, VA 20147",
            "lat": "39.0684834",
            "lon": "-77.4843963"
        },
        "locations": "Restaurant/Retail",
        "wines": [
            "Foothills",
            "Eluvium"
        ]
    },
    {
        "id": "qQjzS-Te5vPFPpRpvxegD",
        "name": "Magnolia's at the Mill",
        "address": {
            "street": "198 North 21st Street, Purcelville, VA 20132",
            "lat": "39.1383297",
            "lon": "-77.7156535"
        },
        "locations": "Restaurant",
        "wines": [
            "Rosé"
        ]
    },
    {
        "id": "VO90Ah-XjW9WQhKIEAtEg",
        "name": "Primland Resort",
        "address": {
            "street": "2000 Busted Rock Road, Meadows of Dan, VA 24120",
            "lat": "36.6617827",
            "lon": "-80.4318697"
        },
        "locations": "Restaurant",
        "wines": [
            "Eluvium",
            "Chardonnay",
            "Shenandoah Valley Cabernet Franc"
        ]
    },
    {
        "id": "_5dwIjT3HASTWju6lSyEY",
        "name": "Planet Wine",
        "address": {
            "street": "2000-2004 Mount Vernon Ave, Alexandria, VA 22301",
            "lat": "38.8239944",
            "lon": "-77.0585361"
        },
        "locations": "Retail",
        "wines": [
            "Petit Manseng",
            "Rosé",
            "Shenandoah Valley Cabernet Franc"
        ]
    },
    {
        "id": "sp-ulMFrIe6AC2IoP8i5_",
        "name": "Glen's Garden Market",
        "address": {
            "street": "2001 S St. NW, Washington, DC 20009",
            "lat": "38.9143274",
            "lon": "-77.0451575"
        },
        "locations": "Restaurant/Retail",
        "wines": [
            "Foothills",
            "Rosé",
            "Shenandoah Valley Cabernet Franc"
        ]
    },
    {
        "id": "3W30sR0XMi8fv03htIUC7",
        "name": "Zocalo",
        "address": {
            "street": "201 E Main St Suite E, Charlottesville, VA 22902",
            "lat": "38.0307918",
            "lon": "-78.4803003"
        },
        "locations": "Restaurant",
        "wines": [
            "Pétillant Naturel White",
            "Foothills"
        ]
    },
    {
        "id": "v9uQW9SsgsZxYt0HLsKxe",
        "name": "Stone Tower Winery",
        "address": {
            "street": "19925 Hogback Mountain Road, Leesburg, VA 20175",
            "lat": "39.063064",
            "lon": "-77.635397"
        },
        "locations": "Restaurant/Retail",
        "wines": [
            "Shenandoah Valley Cabernet Franc"
        ]
    },
    {
        "id": "CBYZ4mmoPu0YOxIaHKAkx",
        "name": "Downtown Grille",
        "address": {
            "street": "201 West Main Street, Charlottesville, VA 22902",
            "lat": "38.0312386",
            "lon": "-78.4823426"
        },
        "locations": "Restaurant",
        "wines": [
            "Chardonnay",
            "Eluvium",
            "RISE"
        ]
    },
    {
        "id": "4Kq_lAm4KkDxgbyolQ8Kk",
        "name": "Whole Foods - West Broad",
        "address": {
            "street": "2024 W Broad Street, Richmond, VA 23220",
            "lat": "37.5581958",
            "lon": "-77.4612166"
        },
        "locations": "Restaurant/Retail",
        "wines": [
            "Rosé",
            "Foothills"
        ]
    },
    {
        "id": "ymeEjj-QGtIZsj4C1DxpM",
        "name": "Locke Store",
        "address": {
            "street": "2049 Millwood Rd., Millwood, VA 22646",
            "lat": "39.0695452",
            "lon": "-78.0379379"
        },
        "locations": "Retail",
        "wines": [
            "Pétillant Naturel White",
            "Rosé",
            "Eluvium",
            "Shenandoah Valley Cabernet Franc"
        ]
    },
    {
        "id": "9wAwFfdS_Z7tHOfKbC3Hh",
        "name": "Nourish Louisa",
        "address": {
            "street": "205 W Main St, Louisa, VA 23093",
            "lat": "38.0252902",
            "lon": "-78.0034953"
        },
        "locations": "Restaurant/Retail",
        "wines": [
            "Eluvium",
            "Foothills"
        ]
    },
    {
        "id": "gixEwtD30UthJojZ9J7g9",
        "name": "Quirk Hotel",
        "address": {
            "street": "201 W. Broad St., Richmond, VA 23220",
            "lat": "37.546436",
            "lon": "-77.4441523"
        },
        "locations": "Restaurant",
        "wines": [
            "Foothills"
        ]
    },
    {
        "id": "G3WexLL47EV7iKMAfXi4N",
        "name": "Common House",
        "address": {
            "street": "206 West Market Street, Charlottesville, VA 22902",
            "lat": "38.0317194",
            "lon": "-78.4822538"
        },
        "locations": "Restaurant",
        "wines": [
            "Petit Manseng",
            "Eluvium",
            "Rosé"
        ]
    },
    {
        "id": "5wbLC25G7hwM7d4I8hzAK",
        "name": "Foods of All Nations",
        "address": {
            "street": "2121 Ivy Rd, Charlottesville, VA 22903",
            "lat": "38.0432978",
            "lon": "-78.5119067"
        },
        "locations": "Retail",
        "wines": [
            "Pétillant Naturel White",
            "Rosé",
            "Petit Manseng",
            "Shenandoah Valley Cabernet Franc",
            "Chardonnay",
            "Foothills",
            "Eluvium",
            "RISE"
        ]
    },
    {
        "id": "Nr3r0s-ihZy4tI2SRt2TZ",
        "name": "Shields Market",
        "address": {
            "street": "206 North Shields Avenue, Richmond, VA 23220",
            "lat": "37.5530887",
            "lon": "-77.4668696"
        },
        "locations": "Retail",
        "wines": [
            "Shenandoah Valley Cabernet Franc"
        ]
    },
    {
        "id": "xBdbnRmZKMGvrDWcnM_eS",
        "name": "Crystal City Wine Shop",
        "address": {
            "street": "220 20th St. South, Arlington, VA 22202",
            "lat": "38.85597",
            "lon": "-77.0500304"
        },
        "locations": "Retail",
        "wines": [
            "Rosé",
            "Foothills",
            "Pétillant Naturel White",
            "Petit Manseng",
            "Young Wine Chambourcin"
        ]
    },
    {
        "id": "BZlmftiBwcA7P64aSQdGA",
        "name": "Ivy Inn",
        "address": {
            "street": "2244 Old Ivy Rd., Charlottesville, VA 22903",
            "lat": "38.045948",
            "lon": "-78.516234"
        },
        "locations": "Restaurant",
        "wines": [
            "Petit Manseng",
            "Eluvium",
            "RISE",
            "Chardonnay"
        ]
    },
    {
        "id": "iz4L9JL9PI9lkOaTkHnnT",
        "name": "Saison",
        "address": {
            "street": "23 W Marshall St. Suite A, Richmond, VA 23220",
            "lat": "37.546819",
            "lon": "-77.4420934"
        },
        "locations": "Restaurant",
        "wines": [
            "Pétillant Naturel White",
            "Rosé"
        ]
    },
    {
        "id": "kePhw-oApC5gf4Rs8nl2l",
        "name": "Fry's Spring Beach Club",
        "address": {
            "street": "2513 Jefferson Park Ave, Charlottesville, VA 22903",
            "lat": "38.0192125",
            "lon": "-78.5141217"
        },
        "locations": "Restaurant",
        "wines": [
            "Foothills",
            "Rosé"
        ]
    },
    {
        "id": "HZgI8Nazl0twBdIomBKSh",
        "name": "Acacia - Midtown",
        "address": {
            "street": "2601 West Cary St., Richmond, VA 23220",
            "lat": "37.5505588",
            "lon": "-77.4741547"
        },
        "locations": "Restaurant/Retail",
        "wines": [
            "Chardonnay",
            "Eluvium"
        ]
    },
    {
        "id": "M0vLf6yhHu10sWByw4V5c",
        "name": "Department of Beer & Wine",
        "address": {
            "street": "2724 Richmond Hwy, Alexandria, VA 22301",
            "lat": "38.830645",
            "lon": "-77.051175"
        },
        "locations": "Retail",
        "wines": [
            "Foothills",
            "Rosé",
            "Shenandoah Valley Cabernet Franc",
            "Petit Manseng",
            "Young Wine Chambourcin"
        ]
    },
    {
        "id": "7_sawPHbXCNZgM0XDCZJh",
        "name": "Cosmos Club",
        "address": {
            "street": "2121 Massachusetts Ave. NW, Washington, DC 20008",
            "lat": "38.911551",
            "lon": "-77.0475863"
        },
        "locations": "Restaurant",
        "wines": [
            "RISE"
        ]
    },
    {
        "id": "KBKeKt19Tm1XP8EsqGo_1",
        "name": "White Moose Inn",
        "address": {
            "street": "291 Main St., Washington, VA 22747",
            "lat": "38.7123391",
            "lon": "-78.16034"
        },
        "locations": "Restaurant",
        "wines": [
            "Chardonnay",
            "Eluvium",
            "Foothills",
            "Rosé"
        ]
    },
    {
        "id": "Y9CHK-LwldxoSEUztUppQ",
        "name": "Perch",
        "address": {
            "street": "2918 W. Broad Street, Richmond, VA 23230",
            "lat": "37.5640539",
            "lon": "-77.4719183"
        },
        "locations": "Restaurant",
        "wines": [
            "Petit Manseng",
            "Foothills",
            "Rosé",
            "Chardonnay"
        ]
    },
    {
        "id": "fSsCpQofMagC7fFhmwSfr",
        "name": "Swirl & Sip",
        "address": {
            "street": "2905 District  Ave. Ste. 112, Fairfax, VA 22031",
            "lat": "38.8733231",
            "lon": "-77.229401"
        },
        "locations": "Retail",
        "wines": [
            "Five Forks"
        ]
    },
    {
        "id": "M4rcNg9reb-zYefK7FDYB",
        "name": "Prime 109",
        "address": {
            "street": "300 East Main St., Charlottesville, VA 22902",
            "lat": "36.8605378",
            "lon": "-76.2996588"
        },
        "locations": "Restaurant",
        "wines": [
            "Shenandoah Valley Cabernet Franc",
            "Petit Manseng",
            "Chardonnay"
        ]
    },
    {
        "id": "cBlPqwHjXXewgpAFU8MIA",
        "name": "Von",
        "address": {
            "street": "3 Bleeker St, Manhattan, NY 10012",
            "lat": "40.7254442",
            "lon": "-73.9926215"
        },
        "locations": "Restaurant",
        "wines": [
            "Eluvium"
        ]
    },
    {
        "id": "xkquRsm-Y3nPQNNc64pNw",
        "name": "In Vino Veritas",
        "address": {
            "street": "3015 Louisa Rd, Keswick, VA 22947",
            "lat": "38.0134664",
            "lon": "-78.3951928"
        },
        "locations": "Retail",
        "wines": [
            "Rosé",
            "Foothills",
            "Shenandoah Valley Cabernet Franc"
        ]
    },
    {
        "id": "Ejybx35M1h1OsD8oU93iw",
        "name": "Urban Hang Suite",
        "address": {
            "street": "304 E. Broad Street, Richmond, VA 23219",
            "lat": "37.5441901",
            "lon": "-77.4388111"
        },
        "locations": "Restaurant/Retail",
        "wines": [
            "Foothills",
            "Chardonnay",
            "Rosé"
        ]
    },
    {
        "id": "ni2PInTvY0eVu8ZxZoUjD",
        "name": "Each Peach Market",
        "address": {
            "street": "3068 Mt Pleasant St NW, Washington, DC 20009",
            "lat": "38.928548",
            "lon": "-77.0375272"
        },
        "locations": "Restaurant/Retail",
        "wines": [
            "Foothills"
        ]
    },
    {
        "id": "Bj9sJcVXzEclwB30aEk2d",
        "name": "Bottleworks",
        "address": {
            "street": "3078 Stony Point Rd., Richmond, VA 23235",
            "lat": "37.537796",
            "lon": "-77.5651916"
        },
        "locations": "Retail",
        "wines": [
            "Chardonnay",
            "Foothills"
        ]
    },
    {
        "id": "VXrAEBPk2tmJZiKtYkw1-",
        "name": "Market Street Wine Shop",
        "address": {
            "street": "311 East Market St, Charlottesville, VA 22902",
            "lat": "38.0310663",
            "lon": "-78.4789692"
        },
        "locations": "Retail",
        "wines": [
            "Pétillant Naturel White",
            "Chardonnay",
            "Eluvium",
            "Foothills",
            "Petit Manseng",
            "Young Wine Chambourcin",
            "Rosé",
            "Shenandoah Valley Cabernet Franc"
        ]
    },
    {
        "id": "C7OMDnRkXGYZjbzszbh-6",
        "name": "Grisette",
        "address": {
            "street": "3119 East Marshall Street, Richmond, VA 23223",
            "lat": "37.528621",
            "lon": "-77.4119182"
        },
        "locations": "Restaurant",
        "wines": [
            "Petit Manseng",
            "Foothills",
            "Eluvium"
        ]
    },
    {
        "id": "q3MvBKTS0nuqu2I-NvHb1",
        "name": "Alewife",
        "address": {
            "street": "3120 E Marshall St., Richmond, VA 23223",
            "lat": "37.5288799",
            "lon": "-77.4116006"
        },
        "locations": "Restaurant",
        "wines": [
            "Young Wine Chambourcin",
            "Pétillant Naturel White",
            "Pétillant Naturel Red"
        ]
    },
    {
        "id": "HNe7QLW--AZC5RrZ4yKL4",
        "name": "Broken Tulip",
        "address": {
            "street": "3129 W. Cary Street, Richmond, VA 23221",
            "lat": "37.5532674",
            "lon": "-77.481503"
        },
        "locations": "Restaurant",
        "wines": [
            "Young Wine Chambourcin",
            "Pétillant Naturel White"
        ]
    },
    {
        "id": "7eVzcj8wlkfyF0sXD77Xd",
        "name": "313 Franklin",
        "address": {
            "street": "313 Franklin Street, South Hill, VA 23970",
            "lat": "36.726272",
            "lon": "-78.1245498"
        },
        "locations": "Restaurant/Retail",
        "wines": [
            "Shenandoah Valley Cabernet Franc",
            "Chardonnay",
            "Petit Manseng",
            "Foothills"
        ]
    },
    {
        "id": "2SkopqSlZI9U9WxwgpSzs",
        "name": "Fortunato",
        "address": {
            "street": "301 1st Street SW #300, Roanoke, VA 24011",
            "lat": "37.2710853",
            "lon": "-79.9427864"
        },
        "locations": "Restaurant",
        "wines": [
            "Foothills"
        ]
    },
    {
        "id": "y9-qCpxnx8JfpLzBOgzAP",
        "name": "Good Wine",
        "address": {
            "street": "327 5th Ave, Brooklyn, NY 11215",
            "lat": "40.6724091",
            "lon": "-73.9833358"
        },
        "locations": "Retail",
        "wines": [
            "Petit Manseng",
            "Foothills"
        ]
    },
    {
        "id": "88KnmpZBFYdHIanZSzI5-",
        "name": "USA Wine Imports:Good Wine",
        "address": {
            "street": "327 5th Avenue, Brooklyn, NY 11215",
            "lat": "40.6724091",
            "lon": "-73.9833358"
        },
        "locations": "Retail",
        "wines": [
            "Foothills"
        ]
    },
    {
        "id": "Hy9HjQXBZHYxx_o0-fVV0",
        "name": "Odd Provisions",
        "address": {
            "street": "3301 11th Street NW, Washington, DC 20010",
            "lat": "38.9309006",
            "lon": "-77.0278015"
        },
        "locations": "Retail",
        "wines": [
            "Rosé"
        ]
    },
    {
        "id": "_NhYDmsEMJ_wMDUnwhuFv",
        "name": "Wine Gourmet",
        "address": {
            "street": "3524 Electric Road, Roanoke, VA 24014",
            "lat": "37.2271841",
            "lon": "-79.9984762"
        },
        "locations": "Retail",
        "wines": [
            "Chardonnay",
            "Eluvium",
            "Rosé"
        ]
    },
    {
        "id": "nryuHYSI7B2t1xBk5yif-",
        "name": "Valley Pike Farm Market",
        "address": {
            "street": "3494 Lee Highway, Weyers Cave, VA 24486",
            "lat": "40.6724091",
            "lon": "-73.9833358"
        },
        "locations": "Retail",
        "wines": [
            "Foothills"
        ]
    },
    {
        "id": "TDxB4jBI1rnbIpEERlymd",
        "name": "The Eastern ",
        "address": {
            "street": "360 7th ST SE, Washington, DC 20003",
            "lat": "38.885362",
            "lon": "-76.995888"
        },
        "locations": "Restaurant",
        "wines": [
            "Shenandoah Valley Cabernet Franc"
        ]
    },
    {
        "id": "bXCoOetsViJNCo7--gX7H",
        "name": "Unwined Bradlee Shopping Center",
        "address": {
            "street": "3690-J King St, Alexandria, VA 22302",
            "lat": "38.8296628",
            "lon": "-77.0921948"
        },
        "locations": "Retail",
        "wines": [
            "Rosé",
            "Eluvium",
            "Foothills",
            "Chardonnay",
            "Pétillant Naturel Red",
            "Shenandoah Valley Cabernet Franc"
        ]
    },
    {
        "id": "7SZ1v9o-t4_vFSZiLy4pR",
        "name": "Vino Market",
        "address": {
            "street": "3730 Winterfield Rd., Midlothian, VA 23113",
            "lat": "37.5535346",
            "lon": "-77.6685934"
        },
        "locations": "Retail",
        "wines": [
            "Foothills",
            "Rosé",
            "Young Wine Chambourcin"
        ]
    },
    {
        "id": "ee6uqfrUAj-D0KFhUeSdQ",
        "name": "Astor Wines & Spirits",
        "address": {
            "street": "399 Lafayette St, Manhattan, NY 10003",
            "lat": "40.7279823",
            "lon": "-73.9926938"
        },
        "locations": "Retail",
        "wines": [
            "Shenandoah Valley Cabernet Franc",
            "Petit Manseng",
            "Eluvium"
        ]
    },
    {
        "id": "jzU6wsJ1fXr_QV76ocyLG",
        "name": "Ellwood Thompson",
        "address": {
            "street": "4 N Thompson St, Richmond, VA 23221",
            "lat": "37.5574421",
            "lon": "-77.4886194"
        },
        "locations": "Retail",
        "wines": [
            "Quaker Run Chardonnay",
            "Petit Manseng",
            "Rosé",
            "Pétillant Naturel White",
            "Shenandoah Valley Cabernet Franc",
            "Eluvium",
            "Foothills",
            "Young Wine Chambourcin"
        ]
    },
    {
        "id": "ShECS5eJgsyevFwz51DbX",
        "name": "Libbie Market",
        "address": {
            "street": "400 Libbie Ave., Richmond, VA 23226",
            "lat": "37.5746309",
            "lon": "-77.5183971"
        },
        "locations": "Retail",
        "wines": [
            "Eluvium",
            "Rosé",
            "Petit Manseng",
            "Quaker Run Chardonnay",
            "Shenandoah Valley Cabernet Franc"
        ]
    },
    {
        "id": "st7tDHFcru-RQXbzhCee4",
        "name": "Dutch & Co.",
        "address": {
            "street": "400 N. 27th St., Richmond, VA 23223",
            "lat": "37.5316135",
            "lon": "-77.4162141"
        },
        "locations": "Restaurant",
        "wines": [
            "Foothills",
            "Quaker Run Chardonnay",
            "Chardonnay"
        ]
    },
    {
        "id": "HvaPTBhJ3QhCDP9IWbczP",
        "name": "Blacksburg Wine Lab",
        "address": {
            "street": "400 Turner St. NW, Blacksburg, VA 24060",
            "lat": "37.2331938",
            "lon": "-80.421742"
        },
        "locations": "Restaurant",
        "wines": [
            "Foothills",
            "Chardonnay"
        ]
    },
    {
        "id": "mPZN9P6OdEva8SnnHkTkX",
        "name": "Commonwealth Club",
        "address": {
            "street": "401 W. Franklin Street, Richmond, VA 23220",
            "lat": "37.5458434",
            "lon": "-77.447656"
        },
        "locations": "Restaurant",
        "wines": [
            "Rosé",
            "RISE"
        ]
    },
    {
        "id": "hxmfMhKOC3cipeZBzGucX",
        "name": "Barrel Chest",
        "address": {
            "street": "4035 Electric Rd. #B, Roanoke, VA 24018",
            "lat": "37.2235279",
            "lon": "-79.982868"
        },
        "locations": "Retail",
        "wines": [
            "Chardonnay",
            "Rosé",
            "Foothills"
        ]
    },
    {
        "id": "EWoTebI6n6IVgrA61Oi1z",
        "name": "Taste - Ghent",
        "address": {
            "street": "407 W 21st Street, Norfolk, VA 23517",
            "lat": "36.868141",
            "lon": "-76.290231"
        },
        "locations": "Restaurant/Retail",
        "wines": [
            "Five Forks",
            "Eluvium",
            "Rosé"
        ]
    },
    {
        "id": "hZtTi__JVP6Tkr2_lRB_w",
        "name": "Rustico - Ballston",
        "address": {
            "street": "4075 Wilson Blvd., Arlington, VA 22203",
            "lat": "38.8803079",
            "lon": "-77.1085112"
        },
        "locations": "Restaurant",
        "wines": [
            "Rosé"
        ]
    },
    {
        "id": "XJAF1mQl_BLRIp99zMQEV",
        "name": "Taste - Bayville Farms",
        "address": {
            "street": "4097 Shore Drive, Virginia Beach, VA 23455",
            "lat": "36.9057286",
            "lon": "-76.1161963"
        },
        "locations": "Restaurant/Retail",
        "wines": [
            "Petit Manseng",
            "Foothills"
        ]
    },
    {
        "id": "UMy3v0NjrJ6tk5pwCL4PN",
        "name": "Talk of the Table",
        "address": {
            "street": "410 Peachtree PKWY, Cumming, GA 30041",
            "lat": "34.1535941",
            "lon": "-84.1768731"
        },
        "locations": "Retail",
        "wines": [
            "Rosé",
            "Five Forks"
        ]
    },
    {
        "id": "GVwA4QHG_R6S0HnvQiZ4V",
        "name": "Taste - Oceanfront",
        "address": {
            "street": "3603 Pacific Avenue, Virginia Beach, VA 23451",
            "lat": "36.8641917",
            "lon": "-75.9803595"
        },
        "locations": "Restaurant/Retail",
        "wines": [
            "Petit Manseng"
        ]
    },
    {
        "id": "HH4Agudlmtjccf7s953bw",
        "name": "Feast",
        "address": {
            "street": "416 W Main St Suite H, Charlottesville, VA 22902",
            "lat": "38.0304142",
            "lon": "-78.4872613"
        },
        "locations": "Retail",
        "wines": [
            "Rosé",
            "Foothills"
        ]
    },
    {
        "id": "Bk0Q_euTgquf9XlBQ55mi",
        "name": "Blanca",
        "address": {
            "street": "4117 Granby St Ste A, Norfolk, VA 23504",
            "lat": "36.8846514",
            "lon": "-76.2818304"
        },
        "locations": "Restaurant",
        "wines": [
            "Foothills"
        ]
    },
    {
        "id": "iQ1L1NZhj8DqK-IbFf6bj",
        "name": "Wine & Country",
        "address": {
            "street": "4282 Ivy Road, Charlottesville, VA 22903",
            "lat": "38.056209",
            "lon": "-78.5953366"
        },
        "locations": "Restaurant/Retail",
        "wines": [
            "Foothills",
            "Rosé",
            "Chardonnay"
        ]
    },
    {
        "id": "lt1khw6GGqXnBuVgKwWf9",
        "name": "Cavalier Hotel",
        "address": {
            "street": "4200 Atlantic Avenue, Virginia Beach, VA 23451",
            "lat": "36.8692128",
            "lon": "-75.9837519"
        },
        "locations": "Restaurant",
        "wines": [
            "Foothills"
        ]
    },
    {
        "id": "oCuTilvDMyV9mIHeG7cpR",
        "name": "Crystal Palate",
        "address": {
            "street": "4500 Pretty Lake Avenue, Norfolk, VA 23518",
            "lat": "36.925493",
            "lon": "-76.1880817"
        },
        "locations": "Retail",
        "wines": [
            "Chardonnay"
        ]
    },
    {
        "id": "IId7qQwG-91DFh5D6Fe5E",
        "name": "Arrowine",
        "address": {
            "street": "4508 Lee Hwy, Arlington, VA 22207",
            "lat": "38.8983733",
            "lon": "-77.1183586"
        },
        "locations": "Retail",
        "wines": [
            "Foothills",
            "Rosé",
            "Chardonnay",
            "Shenandoah Valley Cabernet Franc",
            "Young Wine Chambourcin",
            "Eluvium",
            "Petit Manseng"
        ]
    },
    {
        "id": "S1IlhonWZBP59hH18GUM-",
        "name": "Taste - Town Center",
        "address": {
            "street": "4513 Commerce Street, Virgina Beach, VA 23462",
            "lat": "36.8418021",
            "lon": "-76.1345125"
        },
        "locations": "Restaurant/Retail",
        "wines": [
            "Eluvium",
            "Foothills"
        ]
    },
    {
        "id": "v_BCrj7lSu6AsJIljUhug",
        "name": "Wine Seller - Williamsburg",
        "address": {
            "street": "4680 Monticello Ave Suite 15, Williamsburg, VA 23188",
            "lat": "37.2719211",
            "lon": "-76.7595155"
        },
        "locations": "Retail",
        "wines": [
            "Rosé",
            "Foothills",
            "Pétillant Naturel White",
            "Petit Manseng",
            "RISE"
        ]
    },
    {
        "id": "trozflkXh9UC6s9a9WZNN",
        "name": "Outpost",
        "address": {
            "street": "4813 Forest Hill Ave., Richmond, VA 23225",
            "lat": "37.5211852",
            "lon": "-77.4878087"
        },
        "locations": "Retail",
        "wines": [
            "Foothills",
            "Rosé",
            "Young Wine Chambourcin",
            "RISE"
        ]
    },
    {
        "id": "guNPJTojsWquLba8zZYqv",
        "name": "And Sons NYC",
        "address": {
            "street": "447 Rogers Ave, Brooklyn, NY 11225",
            "lat": "40.6616172",
            "lon": "-73.9534096"
        },
        "locations": "Restaurant",
        "wines": [
            "Petit Manseng"
        ]
    },
    {
        "id": "tFek91LK4BnUVDXaynqE_",
        "name": "Quirk Hotel - Charlottesville",
        "address": {
            "street": "499 W Main Street, Charlottesville, VA 22902",
            "lat": "38.03121",
            "lon": "-78.48776"
        },
        "locations": "Restaurant",
        "wines": [
            "Foothills",
            "Five Forks"
        ]
    },
    {
        "id": "ETDhvzZAAUVLUZgjyceyn",
        "name": "Westside Produce & Provisions",
        "address": {
            "street": "5015 Colley Ave., Norfolk, VA 23508",
            "lat": "36.8890919",
            "lon": "-76.2954496"
        },
        "locations": "Retail",
        "wines": [
            "Five Forks",
            "Chardonnay",
            "Eluvium",
            "Foothills",
            "Shenandoah Valley Cabernet Franc",
            "Rosé"
        ]
    },
    {
        "id": "L1wUh266n6HH56YPOOhbI",
        "name": "Tastings of Charlottesville",
        "address": {
            "street": "502 East Market St, Charlottesville, VA 22902",
            "lat": "38.0303427",
            "lon": "-78.4779714"
        },
        "locations": "Restaurant/Retail",
        "wines": [
            "Foothills"
        ]
    },
    {
        "id": "QIsNz3NCJjLlpMVUffBfM",
        "name": "Shagbark",
        "address": {
            "street": "4901 Libbie Mill E Blvd. Ste 175, Richmond, VA 23230",
            "lat": "37.5906296",
            "lon": "-77.4937676"
        },
        "locations": "Restaurant",
        "wines": [
            "Shenandoah Valley Cabernet Franc"
        ]
    },
    {
        "id": "9f7QwzVgWgRw1ZqQyouhH",
        "name": "Chat's Liquor",
        "address": {
            "street": "503 8th St SE, Washington, DC 20003",
            "lat": "38.8825132",
            "lon": "-76.9952785"
        },
        "locations": "Retail",
        "wines": [
            "Chardonnay"
        ]
    },
    {
        "id": "yqUJO-MEQpwZhuurozQZf",
        "name": "Little Red Fox",
        "address": {
            "street": "5035 Connecticut Ave. NW, Washington, DC 20008",
            "lat": "38.9558822",
            "lon": "-77.0699601"
        },
        "locations": "Restaurant/Retail",
        "wines": [
            "Rosé",
            "Eluvium"
        ]
    },
    {
        "id": "kK48nVFGb7Q0WLs4dS6dN",
        "name": "C&O Restaurant",
        "address": {
            "street": "515 E Water St, Charlottesville, VA 22902",
            "lat": "38.0290618",
            "lon": "-78.4782802"
        },
        "locations": "Restaurant",
        "wines": [
            "Foothills"
        ]
    },
    {
        "id": "Ssrfb4CWT7HQ-UykaYNeD",
        "name": "Paul's Discount Liquor",
        "address": {
            "street": "5205 Wisconsin Ave NW, Washington, DC 20015",
            "lat": "38.9574601",
            "lon": "-77.0837433"
        },
        "locations": "Retail",
        "wines": [
            "Eluvium",
            "Foothills",
            "Petit Manseng"
        ]
    },
    {
        "id": "1McnW0uu_E2HPP-lbwWTO",
        "name": "Amber Ox Kitchen & Brewery",
        "address": {
            "street": "521 Prince George St., Williamsburg, VA 23185",
            "lat": "37.272864",
            "lon": "-76.708414"
        },
        "locations": "Restaurant",
        "wines": [
            "Foothills",
            "Chardonnay"
        ]
    },
    {
        "id": "XZJTXymJY-PHGAxsQ_S6Z",
        "name": "Prosperity Kitchen & Pantry",
        "address": {
            "street": "532 Virginia Beach Blvd Ste B, Virginia Beach, VA 23451",
            "lat": "36.8444829",
            "lon": "-75.9806406"
        },
        "locations": "Restaurant",
        "wines": [
            "Foothills",
            "RISE",
            "Eluvium"
        ]
    },
    {
        "id": "mswmGP28mDyYuONL2eWBw",
        "name": "Savannah Wine Cellar",
        "address": {
            "street": "5500 Abercorn St, Savannah, GA 31405",
            "lat": "32.0229174",
            "lon": "-81.109395"
        },
        "locations": "Restaurant/Retail",
        "wines": [
            "Foothills",
            "RISE",
            "Quaker Run Chardonnay",
            "Eluvium"
        ]
    },
    {
        "id": "Udkvil5F9IdUmMUMep7uC",
        "name": "Clay Restaurant",
        "address": {
            "street": "553 Manhattan Ave , Manhattan, NY 10027",
            "lat": "40.809486",
            "lon": "-73.9538229"
        },
        "locations": "Restaurant",
        "wines": [
            "Shenandoah Valley Cabernet Franc",
            "Chardonnay"
        ]
    },
    {
        "id": "2Kky_ZcZzcqTMKa3grLEt",
        "name": "Taste - Westhampton",
        "address": {
            "street": "5706 Grove Ave Ste 100, Richmond, VA 23226",
            "lat": "37.5732828",
            "lon": "-77.5173888"
        },
        "locations": "Restaurant/Retail",
        "wines": [
            "Chardonnay",
            "Eluvium",
            "Shenandoah Valley Cabernet Franc",
            "Rosé"
        ]
    },
    {
        "id": "b4SMDoNDIYNgauyFIclEv",
        "name": "J Emerson",
        "address": {
            "street": "5716 Grove Ave, Richmond, VA 23226",
            "lat": "37.5733362",
            "lon": "-77.5180274"
        },
        "locations": "Retail",
        "wines": [
            "Rosé",
            "Pétillant Naturel White",
            "Foothills",
            "Chardonnay",
            "Eluvium"
        ]
    },
    {
        "id": "eeeB5p36BnPR1gbYqNzF2",
        "name": "Barrel Thief",
        "address": {
            "street": "5805 Patterson Ave, Richmond, VA 23226",
            "lat": "37.2235279",
            "lon": "-79.982868"
        },
        "locations": "Restaurant/Retail",
        "wines": [
            "Foothills",
            "Rosé",
            "Chardonnay"
        ]
    },
    {
        "id": "ycJVYAXzEOZHeMHdzdod6",
        "name": "Buck's Fishing",
        "address": {
            "street": "5031 Connecticut Ave NW, Washington, DC 20008",
            "lat": "38.955832",
            "lon": "-77.0698701"
        },
        "locations": "Restaurant",
        "wines": [
            "Rosé"
        ]
    },
    {
        "id": "fGq1mW80UfU1afPxRuicX",
        "name": "Vyne Yard",
        "address": {
            "street": "594 Rogers Ave, Brooklyn, NY 11225",
            "lat": "40.6571942",
            "lon": "-73.9534567"
        },
        "locations": "Retail",
        "wines": [
            "Rosé"
        ]
    },
    {
        "id": "xpOo1HPqiAhWdP0w5S_-g",
        "name": "Balducci's - Alexandria",
        "address": {
            "street": "600 Franklin St, Alexandria, VA 22314",
            "lat": "38.7978102",
            "lon": "-77.0479011"
        },
        "locations": "Retail",
        "wines": [
            "Chardonnay",
            "Rosé",
            "Shenandoah Valley Cabernet Franc",
            "Young Wine Chambourcin",
            "RISE"
        ]
    },
    {
        "id": "f0373PNOxfVYMA97KvBJg",
        "name": "Whole Foods - H Street",
        "address": {
            "street": "600-A H Street, NE, Washington, DC 20002",
            "lat": "38.9005142",
            "lon": "-76.9976267"
        },
        "locations": "Restaurant/Retail",
        "wines": [
            "Foothills",
            "Rosé"
        ]
    },
    {
        "id": "S2-w-mn5Nqg1JRb9RZqdQ",
        "name": "Roosevelt",
        "address": {
            "street": "623 N. 25th St., Richmond, VA 23223",
            "lat": "37.534897",
            "lon": "-77.4154189"
        },
        "locations": "Restaurant",
        "wines": [
            "Foothills",
            "Five Forks"
        ]
    },
    {
        "id": "S4abkMYM6J8e0iY44DPBe",
        "name": "Wardman Wines",
        "address": {
            "street": "625 Monroe St. NE, Ste.#A7, Washington, DC 20007",
            "lat": "38.9318318",
            "lon": "-76.9971246"
        },
        "locations": "Retail",
        "wines": [
            "Rosé",
            "Pétillant Naturel Red"
        ]
    },
    {
        "id": "nYXwH9oJ-PQUh7iPGKvtQ",
        "name": "Grape D'Vine",
        "address": {
            "street": "6 Depot Square, Sparkill, NY 10976",
            "lat": "41.0300375",
            "lon": "-73.928657"
        },
        "locations": "Retail",
        "wines": [
            "Foothills"
        ]
    },
    {
        "id": "ULhf7dJMOj1Xc-1jCneF9",
        "name": "High Street on Hudson",
        "address": {
            "street": "637 Hudson St, Manhattan, NY 10014",
            "lat": "40.7388972",
            "lon": "-74.0057401"
        },
        "locations": "Restaurant",
        "wines": [
            "Young Wine Chambourcin",
            "Foothills"
        ]
    },
    {
        "id": "g2abs2jO6mZtiQyUvfrGh",
        "name": "Olmsted",
        "address": {
            "street": "659 Vanderbilt Ave, Brooklyn, NY 11238",
            "lat": "40.677064",
            "lon": "-73.9687578"
        },
        "locations": "Restaurant",
        "wines": [
            "Foothills",
            "Chardonnay"
        ]
    },
    {
        "id": "EmBJy67pl1QXOK27B-FAy",
        "name": "Hazel Jane's",
        "address": {
            "street": "670 Dekalb Ave, Atlanta, GA 30307",
            "lat": "33.7535491",
            "lon": "-84.3655673"
        },
        "locations": "Restaurant/Retail",
        "wines": [
            "Petit Manseng",
            "Rosé",
            "Shenandoah Valley Cabernet Franc"
        ]
    },
    {
        "id": "I1xNwKHfa2r_IGFH18bIY",
        "name": "Greenwood",
        "address": {
            "street": "6701 Rockfish Gap TPK, Crozet, VA 22932",
            "lat": "38.0413202",
            "lon": "-78.732343"
        },
        "locations": "Retail",
        "wines": [
            "Pétillant Naturel White",
            "Young Wine Chambourcin",
            "Rosé",
            "Chardonnay",
            "Quaker Run Chardonnay",
            "Foothills",
            "Shenandoah Valley Cabernet Franc"
        ]
    },
    {
        "id": "0Iu2zaTJRd8U1yPpElH7n",
        "name": "Organic Butcher of McLean",
        "address": {
            "street": "6712 Old Dominion Drive, McLean, VA 22101",
            "lat": "38.9335412",
            "lon": "-77.1758584"
        },
        "locations": "Retail",
        "wines": [
            "Shenandoah Valley Cabernet Franc",
            "RISE",
            "Foothills",
            "Eluvium",
            "Quaker Run Chardonnay",
            "Petit Manseng",
            "Rosé"
        ]
    },
    {
        "id": "5ldG3F6TB_qKJBCV_8j5T",
        "name": "Bon Ton",
        "address": {
            "street": "674 Myrtle Street NE , ATLANTA, GA 30308",
            "lat": "33.7729895",
            "lon": "-84.3804087"
        },
        "locations": "Restaurant",
        "wines": [
            "Rosé"
        ]
    },
    {
        "id": "lzkYBAPh86yZs5emIMcyD",
        "name": "Ashby Inn",
        "address": {
            "street": "692 Federal St, Paris, VA 20130",
            "lat": "39.0045423",
            "lon": "-77.951727"
        },
        "locations": "Restaurant",
        "wines": [
            "Petit Manseng",
            "Eluvium"
        ]
    },
    {
        "id": "e_Eos1OUo7G3ZT3zYce7l",
        "name": "Press 626",
        "address": {
            "street": "626 West Olney Rd., Norfolk, VA 23507",
            "lat": "36.8605378",
            "lon": "-76.2996588"
        },
        "locations": "Restaurant/Retail",
        "wines": [
            "Rosé"
        ]
    },
    {
        "id": "GMVkpSUe5KWJatXKlbMEg",
        "name": "Rose's at Home",
        "address": {
            "street": "731 8th Street SE, Washington, DC 20003",
            "lat": "38.8801665",
            "lon": "-76.9953797"
        },
        "locations": "Restaurant",
        "wines": [
            "Foothills"
        ]
    },
    {
        "id": "ir9uDn0BFXawOseRUeM-V",
        "name": "Wine Cellar- Staunton",
        "address": {
            "street": "8 Byers St., Staunton, VA 24401",
            "lat": "38.1477303",
            "lon": "-79.0727371"
        },
        "locations": "Retail",
        "wines": [
            "Shenandoah Valley Cabernet Franc",
            "Foothills",
            "Chardonnay",
            "Eluvium"
        ]
    },
    {
        "id": "egjMJQA10jWqvDuGDXpkD",
        "name": "Whole Foods - Tysons",
        "address": {
            "street": "7511 Leesburg Pike, Falls Church, VA 22043",
            "lat": "38.903442",
            "lon": "-77.2044823"
        },
        "locations": "Restaurant/Retail",
        "wines": [
            "Foothills"
        ]
    },
    {
        "id": "5jwSJn7ysjbQRWGVewM_n",
        "name": "Heirloom Cafe",
        "address": {
            "street": "815 N Chase St, Athens, GA 30601",
            "lat": "33.9663133",
            "lon": "-83.3931064"
        },
        "locations": "Restaurant",
        "wines": [
            "Rosé",
            "Petit Manseng"
        ]
    },
    {
        "id": "ikTcuih-ovQI81ZLGDumC",
        "name": "Heirloom Café",
        "address": {
            "street": "815 N Chase St, Athens, GA 30601",
            "lat": "33.9663133",
            "lon": "-83.3931064"
        },
        "locations": "Restaurant/Retail",
        "wines": [
            "Rosé"
        ]
    },
    {
        "id": "1j6DdzeW-rY9RBxNvmWrb",
        "name": "Local, The",
        "address": {
            "street": "824 Hinton Ave, Charlottesville, VA 22901",
            "lat": "38.0244641",
            "lon": "-78.4755275"
        },
        "locations": "Restaurant",
        "wines": [
            "Shenandoah Valley Cabernet Franc"
        ]
    },
    {
        "id": "kOP2sAsv0S_0ThFOF6OIS",
        "name": "Hill of Content",
        "address": {
            "street": "833 Tinsley Dr,, Charlottesville, VA 22732",
            "lat": "38.3228389",
            "lon": "-78.1944651"
        },
        "locations": "Restaurant",
        "wines": [
            "Chardonnay",
            "Shenandoah Valley Cabernet Franc"
        ]
    },
    {
        "id": "GSGYa2cs4Vi4BE3pmSvnG",
        "name": "Field & Main",
        "address": {
            "street": "8369 W. Main St., Marshall, VA 20115",
            "lat": "38.8647631",
            "lon": "-77.8574303"
        },
        "locations": "Restaurant/Retail",
        "wines": [
            "Rosé",
            "Foothills"
        ]
    },
    {
        "id": "J0W9ZgLYKU2tpuqvETHK6",
        "name": "Whole Foods - Springfield",
        "address": {
            "street": "8402 Old Keene Mill Road, Springfield, VA 22152",
            "lat": "38.7796348",
            "lon": "-77.2343247"
        },
        "locations": "Restaurant/Retail",
        "wines": [
            "Foothills"
        ]
    },
    {
        "id": "hm4ulPw2F2nq2hGB6Tw77",
        "name": "Enologo",
        "address": {
            "street": "857 9th Ave, Manhattan, NY 10019",
            "lat": "40.7671347",
            "lon": "-73.986653"
        },
        "locations": "Restaurant",
        "wines": [
            "Foothills"
        ]
    },
    {
        "id": "afdH5KrxfWF_iEy9botbo",
        "name": "Parc de Ville",
        "address": {
            "street": "8296 Glass Alley, Ste 110, Fairfax, VA 22031",
            "lat": "38.8736703",
            "lon": "-77.2304951"
        },
        "locations": "Restaurant",
        "wines": [
            "Young Wine Chambourcin"
        ]
    },
    {
        "id": "jrsmzrmSW9OfBIQieGhyc",
        "name": "Washington Street Purveyors",
        "address": {
            "street": "9 E Washington St, Lexington, VA 24450",
            "lat": "37.7845823",
            "lon": "-79.441534"
        },
        "locations": "Retail",
        "wines": [
            "Chardonnay"
        ]
    },
    {
        "id": "im59DgAw1Cu0Xjcg0ri6j",
        "name": "Olivino",
        "address": {
            "street": "905 Fulton Street , Brooklyn, NY 11238",
            "lat": "40.6837237",
            "lon": "-73.9671635"
        },
        "locations": "Retail",
        "wines": [
            "Rosé",
            "Chardonnay"
        ]
    },
    {
        "id": "6i2TlNhbgEQKX1gf_WY9G",
        "name": "Riggs Hotel DC",
        "address": {
            "street": "900 F St NW, Washington, DC 20004",
            "lat": "38.8971417",
            "lon": "-77.0243762"
        },
        "locations": "Restaurant",
        "wines": [
            "Five Forks"
        ]
    },
    {
        "id": "ExPv5tghuy-Ik0QUftMcu",
        "name": "Succotash",
        "address": {
            "street": "915 F St. NW, Washington, DC 20004",
            "lat": "38.897644",
            "lon": "-77.02474"
        },
        "locations": "Restaurant",
        "wines": [
            "Foothills"
        ]
    },
    {
        "id": "TNEKympFUw1AVKyGje6e6",
        "name": "Mona Lisa",
        "address": {
            "street": "921 Preston Ave, Charlottesville, VA 22903",
            "lat": "38.038434",
            "lon": "-78.489901"
        },
        "locations": "Retail",
        "wines": [
            "Young Wine Chambourcin",
            "Rosé",
            "Foothills",
            "Shenandoah Valley Cabernet Franc",
            "Petit Manseng",
            "Eluvium"
        ]
    },
    {
        "id": "Plw5YjMyc5dj8d352YZiG",
        "name": "Public Square",
        "address": {
            "street": "92 N Public Square, Jefferson, GA 30549",
            "lat": "34.1178855",
            "lon": "-83.5729874"
        },
        "locations": "Restaurant/Retail",
        "wines": [
            "Foothills"
        ]
    },
    {
        "id": "QTP5tlXCG9RMXWlrJkfUK",
        "name": "Racines",
        "address": {
            "street": "94 Chambers St, Manhattan, NY 10007",
            "lat": "40.7145903",
            "lon": "-74.0075468"
        },
        "locations": "Restaurant",
        "wines": [
            "Chardonnay"
        ]
    },
    {
        "id": "xpulQi3v9KUcXFFQIvm2i",
        "name": "Please Bring Chips",
        "address": {
            "street": "951 V St. NE, Washington, DC 20018",
            "lat": "38.9171218",
            "lon": "-76.9916225"
        },
        "locations": "Restaurant",
        "wines": [
            "Shenandoah Valley Cabernet Franc"
        ]
    },
    {
        "id": "ruSsIRmIyVk99Tb_PtgCO",
        "name": "Newtown Baking",
        "address": {
            "street": "960 W Beverlely Street, Staunton, VA 244001",
            "lat": "38.1496916",
            "lon": "-79.0738108"
        },
        "locations": "Retail",
        "wines": [
            "Foothills"
        ]
    },
    {
        "id": "MMlB0nawx-XhMy4Lg_-K3",
        "name": "Hot Cakes",
        "address": {
            "street": "Barracks Road Shopping Center, Charlottesville, VA 22903",
            "lat": "38.0528154",
            "lon": "-78.5012568"
        },
        "locations": "Retail",
        "wines": [
            "Rosé"
        ]
    },
    {
        "id": "Fx-5L_ZzWgeRIIF30PH3v",
        "name": "Montgomery Co. Dept. of Liquor Control",
        "address": {
            "street": "Division of Financial, Gaithersburg, MD 20878",
            "lat": "39.139876",
            "lon": "-77.1926495"
        },
        "locations": "Retail",
        "wines": [
            "Rosé"
        ]
    },
    {
        "id": "GYKjhiDY8U6Cp8iJFGpaN",
        "name": "Fat Canary",
        "address": {
            "street": "The Cheese Shop of VA, Inc., Williamsburg, VA 23185",
            "lat": "37.2706994",
            "lon": "-76.7061859"
        },
        "locations": "Restaurant",
        "wines": [
            "Foothills",
            "Rosé",
            "Eluvium",
            "Shenandoah Valley Cabernet Franc",
            "Pétillant Naturel Red",
            "Young Wine Chambourcin"
        ]
    },
    {
        "id": "3-LyDqpOmc9zmTEaCNZBb",
        "name": "Thornton River Grille",
        "address": {
            "street": "Thornton River Grille, Sperryville, VA 22740",
            "lat": "38.6525114",
            "lon": "-78.2667447"
        },
        "locations": "Restaurant",
        "wines": [
            "Rosé",
            "Chardonnay",
            "Petit Manseng",
            "Foothills"
        ]
    }
]