[
    {
<<<<<<< Updated upstream
        "id": "MrIxYqpXcNOJ7dYvCXS2y",
=======
        "id": "RzafeBcgCGYq_N0rlrV3c",
>>>>>>> Stashed changes
        "name": "Barrel Chest",
        "address": {
            "street": "2601 Franklin Rd. Suite A, Roanoke, VA 24014",
            "lat": "37.2489661",
            "lon": "-79.9590297"
        },
        "locations": "Restaurant/Retail",
        "wines": [
            "Cabernet Franc",
            "Chardonnay",
            "Eluvium",
            "Five Forks",
            "Foothills",
            "Petit Manseng",
            "Quaker Run Cabernet Franc",
            "Rosé",
            "Shenandoah Valley Cabernet Franc",
            "Young Wine White"
        ]
    },
    {
<<<<<<< Updated upstream
        "id": "vhcsL6tPzV0vynKZwn_D9",
=======
        "id": "0wpEwcBztFQwzuWz5KnR7",
>>>>>>> Stashed changes
        "name": "Heirloom",
        "address": {
            "street": "2484 N Landing Rd #113, Virginia Beach, VA 23456",
            "lat": "36.7493507",
            "lon": "-76.0582579"
        },
        "locations": "Restaurant",
        "wines": [
            "Cabernet Franc",
            "Quaker Run Cabernet Franc",
            "Shenandoah Valley Cabernet Franc"
        ]
    },
    {
<<<<<<< Updated upstream
        "id": "peANPyMjOn_mGPbQKB9K-",
=======
        "id": "SsdO5_32sA94uq0pdlh0h",
>>>>>>> Stashed changes
        "name": "Organic Butcher of McLean",
        "address": {
            "street": "6712 Old Dominion Drive, McLean, VA 22101",
            "lat": "38.9335412",
            "lon": "-77.1758584"
        },
        "locations": "Retail",
        "wines": [
            "Cabernet Franc",
            "Five Forks",
            "Foothills",
            "Petit Manseng",
            "Quaker Run Cabernet Franc",
            "RISE",
            "Rosé",
            "Shenandoah Valley Cabernet Franc",
            "Young Wine Red"
        ]
    },
    {
<<<<<<< Updated upstream
        "id": "BV97SbIMYSDtrjUEf-4Vn",
=======
        "id": "L04MZeNHBmfydvVVeZaa4",
>>>>>>> Stashed changes
        "name": "Wine Guild",
        "address": {
            "street": "221 Carlton Rd, Suite 1, Charlottesville, VA 22902",
            "lat": "38.0239329",
            "lon": "-78.4698251"
        },
        "locations": "Retail",
        "wines": [
            "Cabernet Franc",
            "Chardonnay",
            "Eluvium",
            "Rosé",
            "Shenandoah Valley Cabernet Franc",
            "Young Wine White"
        ]
    },
    {
<<<<<<< Updated upstream
        "id": "-oGPCYcVisrDAGLwqh2ov",
=======
        "id": "P06uecQHeXWR6GVh-j22d",
>>>>>>> Stashed changes
        "name": "Salisbury Country Club",
        "address": {
            "street": "13620 W. Salisbury Rd, Midlothian, VA 23113",
            "lat": "37.527933",
            "lon": "-77.653554"
        },
        "locations": "Restaurant",
        "wines": [
            "Cabernet Franc",
            "Chardonnay",
            "Foothills",
            "Petit Manseng"
        ]
    },
    {
<<<<<<< Updated upstream
        "id": "xauPnyLPsslmJajWg9AYr",
=======
        "id": "H-GyvVPE6dys3zZ8qtLJP",
>>>>>>> Stashed changes
        "name": "Balducci's - Alexandria",
        "address": {
            "street": "600 Franklin St, Alexandria, VA 22314",
            "lat": "38.7978102",
            "lon": "-77.0479011"
        },
        "locations": "Restaurant/Retail",
        "wines": [
            "Chardonnay",
            "Eluvium",
            "RISE",
            "Shenandoah Valley Cabernet Franc",
            "Young Wine Red"
        ]
    },
    {
<<<<<<< Updated upstream
        "id": "-IX2e0V8mGllcdG9OFapL",
=======
        "id": "9J3gZ6Gj9nWxJ1bV8RWxT",
>>>>>>> Stashed changes
        "name": "Barrel Thief",
        "address": {
            "street": "5805 Patterson Ave, Richmond, VA 23226",
            "lat": "37.5794435",
            "lon": "-77.5149812"
        },
        "locations": "Restaurant/Retail",
        "wines": [
            "Chardonnay",
            "Foothills",
            "Pétillant Naturel White",
            "Rosé"
        ]
    },
    {
<<<<<<< Updated upstream
        "id": "TU1LECrqhTjUW_140mgH-",
=======
        "id": "dmyMXitptvzNzqjgdL7Wd",
>>>>>>> Stashed changes
        "name": "Bottleworks",
        "address": {
            "street": "3078 Stony Point Rd., Richmond, VA 23235",
            "lat": "37.537796",
            "lon": "-77.5651916"
        },
        "locations": "Retail",
        "wines": [
            "Chardonnay",
            "Foothills"
        ]
    },
    {
<<<<<<< Updated upstream
        "id": "47PEH_Fxwpc7eYye6sfgD",
=======
        "id": "pFm-XwtOansgzfH6x09bS",
>>>>>>> Stashed changes
        "name": "Caboose",
        "address": {
            "street": "108 S. Railroad Ave., Ashland, VA 23005",
            "lat": "37.758286",
            "lon": "-77.4816338"
        },
        "locations": "Restaurant",
        "wines": [
            "Chardonnay",
            "Foothills",
            "Rosé"
        ]
    },
    {
<<<<<<< Updated upstream
        "id": "3yoX_b-5xc1_lFGvx9lBf",
=======
        "id": "c9lkYR6jnr4cW1r1jaYLZ",
>>>>>>> Stashed changes
        "name": "Mae's Market",
        "address": {
            "street": "Virginia's Darling LLC, Alexandria, VA 22314",
            "lat": "38.7999723",
            "lon": "-77.0506896"
        },
        "locations": "Retail",
        "wines": [
            "Chardonnay",
            "Rosé",
            "Young Wine Red",
            "Young Wine White"
        ]
    },
    {
<<<<<<< Updated upstream
        "id": "mQUaE6Y3fR4nFwr3IHgoH",
=======
        "id": "Mtu2y4IwYibyKiHi3_WM_",
>>>>>>> Stashed changes
        "name": "Thornton River Grille",
        "address": {
            "street": "Thornton River Grille, Sperryville, VA 22740",
            "lat": "38.657256",
            "lon": "-78.22669"
        },
        "locations": "Restaurant",
        "wines": [
            "Chardonnay",
            "Eluvium",
            "Foothills",
            "Petit Manseng",
            "Rosé",
            "Young Wine White"
        ]
    },
    {
<<<<<<< Updated upstream
        "id": "LivIl0iz7-bW_kGJdWegX",
=======
        "id": "TGfYM7KFdhxoZ1xcAexL_",
>>>>>>> Stashed changes
        "name": "Mona Lisa",
        "address": {
            "street": "921 Preston Ave, Charlottesville, VA 22903",
            "lat": "38.038434",
            "lon": "-78.489901"
        },
        "locations": "Retail",
        "wines": [
            "Chardonnay",
            "Eluvium",
            "Foothills",
            "Petit Manseng",
            "Rosé",
            "Young Wine Red",
            "Young Wine White"
        ]
    },
    {
<<<<<<< Updated upstream
        "id": "3c-H9vkC_Unxvq2bLEYap",
=======
        "id": "IGIpvOf3He6H3FB1E0ue-",
>>>>>>> Stashed changes
        "name": "Tinto Wine & Cheese - Chesapeake",
        "address": {
            "street": "236 Carmichael Way #308, Chesapeake, VA 23322",
            "lat": "36.660423",
            "lon": "-76.233525"
        },
        "locations": "Restaurant",
        "wines": [
            "Chardonnay",
            "Shenandoah Valley Cabernet Franc"
        ]
    },
    {
<<<<<<< Updated upstream
        "id": "CpFpZD390ui6KK622Wagq",
=======
        "id": "zh4PpDR1mJcOSo1VcGxyJ",
>>>>>>> Stashed changes
        "name": "Tinto Wine & Cheese - Hilltop",
        "address": {
            "street": "640 Hilltop West Shopping Ctr, Virginia Beach, VA 23451",
            "lat": "36.8524094",
            "lon": "-76.0208537"
        },
        "locations": "Restaurant",
        "wines": [
            "Chardonnay",
            "Shenandoah Valley Cabernet Franc"
        ]
    },
    {
<<<<<<< Updated upstream
        "id": "m4r6u7fRaafqGEthGeakv",
=======
        "id": "CXu_iAHo1UqprkvmvOY_2",
>>>>>>> Stashed changes
        "name": "Town Duck",
        "address": {
            "street": "100 Main St, Warrenton, VA 20186",
            "lat": "38.7122701",
            "lon": "-77.7930779"
        },
        "locations": "Restaurant",
        "wines": [
            "Chardonnay",
            "Eluvium",
            "Five Forks",
            "Foothills",
            "Petit Manseng",
            "Rosé"
        ]
    },
    {
<<<<<<< Updated upstream
        "id": "DGtylr9vxc0XcPdCC6YlJ",
=======
        "id": "Dk6kbY4iRetnVsA1zBlNk",
>>>>>>> Stashed changes
        "name": "Clementine Cafe",
        "address": {
            "street": "153 S Main St, Harrisonburg, VA 22801",
            "lat": "38.4478062",
            "lon": "-78.8692932"
        },
        "locations": "Restaurant",
        "wines": [
            "Chardonnay",
            "Rosé"
        ]
    },
    {
<<<<<<< Updated upstream
        "id": "yPDs7A5yy619s2n0RzkFI",
=======
        "id": "9wANF7eDxRPiTu9zbBZs5",
>>>>>>> Stashed changes
        "name": "Corks & Kegs",
        "address": {
            "street": "7110 Patterson Ave, Suite A, Richmond, VA 23229",
            "lat": "37.5924087",
            "lon": "-77.5329934"
        },
        "locations": "Retail",
        "wines": [
            "Chardonnay",
            "Eluvium",
            "Foothills",
            "Rosé",
            "Shenandoah Valley Cabernet Franc",
            "Young Wine White"
        ]
    },
    {
<<<<<<< Updated upstream
        "id": "Y5LLyoblswOl-ngL_TAxB",
=======
        "id": "rqtpsI20iwHFMs8LSUIOu",
>>>>>>> Stashed changes
        "name": "Crystal Palate",
        "address": {
            "street": "4500 Pretty Lake Avenue, Norfolk, VA 23518",
            "lat": "36.925493",
            "lon": "-76.1880817"
        },
        "locations": "Retail",
        "wines": [
            "Chardonnay",
            "RISE"
        ]
    },
    {
<<<<<<< Updated upstream
        "id": "ehQBtdktq3Xhiy3x1lFVb",
=======
        "id": "d05ZwvDYET48mXf32Gd2K",
>>>>>>> Stashed changes
        "name": "Dominion Wine and Beer",
        "address": {
            "street": "107 Rowell Ct., Falls Church, VA 22046",
            "lat": "38.889851",
            "lon": "-77.1836308"
        },
        "locations": "Restaurant/Retail",
        "wines": [
            "Chardonnay",
            "Foothills",
            "Rosé",
            "Young Wine White"
        ]
    },
    {
<<<<<<< Updated upstream
        "id": "R2WBnSA_m-yKYovXhdfSP",
=======
        "id": "iFW_v-ayRbWYrvxWPML8a",
>>>>>>> Stashed changes
        "name": "Fat Canary",
        "address": {
            "street": "The Cheese Shop of VA, Inc., Williamsburg, VA 23185",
            "lat": "37.2706994",
            "lon": "-76.7061859"
        },
        "locations": "Restaurant",
        "wines": [
            "Chardonnay",
            "Eluvium",
            "Foothills",
            "Petit Manseng",
            "RISE",
            "Rosé",
            "Shenandoah Valley Cabernet Franc",
            "Young Wine Red",
            "Young Wine White"
        ]
    },
    {
<<<<<<< Updated upstream
        "id": "YbPHJplvLJqRHL5TBFWMs",
=======
        "id": "zCDiFo5nDM9fmUSV7tSEc",
>>>>>>> Stashed changes
        "name": "Green Hill Kitchen",
        "address": {
            "street": "48 Front Street, Greenport, NY 11944",
            "lat": "41.1024434",
            "lon": "-72.3602946"
        },
        "locations": "Restaurant",
        "wines": [
            "Chardonnay"
        ]
    },
    {
<<<<<<< Updated upstream
        "id": "5YV4wHt8RYHk4FP3IaDm0",
=======
        "id": "XFavTVbKaM5JoV-cqguJm",
>>>>>>> Stashed changes
        "name": "Lafayette Inn",
        "address": {
            "street": "146 Main St, Stanardsville, VA 22973",
            "lat": "38.2973026",
            "lon": "-78.4385356"
        },
        "locations": "Restaurant",
        "wines": [
            "Chardonnay",
            "Shenandoah Valley Cabernet Franc"
        ]
    },
    {
<<<<<<< Updated upstream
        "id": "eNSLmTen6i0N78bJdlrW6",
=======
        "id": "-CKuA7BgI-IIMTYVEBQ4o",
>>>>>>> Stashed changes
        "name": "Lucky",
        "address": {
            "street": "18 Kirk Ave SW, Roanoke, VA 24011",
            "lat": "37.2709987",
            "lon": "-79.9414035"
        },
        "locations": "Restaurant",
        "wines": [
            "Chardonnay",
            "Young Wine Red"
        ]
    },
    {
<<<<<<< Updated upstream
        "id": "EG-MiJp4nzdcTtVgrtbhv",
=======
        "id": "TyjMPL3mL7D_CQ6WQcd-j",
>>>>>>> Stashed changes
        "name": "Market Street Wine Shop",
        "address": {
            "street": "311 East Market St, Charlottesville, VA 22902",
            "lat": "38.0310819",
            "lon": "-78.4790515"
        },
        "locations": "Retail",
        "wines": [
            "Chardonnay",
            "Eluvium",
            "Five Forks",
            "Foothills",
            "Petit Manseng",
            "Rosé"
        ]
    },
    {
<<<<<<< Updated upstream
        "id": "sYwXlD3DBnT-qaTm58dPN",
=======
        "id": "8xiBoNWxyxriWoPnNHFqg",
>>>>>>> Stashed changes
        "name": "Primland Resort",
        "address": {
            "street": "2000 Busted Rock Road, Meadows of Dan, VA 24120",
            "lat": "36.6881805",
            "lon": "-80.3543771"
        },
        "locations": "Restaurant",
        "wines": [
            "Chardonnay",
            "Eluvium",
            "Shenandoah Valley Cabernet Franc"
        ]
    },
    {
<<<<<<< Updated upstream
        "id": "1RwWlGO2ANmNUB29gHJJj",
=======
        "id": "TRvG4Rrd8G371Bn_SQH3y",
>>>>>>> Stashed changes
        "name": "Metro Liquors",
        "address": {
            "street": "1726 Columbia Rd NW, Washington, DC 20009",
            "lat": "38.9243637",
            "lon": "-77.0397196"
        },
        "locations": "Retail",
        "wines": [
            "Chardonnay",
            "Quaker Run Chardonnay",
            "Shenandoah Valley Cabernet Franc"
        ]
    },
    {
<<<<<<< Updated upstream
        "id": "zTIvFWDbdFZsZHqqvPwgf",
=======
        "id": "BJjutrPz_MWtLidclU4bR",
>>>>>>> Stashed changes
        "name": "Thornton River Grille",
        "address": {
            "street": "Thornton River Grille, Sperryville, VA 22740",
            "lat": "38.657256",
            "lon": "-78.22669"
        },
        "locations": "Restaurant",
        "wines": [
            "Chardonnay",
            "Eluvium",
            "Foothills",
            "Petit Manseng"
        ]
    },
    {
<<<<<<< Updated upstream
        "id": "2CdTXosaXprpJHw1a8FnA",
=======
        "id": "QK68WMFysZswgkGNfTLRV",
>>>>>>> Stashed changes
        "name": "Walsh Family Wines",
        "address": {
            "street": "16031 Hillsboro Road, Purcellville, VA 20132",
            "lat": "39.1739045",
            "lon": "-77.7251377"
        },
        "locations": "Restaurant",
        "wines": [
            "Chardonnay",
            "Petit Manseng"
        ]
    },
    {
<<<<<<< Updated upstream
        "id": "p0aLLC041-eIhrodShIzs",
=======
        "id": "Z0G3nuj-nidjj-moME-Jr",
>>>>>>> Stashed changes
        "name": "Westside Produce & Provisions",
        "address": {
            "street": "5015 Colley Ave., Norfolk, VA 23508",
            "lat": "36.8890972",
            "lon": "-76.2954949"
        },
        "locations": "Retail",
        "wines": [
            "Chardonnay",
            "Eluvium",
            "Five Forks",
            "Foothills",
            "Petit Manseng",
            "Rosé",
            "Shenandoah Valley Cabernet Franc"
        ]
    },
    {
<<<<<<< Updated upstream
        "id": "KPhZ9AFaeZWF5lYhZb_bn",
=======
        "id": "ZIeoGzHR3nCM7zFWfbwsn",
>>>>>>> Stashed changes
        "name": "Blacksburg Wine Lab",
        "address": {
            "street": "223 Gilbert Street, Blacksburg, VA 24060",
            "lat": "37.2331803",
            "lon": "-80.4212379"
        },
        "locations": "Restaurant",
        "wines": [
            "Chardonnay",
            "Rosé",
            "Shenandoah Valley Cabernet Franc"
        ]
    },
    {
<<<<<<< Updated upstream
        "id": "KaRi8Dk0tU6tR7c8Vz4D9",
=======
        "id": "Mqgm-UFkAvSgeZK2RmYBq",
>>>>>>> Stashed changes
        "name": "Ellwood Thompson",
        "address": {
            "street": "4 N Thompson St, Richmond, VA 23221",
            "lat": "37.5574138",
            "lon": "-77.4884332"
        },
        "locations": "Retail",
        "wines": [
            "Chardonnay",
            "Eluvium",
            "Five Forks",
            "Foothills",
            "Pétillant Naturel White",
            "Petit Manseng",
            "Quaker Run Chardonnay",
            "RISE",
            "Rosé",
            "Shenandoah Valley Cabernet Franc",
            "Young Wine Red",
            "Young Wine White"
        ]
    },
    {
<<<<<<< Updated upstream
        "id": "TYluSE-1fMZjCkSUptrIN",
=======
        "id": "ddr6KqRHW-5OlgosoYei1",
>>>>>>> Stashed changes
        "name": "Crystal Spring Grocery",
        "address": {
            "street": "2205 Crystal Spring Ave SW, Roanoke, VA 24014",
            "lat": "37.2485824",
            "lon": "-79.9468989"
        },
        "locations": "Restaurant/Retail",
        "wines": [
            "Chardonnay"
        ]
    },
    {
<<<<<<< Updated upstream
        "id": "Nnmm356ot_Jfw1iFfBKY8",
=======
        "id": "2PbkyyO_3DcETOKAvY_R8",
>>>>>>> Stashed changes
        "name": "Fat Canary",
        "address": {
            "street": "The Cheese Shop of VA, Inc., Williamsburg, VA 23185",
            "lat": "37.2706994",
            "lon": "-76.7061859"
        },
        "locations": "Restaurant",
        "wines": [
            "Chardonnay",
            "Eluvium",
            "Foothills",
            "Rosé",
            "Shenandoah Valley Cabernet Franc"
        ]
    },
    {
<<<<<<< Updated upstream
        "id": "_7yQ3tZ_o--n-t6yjDYkj",
=======
        "id": "Z0U1USRZLsK7t9cumcy6C",
>>>>>>> Stashed changes
        "name": "Foods of All Nations",
        "address": {
            "street": "2121 Ivy Rd, Charlottesville, VA 22903",
            "lat": "38.0432978",
            "lon": "-78.5119067"
        },
        "locations": "Retail",
        "wines": [
            "Chardonnay",
            "Eluvium",
            "Foothills",
            "Petit Manseng",
            "Rosé",
            "Shenandoah Valley Cabernet Franc",
            "Young Wine Red",
            "Young Wine White"
        ]
    },
    {
<<<<<<< Updated upstream
        "id": "cVb7Ihidwk7YEJNuKYGGp",
=======
        "id": "Fkz31sfwwKhX6tM4VtiQF",
>>>>>>> Stashed changes
        "name": "Greenwood",
        "address": {
            "street": "6701 Rockfish Gap TPK, Crozet, VA 22932",
            "lat": "38.0413202",
            "lon": "-78.732343"
        },
        "locations": "Retail",
        "wines": [
            "Chardonnay",
            "Eluvium",
            "Five Forks",
            "Foothills",
            "Pétillant Naturel White",
            "Petit Manseng",
            "Rosé",
            "Shenandoah Valley Cabernet Franc",
            "Young Wine",
            "Young Wine Red",
            "Young Wine White"
        ]
    },
    {
<<<<<<< Updated upstream
        "id": "lerjfWGLhYMr-cbjD1An_",
=======
        "id": "M4oKVuWoOslHTOI8eqqt9",
>>>>>>> Stashed changes
        "name": "Marigold by Jean Georges",
        "address": {
            "street": "Keswick Hall & Golf Club, Keswick, VA 22947",
            "lat": "38.0167803",
            "lon": "-78.3666045"
        },
        "locations": "Restaurant",
        "wines": [
            "Chardonnay"
        ]
    },
    {
<<<<<<< Updated upstream
        "id": "e-z0YSjmuCwLfbseK8W1M",
=======
        "id": "Ngj9rEVB5tbcygbARLQ9q",
>>>>>>> Stashed changes
        "name": "Old Lex Mercantile",
        "address": {
            "street": "113 W Nelson St., Lexington, VA 24450",
            "lat": "37.7851009",
            "lon": "-79.4439846"
        },
        "locations": "Restaurant/Retail",
        "wines": [
            "Chardonnay",
            "Eluvium"
        ]
    },
    {
<<<<<<< Updated upstream
        "id": "laQT_BZXm8QbMI7yRc9ph",
=======
        "id": "0QfES7CmE6U2I_JEYEIl0",
>>>>>>> Stashed changes
        "name": "Whole Ox",
        "address": {
            "street": "8357 West Main Street, Marshall, VA 20115",
            "lat": "38.8651661",
            "lon": "-77.856671"
        },
        "locations": "Restaurant/Retail",
        "wines": [
            "Chardonnay",
            "Eluvium"
        ]
    },
    {
<<<<<<< Updated upstream
        "id": "qxXgFG10Nb2r43tL2UUuf",
=======
        "id": "QRAu-b_JPC6cj6Z3Azr2Q",
>>>>>>> Stashed changes
        "name": "Williamsburg Winery",
        "address": {
            "street": "5800 Wessex Hundred, Williamsburg, VA 23185",
            "lat": "37.2315138",
            "lon": "-76.718275"
        },
        "locations": "Restaurant",
        "wines": [
            "Chardonnay",
            "Eluvium"
        ]
    },
    {
<<<<<<< Updated upstream
        "id": "nV-VD48oCSD1UTdAKyfBv",
=======
        "id": "8Rl86JNsl8ft1s_6OQvbO",
>>>>>>> Stashed changes
        "name": "Wine Guild",
        "address": {
            "street": "221 Carlton Rd, Suite 1, Charlottesville, VA 22902",
            "lat": "38.0239329",
            "lon": "-78.4698251"
        },
        "locations": "Retail",
        "wines": [
            "Chardonnay",
            "Eluvium",
            "Shenandoah Valley Cabernet Franc",
            "Young Wine White"
        ]
    },
    {
<<<<<<< Updated upstream
        "id": "vtb0nkLJfz8zKo8v2ZI8Z",
=======
        "id": "5rrQv0zwPzkAIy7Dt6idP",
>>>>>>> Stashed changes
        "name": "Wine Warehouse",
        "address": {
            "street": "1804 Hydraulic Rd, Charlottesville, VA 22902",
            "lat": "38.0607943",
            "lon": "-78.4914214"
        },
        "locations": "Retail",
        "wines": [
            "Chardonnay",
            "Foothills",
            "Quaker Run Chardonnay",
            "Rosé",
            "Shenandoah Valley Cabernet Franc",
            "Young Wine Red"
        ]
    },
    {
<<<<<<< Updated upstream
        "id": "ZJMlMCkYz-64SSez0zm4q",
=======
        "id": "I7UOj2iGByDnH_GxYzDqh",
>>>>>>> Stashed changes
        "name": "Arrowine",
        "address": {
            "street": "4508 Lee Hwy, Arlington, VA 22207",
            "lat": "38.8983733",
            "lon": "-77.1183586"
        },
        "locations": "Restaurant/Retail",
        "wines": [
            "Chardonnay",
            "Eluvium",
            "Foothills",
            "Pétillant Naturel White",
            "RISE",
            "Rosé",
            "Young Wine Red"
        ]
    },
    {
<<<<<<< Updated upstream
        "id": "RFi0y9Ray73VltfghDml0",
=======
        "id": "d0X2LG5b8Z1J92biDpDUH",
>>>>>>> Stashed changes
        "name": "Basic Necessities",
        "address": {
            "street": "2226 Rockfish Valley Hwy, Nellysford, VA 22958",
            "lat": "37.8864588",
            "lon": "-78.8838422"
        },
        "locations": "Restaurant/Retail",
        "wines": [
            "Chardonnay",
            "Foothills"
        ]
    },
    {
<<<<<<< Updated upstream
        "id": "aCC9o4Ns3AhWsM2JuVZZn",
=======
        "id": "-hUi-TuzfAn1k8gB_i83h",
>>>>>>> Stashed changes
        "name": "Norm's Beer & Wine",
        "address": {
            "street": "136 Branch Rd SE, Vienna, VA 22180",
            "lat": "38.9062317",
            "lon": "-77.257151"
        },
        "locations": "Retail",
        "wines": [
            "Chardonnay",
            "Eluvium",
            "Five Forks",
            "Foothills",
            "Pétillant Naturel White",
            "Quaker Run Chardonnay",
            "Rosé",
            "Shenandoah Valley Cabernet Franc",
            "Young Wine",
            "Young Wine Red"
        ]
    },
    {
<<<<<<< Updated upstream
        "id": "aMAIyDljcBmaZJnBBQH6i",
=======
        "id": "SUKMI4V2p_VVhS4Ae-TzU",
>>>>>>> Stashed changes
        "name": "Locke Store",
        "address": {
            "street": "2049 Millwood Rd., Millwood, VA 22646",
            "lat": "39.0695654",
            "lon": "-78.0379321"
        },
        "locations": "Retail",
        "wines": [
            "Chardonnay",
            "Eluvium",
            "RISE",
            "Rosé"
        ]
    },
    {
<<<<<<< Updated upstream
        "id": "sdey9B4ooEqwk_s4rYymS",
=======
        "id": "0yU3yz0KLEiUdXnxPh7Wg",
>>>>>>> Stashed changes
        "name": "J Emerson",
        "address": {
            "street": "5716 Grove Ave, Richmond, VA 23226",
            "lat": "37.5733362",
            "lon": "-77.5180274"
        },
        "locations": "Retail",
        "wines": [
            "Chardonnay",
            "Five Forks",
            "Foothills",
            "Rosé",
            "Shenandoah Valley Cabernet Franc"
        ]
    },
    {
<<<<<<< Updated upstream
        "id": "pO8mJIP6VWUldy3B-6hHj",
=======
        "id": "gvmLQwna_wNIugOkI073S",
>>>>>>> Stashed changes
        "name": "Lydia Mountain Lodge",
        "address": {
            "street": "426 Mountain Laurel Pass, Stanardsville, VA 22973",
            "lat": "38.3359273",
            "lon": "-78.4848288"
        },
        "locations": "Restaurant",
        "wines": [
            "Chardonnay",
            "Foothills",
            "Petit Manseng",
            "Rosé"
        ]
    },
    {
<<<<<<< Updated upstream
        "id": "NA4BaZXHTjNZZdpy34SIf",
=======
        "id": "mDIjGJsYh1h67bZ1Iepcf",
>>>>>>> Stashed changes
        "name": "Mom's Apple Pie - Hill High",
        "address": {
            "street": "35246 Harry Byrd Hwy Ste. 100, Round Hill, VA 20141",
            "lat": "39.1277991",
            "lon": "-77.7873132"
        },
        "locations": "Retail",
        "wines": [
            "Chardonnay",
            "Eluvium",
            "Pétillant Naturel White",
            "Petit Manseng",
            "Rosé",
            "Shenandoah Valley Cabernet Franc",
            "Young Wine White"
        ]
    },
    {
<<<<<<< Updated upstream
        "id": "NgsM_bj1Ye2KMm5-HfHcB",
=======
        "id": "LY6z9aAu7gANyFj9KY_xn",
>>>>>>> Stashed changes
        "name": "Mom's Apple Pie - Occoquan",
        "address": {
            "street": "126 A Commerce St, Occoquan Historic Dist., VA 22125",
            "lat": "38.6823226",
            "lon": "-77.260111"
        },
        "locations": "Retail",
        "wines": [
            "Chardonnay",
            "Rosé",
            "Shenandoah Valley Cabernet Franc",
            "Young Wine Red",
            "Young Wine White"
        ]
    },
    {
<<<<<<< Updated upstream
        "id": "eXO76JmkeKlOZgqDpA5Pv",
=======
        "id": "FJjd3KqUnFXuy63bKr01h",
>>>>>>> Stashed changes
        "name": "Omni - Homestead Resort",
        "address": {
            "street": "7696 Sam Snead Highway, Hot Springs, VA 24445",
            "lat": "37.9970692",
            "lon": "-79.8305868"
        },
        "locations": "Restaurant",
        "wines": [
            "Chardonnay",
            "Eluvium",
            "Foothills",
            "Petit Manseng",
            "Shenandoah Valley Cabernet Franc",
            "Young Wine Red"
        ]
    },
    {
<<<<<<< Updated upstream
        "id": "mnmOvi9ZaFQi_OfbY9uP8",
=======
        "id": "YbopwTrb-151rVAbjBvR_",
>>>>>>> Stashed changes
        "name": "Salt Line, The- Ballston",
        "address": {
            "street": "4040 Wilson Blvd., Arlington, VA 22203",
            "lat": "38.8796459",
            "lon": "-77.1086715"
        },
        "locations": "Restaurant",
        "wines": [
            "Chardonnay"
        ]
    },
    {
<<<<<<< Updated upstream
        "id": "xecs23OOYW37Vh-g8-loG",
=======
        "id": "028EOkIoRq5pHE1ovHiGj",
>>>>>>> Stashed changes
        "name": "Valley Pike Farm Market",
        "address": {
            "street": "3494 Lee Highway, Weyers Cave, VA 24486",
            "lat": "38.2934427",
            "lon": "-78.9356747"
        },
        "locations": "Retail",
        "wines": [
            "Chardonnay",
            "Foothills",
            "Petit Manseng",
            "RISE",
            "Rosé",
            "Shenandoah Valley Cabernet Franc"
        ]
    },
    {
<<<<<<< Updated upstream
        "id": "KWIqA8Khc8mcYejkdcysv",
=======
        "id": "PqrBWUTDf5QYRT-oCcqNc",
>>>>>>> Stashed changes
        "name": "White Moose Inn",
        "address": {
            "street": "291 Main St., Washington, VA 22747",
            "lat": "38.7123391",
            "lon": "-78.16034"
        },
        "locations": "Restaurant",
        "wines": [
            "Chardonnay",
            "Foothills"
        ]
    },
    {
<<<<<<< Updated upstream
        "id": "srrHSAhYP4Oow0BAmBt1w",
=======
        "id": "sUj2BQHM09OD98UDZxiqJ",
>>>>>>> Stashed changes
        "name": "Wool Factory",
        "address": {
            "street": "1837 Broadway Street, Charlottesville, VA 22902",
            "lat": "38.0197143",
            "lon": "-78.4557898"
        },
        "locations": "Restaurant/Retail",
        "wines": [
            "Chardonnay",
            "Eluvium",
            "Foothills",
            "Quaker Run Chardonnay",
            "Rosé",
            "Shenandoah Valley Cabernet Franc",
            "Young Wine Red",
            "Young Wine White"
        ]
    },
    {
<<<<<<< Updated upstream
        "id": "_YkyV5xsz6wQIwFtXm9lz",
=======
        "id": "ELLPQzePW7CMrhx9KURpS",
>>>>>>> Stashed changes
        "name": "Von",
        "address": {
            "street": "3 Bleeker Street, New York, NY 10012",
            "lat": "40.7254829",
            "lon": "-73.9926215"
        },
        "locations": "Restaurant",
        "wines": [
            "Chardonnay"
        ]
    },
    {
<<<<<<< Updated upstream
        "id": "fBdaue5oGKSfxMax5iIKM",
=======
        "id": "Y7-8JhI5GqIiN5kiRM06G",
>>>>>>> Stashed changes
        "name": "Bluejacket",
        "address": {
            "street": "300 Tingey St. SE, Washington, DC 20374",
            "lat": "38.8751743",
            "lon": "-77.0014763"
        },
        "locations": "Restaurant",
        "wines": [
            "Eluvium",
            "Rosé"
        ]
    },
    {
<<<<<<< Updated upstream
        "id": "Ie93Qn9u09nvmQjDg4_fz",
=======
        "id": "-w296ik3LYfOSuS0rFqx9",
>>>>>>> Stashed changes
        "name": "City Vino",
        "address": {
            "street": "810 Caroline St Ste 101, Fredericksburg, VA 22407",
            "lat": "38.3020808",
            "lon": "-77.4587685"
        },
        "locations": "Retail",
        "wines": [
            "Chardonnay",
            "Eluvium",
            "Five Forks",
            "Foothills",
            "Shenandoah Valley Cabernet Franc"
        ]
    },
    {
<<<<<<< Updated upstream
        "id": "jyh8wi6RNfqpr3sMPFAju",
=======
        "id": "aye6MTQ1l0fGv7Pc_6Ak2",
>>>>>>> Stashed changes
        "name": "Knead Wine",
        "address": {
            "street": "5 W Washington Street, Middleburg, VA 20117",
            "lat": "38.9687122",
            "lon": "-77.7358083"
        },
        "locations": "Restaurant",
        "wines": [
            "Eluvium"
        ]
    },
    {
<<<<<<< Updated upstream
        "id": "Ey_LBAdB0Sxv6D4IGbQFf",
=======
        "id": "ZvyHLmv2g1000W6hs0Vso",
>>>>>>> Stashed changes
        "name": "Local Chop & Grill House",
        "address": {
            "street": "56 W Gay St #107, Harrisonburg, VA 22802",
            "lat": "38.4539237",
            "lon": "-78.8684235"
        },
        "locations": "Restaurant",
        "wines": [
            "Eluvium",
            "Rosé",
            "Shenandoah Valley Cabernet Franc"
        ]
    },
    {
<<<<<<< Updated upstream
        "id": "_2zcBqjuoa_MF-O2uC_dO",
=======
        "id": "rfVaD8Vz4pX886F6Afb0u",
>>>>>>> Stashed changes
        "name": "Olmsted",
        "address": {
            "street": "659 Vanderbilt Ave, Brooklyn, NY 11238",
            "lat": "40.677064",
            "lon": "-73.9687578"
        },
        "locations": "Restaurant/Retail",
        "wines": [
            "Eluvium"
        ]
    },
    {
<<<<<<< Updated upstream
        "id": "cSAMksnDugRBbTsj0BpuQ",
=======
        "id": "QTwmdnSKVcDMjG1rmPMjH",
>>>>>>> Stashed changes
        "name": "Aberdeen Barn",
        "address": {
            "street": "2018 Holiday Drive, Charlottesville, VA 22901",
            "lat": "38.0587447",
            "lon": "-78.4931749"
        },
        "locations": "Restaurant",
        "wines": [
            "Eluvium",
            "Foothills"
        ]
    },
    {
<<<<<<< Updated upstream
        "id": "PlLWn6uuFep2O9qPB6eF_",
=======
        "id": "4F8Gv35oDK0qN-8VxgDSn",
>>>>>>> Stashed changes
        "name": "Cochon d'Or",
        "address": {
            "street": "2829 Main St, Hot Springs, VA 24445",
            "lat": "37.9998484",
            "lon": "-79.8317533"
        },
        "locations": "Restaurant",
        "wines": [
            "Eluvium"
        ]
    },
    {
<<<<<<< Updated upstream
        "id": "Dv9UWsBERuLl25-AjwlAd",
=======
        "id": "E8sAGoFBZqWNA3z3cWzI4",
>>>>>>> Stashed changes
        "name": "Everyday Sommelier",
        "address": {
            "street": "514 B 5th St, Lynchburg, VA 24504",
            "lat": "37.4160576",
            "lon": "-79.1485347"
        },
        "locations": "Restaurant",
        "wines": [
            "Eluvium",
            "RISE"
        ]
    },
    {
<<<<<<< Updated upstream
        "id": "l2G8yw6fmFXjNPhhNc6C0",
=======
        "id": "2U9FMLyCDpcjwXVjotDRE",
>>>>>>> Stashed changes
        "name": "Knead Wine",
        "address": {
            "street": "5 W Washington Street, Middleburg, VA 20117",
            "lat": "38.9687122",
            "lon": "-77.7358083"
        },
        "locations": "Restaurant",
        "wines": [
            "Eluvium"
        ]
    },
    {
<<<<<<< Updated upstream
        "id": "GscbqCr-h9mvvXmcWw8Mu",
=======
        "id": "aEO0UrjI49t_O7n9KyqIo",
>>>>>>> Stashed changes
        "name": "La Fromagerie",
        "address": {
            "street": "1222 King St, Alexandria, VA 22314",
            "lat": "38.805648",
            "lon": "-77.053429"
        },
        "locations": "Restaurant/Retail",
        "wines": [
            "Eluvium",
            "Pétillant Naturel White"
        ]
    },
    {
<<<<<<< Updated upstream
        "id": "5UhhBGCEpdiK2lYH58Wp1",
=======
        "id": "0YaDNnQ1yHCZ3qxp2WdF-",
>>>>>>> Stashed changes
        "name": "Unwined - Belle View",
        "address": {
            "street": "1600 Belle View Blvd., Alexandria, VA 22307",
            "lat": "38.7761672",
            "lon": "-77.0597746"
        },
        "locations": "Retail",
        "wines": [
            "Eluvium",
            "Petit Manseng",
            "Rosé",
            "Shenandoah Valley Cabernet Franc"
        ]
    },
    {
<<<<<<< Updated upstream
        "id": "iueNQQpUO-ORnvXfHuj90",
=======
        "id": "jEaOxgxhhz0hZt0CbcPtY",
>>>>>>> Stashed changes
        "name": "Tuscatora Mill",
        "address": {
            "street": "203 Harrison St SE, Leesburg, VA 20175",
            "lat": "39.1126676",
            "lon": "-77.5629852"
        },
        "locations": "Restaurant",
        "wines": [
            "Eluvium",
            "Shenandoah Valley Cabernet Franc"
        ]
    },
    {
<<<<<<< Updated upstream
        "id": "baDi_DHyLbMBSK8Z0fNPU",
=======
        "id": "3YxMOZOHTqU4nByqlPkWM",
>>>>>>> Stashed changes
        "name": "Zynodoa",
        "address": {
            "street": "115 E Beverly St, Staunton, VA 24401",
            "lat": "38.149814",
            "lon": "-79.0709713"
        },
        "locations": "Restaurant",
        "wines": [
            "Eluvium",
            "Petit Manseng"
        ]
    },
    {
<<<<<<< Updated upstream
        "id": "7QWDxomG2vIqbkuaHvgym",
=======
        "id": "vMii5ZZV6v3pwGossqqgO",
>>>>>>> Stashed changes
        "name": "C&O Restaurant",
        "address": {
            "street": "515 E Water St, Charlottesville, VA 22902",
            "lat": "38.0290618",
            "lon": "-78.4782802"
        },
        "locations": "Restaurant/Retail",
        "wines": [
            "Eluvium",
            "Rosé"
        ]
    },
    {
<<<<<<< Updated upstream
        "id": "kSbs2kys5dIknvDgbbI3X",
=======
        "id": "2vrJPPMXJjp-L1hyTZW3b",
>>>>>>> Stashed changes
        "name": "Cork & Fork - DC",
        "address": {
            "street": "1522 14th St NW, Washington, DC 20005",
            "lat": "38.9104777",
            "lon": "-77.0321531"
        },
        "locations": "Retail",
        "wines": [
            "Eluvium",
            "Foothills",
            "Shenandoah Valley Cabernet Franc"
        ]
    },
    {
<<<<<<< Updated upstream
        "id": "umXLX0JbdNbpgukbvQ9zr",
=======
        "id": "odzUi_Qja4Gb36tKCvbqN",
>>>>>>> Stashed changes
        "name": "Ellwood Thompson",
        "address": {
            "street": "4 N Thompson St, Richmond, VA 23221",
            "lat": "37.5574138",
            "lon": "-77.4884332"
        },
        "locations": "Retail",
        "wines": [
            "Eluvium",
            "Five Forks",
            "Foothills"
        ]
    },
    {
<<<<<<< Updated upstream
        "id": "wPs4HnjRmdKkn36a4dmIX",
=======
        "id": "1KPWMTp4fjtjiCxPiQuxS",
>>>>>>> Stashed changes
        "name": "Fahrenheit 132",
        "address": {
            "street": "328 William Street, Fredericksburg, VA 22401",
            "lat": "38.3028665",
            "lon": "-77.4612967"
        },
        "locations": "Restaurant",
        "wines": [
            "Eluvium",
            "RISE"
        ]
    },
    {
<<<<<<< Updated upstream
        "id": "L04e7WQYFjdZeiPne4I0a",
=======
        "id": "3bFd3RAAALX8KwPw9oFuq",
>>>>>>> Stashed changes
        "name": "Libbie Market",
        "address": {
            "street": "400 Libbie Ave., Richmond, VA 23226",
            "lat": "37.5746309",
            "lon": "-77.5183971"
        },
        "locations": "Retail",
        "wines": [
            "Eluvium",
            "Foothills",
            "Petit Manseng",
            "Rosé",
            "Young Wine Red"
        ]
    },
    {
<<<<<<< Updated upstream
        "id": "6Xyqp8Cl-7lj0sDUQahSR",
=======
        "id": "zqSlcF83YAb75MdEkiJQa",
>>>>>>> Stashed changes
        "name": "Market Street Wine Shop",
        "address": {
            "street": "311 East Market St, Charlottesville, VA 22902",
            "lat": "38.0310819",
            "lon": "-78.4790515"
        },
        "locations": "Retail",
        "wines": [
            "Eluvium",
            "Five Forks",
            "Foothills"
        ]
    },
    {
<<<<<<< Updated upstream
        "id": "ZGATaQD23gCMSufY1Jw1w",
=======
        "id": "dS9kaXKVwLj2_omqUUuLw",
>>>>>>> Stashed changes
        "name": "Norm's Beer & Wine",
        "address": {
            "street": "136 Branch Rd SE, Vienna, VA 22180",
            "lat": "38.9062317",
            "lon": "-77.257151"
        },
        "locations": "Retail",
        "wines": [
            "Eluvium",
            "Five Forks",
            "Shenandoah Valley Cabernet Franc"
        ]
    },
    {
<<<<<<< Updated upstream
        "id": "A0frnhMqDxoeomR56sJCY",
=======
        "id": "GPnGCVWYGi8Cw39mvL0Dw",
>>>>>>> Stashed changes
        "name": "Taste - Bayville Farms",
        "address": {
            "street": "4097 Shore Drive, Virginia Beach, VA 23455",
            "lat": "36.9059328",
            "lon": "-76.1160943"
        },
        "locations": "Restaurant/Retail",
        "wines": [
            "Eluvium",
            "Five Forks",
            "Foothills",
            "Rosé"
        ]
    },
    {
<<<<<<< Updated upstream
        "id": "POpKeZaTAAg6k05c-FaB9",
=======
        "id": "9i7gWfDDFde85o9ErlJOy",
>>>>>>> Stashed changes
        "name": "Taste - Hilltop",
        "address": {
            "street": "1554 Laskin Road, Suite 110, Virginia Beach, VA 23451",
            "lat": "36.853651",
            "lon": "-76.0153597"
        },
        "locations": "Restaurant/Retail",
        "wines": [
            "Eluvium",
            "Foothills",
            "Rosé"
        ]
    },
    {
<<<<<<< Updated upstream
        "id": "eTa98eeaFjd_eXFm4e7XI",
=======
        "id": "tyrKLSk6I7qfXW-ASyUJy",
>>>>>>> Stashed changes
        "name": "Unwined - King St",
        "address": {
            "street": "Bradlee Shopping Center, Alexandria, VA 22302",
            "lat": "38.8286279",
            "lon": "-77.091689"
        },
        "locations": "Retail",
        "wines": [
            "Eluvium",
            "Foothills",
            "Rosé",
            "Shenandoah Valley Cabernet Franc"
        ]
    },
    {
<<<<<<< Updated upstream
        "id": "nBReK6i571ulqmXr0t_Xi",
=======
        "id": "9iCUNc6XryW-fB4iJ3IPb",
>>>>>>> Stashed changes
        "name": "Jefferson Hotel",
        "address": {
            "street": "101 W Franklin St, Richmond, VA 23220",
            "lat": "37.5442549",
            "lon": "-77.4454117"
        },
        "locations": "Restaurant",
        "wines": [
            "Eluvium",
            "Foothills"
        ]
    },
    {
<<<<<<< Updated upstream
        "id": "C_Y4riv6laUBLxSSiMTgE",
=======
        "id": "HddGzkdLv9vX1rq_7Tb-j",
>>>>>>> Stashed changes
        "name": "Taste - Oceanfront",
        "address": {
            "street": "3603 Pacific Avenue, Virginia Beach, VA 23451",
            "lat": "36.8641917",
            "lon": "-75.9803595"
        },
        "locations": "Retail",
        "wines": [
            "Eluvium",
            "Five Forks",
            "Foothills",
            "Rosé"
        ]
    },
    {
<<<<<<< Updated upstream
        "id": "MIJUhXwzoovytwVFS3lnR",
=======
        "id": "C8trsDppKA3TVd-y_L4KE",
>>>>>>> Stashed changes
        "name": "Duner's",
        "address": {
            "street": "4372 Ivy Rd., Charlottesville, VA 22903",
            "lat": "38.0576978",
            "lon": "-78.5980417"
        },
        "locations": "Restaurant",
        "wines": [
            "Eluvium"
        ]
    },
    {
<<<<<<< Updated upstream
        "id": "i-1I2pT79LKZYc_8m3fvK",
=======
        "id": "J8ejVEsqrZz1b0ONTMGoz",
>>>>>>> Stashed changes
        "name": "Le Vintage",
        "address": {
            "street": "1218 King Street, Alexandria, VA 22314",
            "lat": "38.8057139",
            "lon": "-77.0533207"
        },
        "locations": "Retail",
        "wines": [
            "Eluvium",
            "Pétillant Naturel White",
            "Rosé",
            "Shenandoah Valley Cabernet Franc"
        ]
    },
    {
<<<<<<< Updated upstream
        "id": "HW6JhoEv5wh3-_Sj-uyR_",
=======
        "id": "TrgKYT4W6Vn-N5WlDOT4G",
>>>>>>> Stashed changes
        "name": "Farmington",
        "address": {
            "street": "1625 Country Club Circle, Charlottesville, VA 22901",
            "lat": "38.0616369",
            "lon": "-78.5419503"
        },
        "locations": "Restaurant",
        "wines": [
            "Eluvium",
            "Petit Manseng"
        ]
    },
    {
<<<<<<< Updated upstream
        "id": "0omPRaAkiDa8hffKJdV4n",
=======
        "id": "rh5OixyX3SE_HQiW626XE",
>>>>>>> Stashed changes
        "name": "Taste - Town Center",
        "address": {
            "street": "4513 Commerce Street, Virgina Beach, VA 23462",
            "lat": "36.8416311",
            "lon": "-76.1345806"
        },
        "locations": "Retail",
        "wines": [
            "Eluvium",
            "Five Forks",
            "Foothills"
        ]
    },
    {
<<<<<<< Updated upstream
        "id": "HcyHV5purGt6Wvm9TfWyt",
=======
        "id": "CUXuhrV0SzTiq36qTZCc0",
>>>>>>> Stashed changes
        "name": "Tastings of Charlottesville",
        "address": {
            "street": "502 East Market St, Charlottesville, VA 22902",
            "lat": "38.0303427",
            "lon": "-78.4779714"
        },
        "locations": "Retail",
        "wines": [
            "Eluvium",
            "Quaker Run Chardonnay"
        ]
    },
    {
<<<<<<< Updated upstream
        "id": "8MCZrJ6JKnbWeawjDjIsm",
=======
        "id": "p42KoQdVlUAQrPm_kM9q8",
>>>>>>> Stashed changes
        "name": "Local, The",
        "address": {
            "street": "824 Hinton Ave, Charlottesville, VA 22901",
            "lat": "38.0244641",
            "lon": "-78.4755275"
        },
        "locations": "Restaurant",
        "wines": [
            "Eluvium"
        ]
    },
    {
<<<<<<< Updated upstream
        "id": "qm07QrfhhvTyVJO-VoFwd",
=======
        "id": "k73QmSoAIBVlHHmTwMrv7",
>>>>>>> Stashed changes
        "name": "Taste - Westhampton",
        "address": {
            "street": "5706 Grove Ave Ste 100, Richmond, VA 23226",
            "lat": "37.5732828",
            "lon": "-77.5173888"
        },
        "locations": "Retail",
        "wines": [
            "Eluvium",
            "Foothills",
            "Rosé"
        ]
    },
    {
<<<<<<< Updated upstream
        "id": "NOvE931t3-wa7imCNnsdi",
=======
        "id": "s8ynz94OwSZDrRq8OlyXI",
>>>>>>> Stashed changes
        "name": "Taste - Greenbrier",
        "address": {
            "street": "717 Eden Way, Unit 600, Chesapeake, VA 23320",
            "lat": "36.7722661",
            "lon": "-76.2369631"
        },
        "locations": "Retail",
        "wines": [
            "Eluvium",
            "Foothills",
            "Rosé"
        ]
    },
    {
<<<<<<< Updated upstream
        "id": "ZAmH9ocNa3WqlYFyU_9vS",
=======
        "id": "O8Q0n-mbsb286kEFDGMfj",
>>>>>>> Stashed changes
        "name": "Cork & Table",
        "address": {
            "street": "909 Caroline St., Fredericksburg, VA 22401",
            "lat": "38.3030513",
            "lon": "-77.4590764"
        },
        "locations": "Restaurant",
        "wines": [
            "Eluvium"
        ]
    },
    {
<<<<<<< Updated upstream
        "id": "iWCM5_1mJlSZa8nfFBcAh",
=======
        "id": "5h8g8RGvoHSgSfjfFfbtm",
>>>>>>> Stashed changes
        "name": "Calvert Woodley",
        "address": {
            "street": "4339 Connecticut Ave NW, Washington, DC 20008",
            "lat": "38.9450626",
            "lon": "-77.06377"
        },
        "locations": "Retail",
        "wines": [
            "Eluvium"
        ]
    },
    {
<<<<<<< Updated upstream
        "id": "a1RQZrK5AMAJ5lwNXUDON",
=======
        "id": "KLrhAEjmh5N7z76sS6LbU",
>>>>>>> Stashed changes
        "name": "Rio Hill Wine & Beer",
        "address": {
            "street": "1908 Rio Hill Center, Charlottesville, VA 22901",
            "lat": "38.0877905",
            "lon": "-78.4749043"
        },
        "locations": "Retail",
        "wines": [
            "Eluvium",
            "Foothills",
            "Rosé",
            "Shenandoah Valley Cabernet Franc"
        ]
    },
    {
<<<<<<< Updated upstream
        "id": "RkfdDfjfIH6fPvAWB_jPi",
=======
        "id": "ggx4BdG7Kje8KXwDc3vUn",
>>>>>>> Stashed changes
        "name": "Tuscarora Mill",
        "address": {
            "street": "203 Harrison St SE, Leesburg, VA 20175",
            "lat": "39.1126676",
            "lon": "-77.5629852"
        },
        "locations": "Restaurant",
        "wines": [
            "Eluvium",
            "Shenandoah Valley Cabernet Franc"
        ]
    },
    {
<<<<<<< Updated upstream
        "id": "FTHiDgAWVqehoahDNRvPv",
=======
        "id": "wpjXm7yqp_AdHDFHe3aca",
>>>>>>> Stashed changes
        "name": "Alewife",
        "address": {
            "street": "3120 E Marshall St., Richmond, VA 23223",
            "lat": "37.5288308",
            "lon": "-77.4116311"
        },
        "locations": "Restaurant/Retail",
        "wines": [
            "Five Forks",
            "Foothills",
            "Pétillant Naturel White",
            "Young Wine",
            "Young Wine Red",
            "Young Wine White"
        ]
    },
    {
<<<<<<< Updated upstream
        "id": "TlhcCsiTu5Kafv4vmlu3I",
=======
        "id": "A1JY5Y9XJQLqLeQQffvMF",
>>>>>>> Stashed changes
        "name": "Basic City Beer Co.",
        "address": {
            "street": "1010 E Main St, Waynesboro, VA 22980",
            "lat": "38.0634845",
            "lon": "-78.873384"
        },
        "locations": "Restaurant/Retail",
        "wines": [
            "Five Forks"
        ]
    },
    {
<<<<<<< Updated upstream
        "id": "0mpOidsH2zbipWGq2xGax",
=======
        "id": "cw21xQak2JXeLHeCVeHN8",
>>>>>>> Stashed changes
        "name": "Capital Ale House - Fairfax",
        "address": {
            "street": "4069 Chain Bridge Rd, Fairfax, VA 22030",
            "lat": "38.8442986",
            "lon": "-77.3073582"
        },
        "locations": "Restaurant",
        "wines": [
            "Five Forks",
            "Foothills"
        ]
    },
    {
<<<<<<< Updated upstream
        "id": "CKIFKXtQH7HLiZ585oeAS",
=======
        "id": "wNG-LG7fW8Wbfznzwjekd",
>>>>>>> Stashed changes
        "name": "Capital One Hall",
        "address": {
            "street": "7750 Capital One Tower Rd, Tysons, VA 22102",
            "lat": "38.9254757",
            "lon": "-77.2112568"
        },
        "locations": "Restaurant",
        "wines": [
            "Five Forks",
            "Foothills",
            "Rosé"
        ]
    },
    {
<<<<<<< Updated upstream
        "id": "ynA2mBXHrBYh3jppxj1fN",
=======
        "id": "wv-m6or8V0LBZ9_Y0-ulp",
>>>>>>> Stashed changes
        "name": "In Vino Veritas",
        "address": {
            "street": "3015 Louisa Rd, Keswick, VA 22947",
            "lat": "38.0134664",
            "lon": "-78.3951928"
        },
        "locations": "Retail",
        "wines": [
            "Five Forks",
            "Foothills"
        ]
    },
    {
<<<<<<< Updated upstream
        "id": "dpEyNPdL3OfWUO3UEZ05U",
=======
        "id": "0W-hHjc8jsrXmcbqCDZNY",
>>>>>>> Stashed changes
        "name": "Live Arts",
        "address": {
            "street": "123 East Water St, Charlottesville, VA 22902",
            "lat": "38.0300169",
            "lon": "-78.4812638"
        },
        "locations": "Restaurant",
        "wines": [
            "Five Forks",
            "Foothills",
            "Rosé",
            "Young Wine White"
        ]
    },
    {
<<<<<<< Updated upstream
        "id": "fWJu-5IcgTUG2Rdfvd5SY",
=======
        "id": "XViMfHDGE2rWZ5lrEJyXL",
>>>>>>> Stashed changes
        "name": "Red Fox Inn",
        "address": {
            "street": "2 E. Washington St., Middleburg, VA 20117",
            "lat": "38.9692453",
            "lon": "-77.7354394"
        },
        "locations": "Restaurant",
        "wines": [
            "Five Forks",
            "RISE",
            "Shenandoah Valley Cabernet Franc"
        ]
    },
    {
<<<<<<< Updated upstream
        "id": "D45iLA_oeL_mrOFmPaIhR",
=======
        "id": "n5oKNdkUdyUkzt0hlhNvw",
>>>>>>> Stashed changes
        "name": "Roosevelt",
        "address": {
            "street": "623 N. 25th St., Richmond, VA 23223",
            "lat": "37.534897",
            "lon": "-77.4154189"
        },
        "locations": "Restaurant",
        "wines": [
            "Five Forks",
            "Foothills"
        ]
    },
    {
<<<<<<< Updated upstream
        "id": "iE8qom_chYQC1AOdFigGY",
=======
        "id": "DRp0rIM9p-MLwrmw0cBdU",
>>>>>>> Stashed changes
        "name": "Screwtop",
        "address": {
            "street": "1025 Fillmore St. N, Arlington, VA 22201",
            "lat": "38.8859072",
            "lon": "-77.0926894"
        },
        "locations": "Restaurant",
        "wines": [
            "Five Forks",
            "Rosé",
            "Shenandoah Valley Cabernet Franc"
        ]
    },
    {
<<<<<<< Updated upstream
        "id": "1yHQj47nz-5CzJVQz7s7-",
=======
        "id": "oj6hjJDDYqI5Kz-1yB-yc",
>>>>>>> Stashed changes
        "name": "Succotash",
        "address": {
            "street": "915 F St. NW, Washington, DC 20004",
            "lat": "38.897644",
            "lon": "-77.02474"
        },
        "locations": "Restaurant",
        "wines": [
            "Five Forks"
        ]
    },
    {
<<<<<<< Updated upstream
        "id": "qtTvbsK_AuPxciNTvfD31",
=======
        "id": "AhFbj4yxkT4094DxOVX_a",
>>>>>>> Stashed changes
        "name": "Vino Market",
        "address": {
            "street": "3730 Winterfield Rd., Midlothian, VA 23113",
            "lat": "37.5535346",
            "lon": "-77.6685934"
        },
        "locations": "Retail",
        "wines": [
            "Five Forks",
            "Foothills",
            "Rosé"
        ]
    },
    {
<<<<<<< Updated upstream
        "id": "Rc0RS9cjZV4-Xvga0hj3N",
=======
        "id": "WpP6HzeK-5yTx3sIAkbEK",
>>>>>>> Stashed changes
        "name": "Whole Foods - Arlington",
        "address": {
            "street": "2700 Wilson Blvd., Arlington, VA 22201",
            "lat": "38.8890982",
            "lon": "-77.0910708"
        },
        "locations": "Restaurant/Retail",
        "wines": [
            "Five Forks",
            "Rosé"
        ]
    },
    {
<<<<<<< Updated upstream
        "id": "LeYooB8e2EG8UrEFNJuXu",
=======
        "id": "UNEAfOzFAreOb9TLHLCtY",
>>>>>>> Stashed changes
        "name": "Whole Foods - Fair Lakes",
        "address": {
            "street": "4501 Market Commons Drive, Fairfax, VA 22033",
            "lat": "38.8578497",
            "lon": "-77.377751"
        },
        "locations": "Restaurant/Retail",
        "wines": [
            "Five Forks",
            "Foothills",
            "Rosé"
        ]
    },
    {
<<<<<<< Updated upstream
        "id": "GBBLgDw_PXI1_YYiae-sh",
=======
        "id": "Q0T7liE3iEyiT1avj2csE",
>>>>>>> Stashed changes
        "name": "Whole Foods - Glover Park",
        "address": {
            "street": "2323 Wisconsin Ave NW, Washington, DC 20007",
            "lat": "38.9208932",
            "lon": "-77.0711068"
        },
        "locations": "Restaurant/Retail",
        "wines": [
            "Five Forks",
            "Foothills",
            "Rosé"
        ]
    },
    {
<<<<<<< Updated upstream
        "id": "wE4wss06cyPC_Tvdp16se",
=======
        "id": "cb-6x0ITVyIEyMv0xbrsR",
>>>>>>> Stashed changes
        "name": "Whole Foods - Old Town",
        "address": {
            "street": "1700 Duke Street, Alexandria, VA 22314",
            "lat": "38.8041416",
            "lon": "-77.0600615"
        },
        "locations": "Restaurant/Retail",
        "wines": [
            "Five Forks",
            "Foothills",
            "Rosé",
            "Young Wine Red"
        ]
    },
    {
<<<<<<< Updated upstream
        "id": "dBVi_GXB13cYbrSS-GQOK",
=======
        "id": "d8WvB2WcySmhd0rk3uA9q",
>>>>>>> Stashed changes
        "name": "Whole Foods - P Street",
        "address": {
            "street": "1440 P Street NW, Washington, DC 20005",
            "lat": "38.9092854",
            "lon": "-77.0335078"
        },
        "locations": "Restaurant/Retail",
        "wines": [
            "Five Forks",
            "Foothills",
            "Rosé",
            "Young Wine Red"
        ]
    },
    {
<<<<<<< Updated upstream
        "id": "CYenUGt_u-vwqHTE9x3ek",
=======
        "id": "qpOfWYMJezSS3xUAAncGi",
>>>>>>> Stashed changes
        "name": "Whole Foods - Short Pump",
        "address": {
            "street": "11173 West Broad St., Richmond, VA 23060",
            "lat": "37.6475262",
            "lon": "-77.5994359"
        },
        "locations": "Restaurant/Retail",
        "wines": [
            "Five Forks",
            "Foothills",
            "Rosé",
            "Young Wine Red"
        ]
    },
    {
<<<<<<< Updated upstream
        "id": "gwGEXeUTh8oX71ns1ZUBL",
=======
        "id": "J8IIgdGb-VStLQxaB4rdK",
>>>>>>> Stashed changes
        "name": "Whole Foods - South Capitol Hill",
        "address": {
            "street": "101 H St. SE, Washington, DC 20003",
            "lat": "38.8802819",
            "lon": "-77.005121"
        },
        "locations": "Restaurant/Retail",
        "wines": [
            "Five Forks",
            "Foothills",
            "Rosé"
        ]
    },
    {
<<<<<<< Updated upstream
        "id": "3SX3Q4V0KuIg_9Q4gcU1F",
=======
        "id": "uUE1MM65tT2my6XEGONMV",
>>>>>>> Stashed changes
        "name": "Whole Foods - Tenley",
        "address": {
            "street": "4530 40th Street NW, Washington, DC 20016",
            "lat": "38.9490789",
            "lon": "-77.0792007"
        },
        "locations": "Restaurant/Retail",
        "wines": [
            "Five Forks",
            "Foothills",
            "Rosé"
        ]
    },
    {
<<<<<<< Updated upstream
        "id": "qvatDmSYoh27LI6DtkLSa",
=======
        "id": "Kyio3j-U0GUdwvwewyRPj",
>>>>>>> Stashed changes
        "name": "Whole Foods - Vienna",
        "address": {
            "street": "143 Maple Ave East, Vienna, VA 22180",
            "lat": "38.9022469",
            "lon": "-77.2626957"
        },
        "locations": "Restaurant/Retail",
        "wines": [
            "Five Forks",
            "Rosé"
        ]
    },
    {
<<<<<<< Updated upstream
        "id": "kA29GosPl3JXkKEg-J_ur",
=======
        "id": "Ldl9rMGqgLh9Lhdfdav1S",
>>>>>>> Stashed changes
        "name": "Department of Beer & Wine",
        "address": {
            "street": "2724 Richmond Hwy, Alexandria, VA 22301",
            "lat": "38.8306436",
            "lon": "-77.0511929"
        },
        "locations": "Retail",
        "wines": [
            "Five Forks",
            "Foothills",
            "Pétillant Naturel White",
            "Petit Manseng",
            "Rosé",
            "Shenandoah Valley Cabernet Franc",
            "Young Wine White"
        ]
    },
    {
<<<<<<< Updated upstream
        "id": "tuAs3PMZCtyfFkiwzdn25",
=======
        "id": "jD-hjMfoGxXFID6FhtdMr",
>>>>>>> Stashed changes
        "name": "Ivy Inn",
        "address": {
            "street": "2244 Old Ivy Rd., Charlottesville, VA 22903",
            "lat": "38.0459524",
            "lon": "-78.5162784"
        },
        "locations": "Restaurant",
        "wines": [
            "Five Forks",
            "Rosé"
        ]
    },
    {
<<<<<<< Updated upstream
        "id": "ByFThMm2XUiL7VbNQZF_0",
=======
        "id": "ccNGywvJ_gvSc6wKUBi9O",
>>>>>>> Stashed changes
        "name": "Pendulum Fine Meats",
        "address": {
            "street": "820 Shirley Avenue, Norfolk, VA 23517",
            "lat": "36.8683635",
            "lon": "-76.2987524"
        },
        "locations": "Retail",
        "wines": [
            "Five Forks",
            "Foothills"
        ]
    },
    {
<<<<<<< Updated upstream
        "id": "1bZRsipjhsBdow0Nxw8Oa",
=======
        "id": "wA6cvfTEIHi_wa1IG1dXW",
>>>>>>> Stashed changes
        "name": "Second Bottle Wine",
        "address": {
            "street": "324 N 27th St Apt. A, Richmond, VA 23223",
            "lat": "37.5314274",
            "lon": "-77.4164175"
        },
        "locations": "Retail",
        "wines": [
            "Five Forks",
            "Foothills",
            "Petit Manseng",
            "Rosé",
            "Shenandoah Valley Cabernet Franc"
        ]
    },
    {
<<<<<<< Updated upstream
        "id": "ywhaSzvjdD7cTzhgc56L_",
=======
        "id": "xluI94GxV_dCUtgO4QLSO",
>>>>>>> Stashed changes
        "name": "Whole Foods - Charlottesville",
        "address": {
            "street": "1797 Hydraulic Road, Charlottesville, VA 22901",
            "lat": "38.059773",
            "lon": "-78.4891351"
        },
        "locations": "Restaurant/Retail",
        "wines": [
            "Five Forks",
            "Rosé",
            "Young Wine",
            "Young Wine Red"
        ]
    },
    {
<<<<<<< Updated upstream
        "id": "NqwO-6Hfr7lx0KW3KMjEs",
=======
        "id": "O3-8nj2Wm1v_hA39-qYRM",
>>>>>>> Stashed changes
        "name": "Whole Foods - Florida Ave",
        "address": {
            "street": "FAV - BU# 10651, Washington, DC 20001",
            "lat": "38.912068",
            "lon": "-77.0190228"
        },
        "locations": "Restaurant/Retail",
        "wines": [
            "Five Forks",
            "Foothills",
            "Young Wine Red"
        ]
    },
    {
<<<<<<< Updated upstream
        "id": "xtLv3nufeBZ8gXsdGOGVX",
=======
        "id": "49W3eJOERns9F-biE70La",
>>>>>>> Stashed changes
        "name": "Whole Foods - Foggy Bottom",
        "address": {
            "street": "2201 I Street NW, Washington, DC 20037",
            "lat": "38.9010776",
            "lon": "-77.0490824"
        },
        "locations": "Restaurant/Retail",
        "wines": [
            "Five Forks",
            "Foothills",
            "Rosé"
        ]
    },
    {
<<<<<<< Updated upstream
        "id": "-zNBPQst4h5GtFJ8wka6f",
=======
        "id": "X6KcxfAoaRJnBE9VTAqIt",
>>>>>>> Stashed changes
        "name": "Whole Foods - H Street",
        "address": {
            "street": "600-A H Street, NE, Washington, DC 20002",
            "lat": "38.8995727",
            "lon": "-77.0201171"
        },
        "locations": "Restaurant/Retail",
        "wines": [
            "Five Forks",
            "Foothills"
        ]
    },
    {
<<<<<<< Updated upstream
        "id": "M-XKABmmQunc5Mjf5p_uw",
=======
        "id": "46A0xh9Z3eSIkoyPsENv-",
>>>>>>> Stashed changes
        "name": "Whole Foods - South Capitol Hill",
        "address": {
            "street": "101 H St. SE, Washington, DC 20003",
            "lat": "38.8802819",
            "lon": "-77.005121"
        },
        "locations": "Restaurant/Retail",
        "wines": [
            "Five Forks",
            "Foothills"
        ]
    },
    {
<<<<<<< Updated upstream
        "id": "0mL7Ut0p2T9aFHYHxg5rM",
=======
        "id": "QOgGgNWvMgK07n9Nu0UaT",
>>>>>>> Stashed changes
        "name": "Whole Foods - Springfield",
        "address": {
            "street": "8402 Old Keene Mill Road, Springfield, VA 22152",
            "lat": "38.7796321",
            "lon": "-77.2342061"
        },
        "locations": "Restaurant/Retail",
        "wines": [
            "Five Forks"
        ]
    },
    {
<<<<<<< Updated upstream
        "id": "mfGtl_nBv1W1tfDbbwyeS",
=======
        "id": "QL2j-0UdDs-Exzlr7H9Gz",
>>>>>>> Stashed changes
        "name": "Wine Seller - Williamsburg",
        "address": {
            "street": "4680 Monticello Ave Suite 15, Williamsburg, VA 23188",
            "lat": "37.2722283",
            "lon": "-76.7577749"
        },
        "locations": "Retail",
        "wines": [
            "Five Forks",
            "Foothills",
            "Pétillant Naturel White",
            "Rosé"
        ]
    },
    {
<<<<<<< Updated upstream
        "id": "sKCgmjgU52Nk5lvZIRC3A",
=======
        "id": "gkR-ao38Iwf7l5KEiHBIW",
>>>>>>> Stashed changes
        "name": "Second Bottle Wine",
        "address": {
            "street": "324 N 27th St Apt. A, Richmond, VA 23223",
            "lat": "37.5314274",
            "lon": "-77.4164175"
        },
        "locations": "Retail",
        "wines": [
            "Five Forks",
            "Foothills",
            "Rosé",
            "Shenandoah Valley Cabernet Franc"
        ]
    },
    {
<<<<<<< Updated upstream
        "id": "4Lu4KsQ343_ucTE9biz5W",
=======
        "id": "nQcMrDy3FVBEl9s-lIri-",
>>>>>>> Stashed changes
        "name": "Whole Foods - Ashburn",
        "address": {
            "street": "19800 Belmont Chase Dr, Ashburn, VA 20147",
            "lat": "39.0686101",
            "lon": "-77.4843579"
        },
        "locations": "Restaurant/Retail",
        "wines": [
            "Five Forks",
            "Foothills",
            "Rosé"
        ]
    },
    {
<<<<<<< Updated upstream
        "id": "xXNR2ksXmMYf5axIFqgnm",
=======
        "id": "rHCtJv2kTzrR5IVRvF7Wj",
>>>>>>> Stashed changes
        "name": "Whole Foods - Charlottesville",
        "address": {
            "street": "1797 Hydraulic Road, Charlottesville, VA 22901",
            "lat": "38.059773",
            "lon": "-78.4891351"
        },
        "locations": "Restaurant/Retail",
        "wines": [
            "Five Forks",
            "Rosé"
        ]
    },
    {
<<<<<<< Updated upstream
        "id": "nZj0Eik8ZitAmCARXAACC",
=======
        "id": "lkyiCCqCpqm3_NvFt3mba",
>>>>>>> Stashed changes
        "name": "Whole Foods - Tysons",
        "address": {
            "street": "7511 Leesburg Pike, Falls Church, VA 22043",
            "lat": "38.9026076",
            "lon": "-77.2050359"
        },
        "locations": "Restaurant/Retail",
        "wines": [
            "Five Forks",
            "Foothills",
            "Rosé"
        ]
    },
    {
<<<<<<< Updated upstream
        "id": "IBdY5K_EZ0SgXSQ882k9z",
=======
        "id": "92iW8lRpOd0dvz7iQ7MKx",
>>>>>>> Stashed changes
        "name": "Whole Foods - West Broad",
        "address": {
            "street": "2024 W Broad Street, Richmond, VA 23220",
            "lat": "37.5581958",
            "lon": "-77.4612166"
        },
        "locations": "Restaurant/Retail",
        "wines": [
            "Five Forks",
            "Foothills",
            "Rosé",
            "Young Wine Red"
        ]
    },
    {
<<<<<<< Updated upstream
        "id": "DR_M3W6ZaIvM98IcXGzUM",
=======
        "id": "oh8aToaCCBunl3v6plzoQ",
>>>>>>> Stashed changes
        "name": "Wine Gourmet",
        "address": {
            "street": "3524 Electric Road, Roanoke, VA 24014",
            "lat": "37.2265303",
            "lon": "-79.9974824"
        },
        "locations": "Retail",
        "wines": [
            "Five Forks",
            "Foothills",
            "Rosé"
        ]
    },
    {
<<<<<<< Updated upstream
        "id": "XWjReOIt00o3kCS1acPBS",
=======
        "id": "OLwYYDzEAOASYggt-LpqE",
>>>>>>> Stashed changes
        "name": "Kindred Fare",
        "address": {
            "street": "512 Hamilton St, Geneva, NY 14456",
            "lat": "42.857025",
            "lon": "-77.0069766"
        },
        "locations": "Restaurant",
        "wines": [
            "Five Forks",
            "Foothills"
        ]
    },
    {
<<<<<<< Updated upstream
        "id": "tQLsRx5ZuA1qHJQnn2p1u",
=======
        "id": "PkKYSTl07RnffXnZMALYY",
>>>>>>> Stashed changes
        "name": "Taste - Ghent",
        "address": {
            "street": "407 W 21st Street, Norfolk, VA 23517",
            "lat": "36.8703185",
            "lon": "-76.2944544"
        },
        "locations": "Retail",
        "wines": [
            "Five Forks",
            "Foothills",
            "Rosé"
        ]
    },
    {
<<<<<<< Updated upstream
        "id": "Z9HRbgw1r40aJV9nCN7YM",
=======
        "id": "DK37IDWGrKU9n-NPB4Ecv",
>>>>>>> Stashed changes
        "name": "Taste - Harbour View",
        "address": {
            "street": "5911 Harbour View Blvd Suite 100, Suffolk, VA 23435",
            "lat": "36.8775444",
            "lon": "-76.4384889"
        },
        "locations": "Retail",
        "wines": [
            "Five Forks",
            "Foothills",
            "Rosé"
        ]
    },
    {
<<<<<<< Updated upstream
        "id": "TstpNT5ETABOGfKZCVIis",
=======
        "id": "xVDWNfQ53QKsb0T13ABqP",
>>>>>>> Stashed changes
        "name": "Bingo Beer Co.",
        "address": {
            "street": "2900 W Broad Street, Richmond, VA 23230",
            "lat": "37.5637961",
            "lon": "-77.4716025"
        },
        "locations": "Restaurant",
        "wines": [
            "Foothills",
            "Rosé",
            "Young Wine White"
        ]
    },
    {
<<<<<<< Updated upstream
        "id": "e6YvC8i9R4zRahsC0pLMP",
=======
        "id": "x2QVRlxivEsukPngszPNB",
>>>>>>> Stashed changes
        "name": "Friendly City Food Co-op",
        "address": {
            "street": "150 E Wolfe St, Harrisonburg, VA 22802",
            "lat": "38.4516609",
            "lon": "-78.8665291"
        },
        "locations": "Retail",
        "wines": [
            "Foothills",
            "Pétillant Naturel White",
            "Petit Manseng",
            "Rosé"
        ]
    },
    {
<<<<<<< Updated upstream
        "id": "PkHuhmrM8yY0ta_c5o1EN",
=======
        "id": "Ywa1ikyd0yMa8q9hRkrzr",
>>>>>>> Stashed changes
        "name": "Chain Bridge Cellars",
        "address": {
            "street": "1351 Chain Bridge Rd, McLean, VA 22101",
            "lat": "38.9385421",
            "lon": "-77.1746454"
        },
        "locations": "Retail",
        "wines": [
            "Foothills"
        ]
    },
    {
<<<<<<< Updated upstream
        "id": "bML_fTNUWkCHERZzN5PiZ",
=======
        "id": "dd2hEXdaoyW4YEMMe0hte",
>>>>>>> Stashed changes
        "name": "Middleburg Tennis Club",
        "address": {
            "street": "1777 Zulla Road, Middleburg, VA 20117",
            "lat": "38.9580633",
            "lon": "-77.7638489"
        },
        "locations": "Restaurant",
        "wines": [
            "Foothills",
            "Quaker Run Cabernet Franc",
            "Rosé",
            "Shenandoah Valley Cabernet Franc"
        ]
    },
    {
<<<<<<< Updated upstream
        "id": "xe5y4a93cClQxDk6zfC0g",
=======
        "id": "mAtItMx7bezKwmGToaQRW",
>>>>>>> Stashed changes
        "name": "NRG - Rustico - Alexandria",
        "address": {
            "street": "827 Slaters Lane, Alexandria, VA 22314",
            "lat": "38.8216366",
            "lon": "-77.0471365"
        },
        "locations": "Restaurant",
        "wines": [
            "Foothills"
        ]
    },
    {
<<<<<<< Updated upstream
        "id": "XUoH4rtLJu-iChILeSR-T",
=======
        "id": "ondD0XztiFJ_H2l6gH4tB",
>>>>>>> Stashed changes
        "name": "Organic Butcher of McLean",
        "address": {
            "street": "6712 Old Dominion Drive, McLean, VA 22101",
            "lat": "38.9335412",
            "lon": "-77.1758584"
        },
        "locations": "Retail",
        "wines": [
            "Foothills",
            "Quaker Run Cabernet Franc",
            "Rosé",
            "Shenandoah Valley Cabernet Franc",
            "Young Wine Red"
        ]
    },
    {
<<<<<<< Updated upstream
        "id": "3crx_jmQx-9d5bdT4TE2Q",
=======
        "id": "m-u0AtL-8rdMsRFDdXkNi",
>>>>>>> Stashed changes
        "name": "Outpost",
        "address": {
            "street": "4813 Forest Hill Ave., Richmond, VA 23225",
            "lat": "37.5211852",
            "lon": "-77.4878087"
        },
        "locations": "Retail",
        "wines": [
            "Foothills",
            "Rosé",
            "Shenandoah Valley Cabernet Franc",
            "Young Wine Red",
            "Young Wine White"
        ]
    },
    {
<<<<<<< Updated upstream
        "id": "THhNW-Py1YOnLroToix5V",
=======
        "id": "C3evvkdVv0GmvhvJU8fzo",
>>>>>>> Stashed changes
        "name": "Prosperity Kitchen & Pantry",
        "address": {
            "street": "532 Virginia Beach Blvd Ste B, Virginia Beach, VA 23451",
            "lat": "36.8444829",
            "lon": "-75.9806406"
        },
        "locations": "Restaurant",
        "wines": [
            "Foothills"
        ]
    },
    {
<<<<<<< Updated upstream
        "id": "AJo1JimcJ6Hv9LBcztWp4",
=======
        "id": "Cu1lWStCaqriB4QrQlx26",
>>>>>>> Stashed changes
        "name": "Roanoke Natural Foods Co-op",
        "address": {
            "street": "1319 Grandin Rd SW, Roanoke, VA 24015",
            "lat": "37.2652232",
            "lon": "-79.9776246"
        },
        "locations": "Retail",
        "wines": [
            "Foothills",
            "Rosé",
            "Young Wine Red",
            "Young Wine White"
        ]
    },
    {
<<<<<<< Updated upstream
        "id": "YrZVZo47KDjA8tXpRnopA",
=======
        "id": "WacCU4B-m2mBcW198wJpl",
>>>>>>> Stashed changes
        "name": "Whole Foods - Tenley",
        "address": {
            "street": "4530 40th Street NW, Washington, DC 20016",
            "lat": "38.9490789",
            "lon": "-77.0792007"
        },
        "locations": "Restaurant/Retail",
        "wines": [
            "Foothills"
        ]
    },
    {
<<<<<<< Updated upstream
        "id": "V0x5hMB6IE_Q-exzttRqx",
=======
        "id": "8kngEef6t_OWSSVndB2ZQ",
>>>>>>> Stashed changes
        "name": "Amber Ox Kitchen & Brewery",
        "address": {
            "street": "521 Prince George St., Williamsburg, VA 23185",
            "lat": "37.272864",
            "lon": "-76.708414"
        },
        "locations": "Restaurant",
        "wines": [
            "Foothills"
        ]
    },
    {
<<<<<<< Updated upstream
        "id": "XNni3SYt10ZRC68vb1UXW",
=======
        "id": "AZh_jprYRifxfmp_foCuf",
>>>>>>> Stashed changes
        "name": "Wool Factory",
        "address": {
            "street": "1837 Broadway Street, Charlottesville, VA 22902",
            "lat": "38.0197143",
            "lon": "-78.4557898"
        },
        "locations": "Restaurant/Retail",
        "wines": [
            "Foothills",
            "Quaker Run Chardonnay"
        ]
    },
    {
<<<<<<< Updated upstream
        "id": "dAmZwqJCT5ulx39ag4ea6",
=======
        "id": "2sNkKXIpmLPbks3l0IP7d",
>>>>>>> Stashed changes
        "name": "Barrel Thief",
        "address": {
            "street": "5805 Patterson Ave, Richmond, VA 23226",
            "lat": "37.5794435",
            "lon": "-77.5149812"
        },
        "locations": "Restaurant/Retail",
        "wines": [
            "Foothills",
            "Pétillant Naturel White",
            "Rosé"
        ]
    },
    {
<<<<<<< Updated upstream
        "id": "H1Am888yCFxYYrFP3DR_L",
=======
        "id": "zSn9qMMvytewuIyMcMUr5",
>>>>>>> Stashed changes
        "name": "Bassin's MacArthur Beverages",
        "address": {
            "street": "Shop: 4877 MacArthur Blvd NW, Washington, DC 20007",
            "lat": "38.9178153",
            "lon": "-77.0963369"
        },
        "locations": "Retail",
        "wines": [
            "Foothills",
            "Petit Manseng"
        ]
    },
    {
<<<<<<< Updated upstream
        "id": "J_AFoVouOQTawsjwM1eL7",
=======
        "id": "wmefg438rceqA0Nb0sbv3",
>>>>>>> Stashed changes
        "name": "Corks & Kegs",
        "address": {
            "street": "7110 Patterson Ave, Suite A, Richmond, VA 23229",
            "lat": "37.5924087",
            "lon": "-77.5329934"
        },
        "locations": "Retail",
        "wines": [
            "Foothills",
            "Shenandoah Valley Cabernet Franc",
            "Young Wine White"
        ]
    },
    {
<<<<<<< Updated upstream
        "id": "OWErMl8CiwkcwkpWqQjQn",
=======
        "id": "zn4xehG-H6HqE6JVKyL8n",
>>>>>>> Stashed changes
        "name": "Department of Beer & Wine",
        "address": {
            "street": "2724 Richmond Hwy, Alexandria, VA 22301",
            "lat": "38.8306436",
            "lon": "-77.0511929"
        },
        "locations": "Retail",
        "wines": [
            "Foothills",
            "Rosé"
        ]
    },
    {
<<<<<<< Updated upstream
        "id": "1_HbZ7ehmUpPB31HxqKR6",
=======
        "id": "v8TlIZpFAqCMSrBAJosFL",
>>>>>>> Stashed changes
        "name": "Foods of All Nations",
        "address": {
            "street": "2121 Ivy Rd, Charlottesville, VA 22903",
            "lat": "38.0432978",
            "lon": "-78.5119067"
        },
        "locations": "Retail",
        "wines": [
            "Foothills",
            "Shenandoah Valley Cabernet Franc"
        ]
    },
    {
<<<<<<< Updated upstream
        "id": "3SBxfeSkcrxJcJPTlbdrL",
=======
        "id": "HPB07mK1g4sYEQrnee-qX",
>>>>>>> Stashed changes
        "name": "J Emerson",
        "address": {
            "street": "5716 Grove Ave, Richmond, VA 23226",
            "lat": "37.5733362",
            "lon": "-77.5180274"
        },
        "locations": "Retail",
        "wines": [
            "Foothills"
        ]
    },
    {
<<<<<<< Updated upstream
        "id": "PMOPsV8pKrbNbPFfGd8CQ",
=======
        "id": "qN4eojVWsgmi1WphvUndM",
>>>>>>> Stashed changes
        "name": "Jefferson Hotel",
        "address": {
            "street": "101 W Franklin St, Richmond, VA 23220",
            "lat": "37.5442549",
            "lon": "-77.4454117"
        },
        "locations": "Restaurant",
        "wines": [
            "Foothills"
        ]
    },
    {
<<<<<<< Updated upstream
        "id": "oSOjfluxiN9tzmF6AD4ll",
=======
        "id": "9nu4gpzWcpfAuzlc119A1",
>>>>>>> Stashed changes
        "name": "NRG - Red Apron Mosaic",
        "address": {
            "street": "8298 Glass Alley Ste 110, Fairfax, VA 22031",
            "lat": "38.8735482",
            "lon": "-77.2308105"
        },
        "locations": "Restaurant",
        "wines": [
            "Foothills"
        ]
    },
    {
<<<<<<< Updated upstream
        "id": "0lMFlFJ-VNgdyDBU8K7Nz",
=======
        "id": "i-G_iIVjbw_PTCK8FSTg5",
>>>>>>> Stashed changes
        "name": "NRG - Planet Wine",
        "address": {
            "street": "2000-2004 Mount Vernon Ave, Alexandria, VA 22301",
            "lat": "38.8239957",
            "lon": "-77.0584135"
        },
        "locations": "Retail",
        "wines": [
            "Foothills",
            "RISE",
            "Rosé",
            "Shenandoah Valley Cabernet Franc",
            "Young Wine Red"
        ]
    },
    {
<<<<<<< Updated upstream
        "id": "wgU9OJdv4o8qtQD9x2MJT",
=======
        "id": "vLMiwbFdcQ8BsMnuqXa5S",
>>>>>>> Stashed changes
        "name": "NRG - Rustico - Ballston",
        "address": {
            "street": "4075 Wilson Blvd., Arlington, VA 22203",
            "lat": "38.8803079",
            "lon": "-77.1085112"
        },
        "locations": "Restaurant",
        "wines": [
            "Foothills"
        ]
    },
    {
<<<<<<< Updated upstream
        "id": "x8Uy9c07Gd2Hs1pWSuo5R",
=======
        "id": "yL2cZ26wn5cMtXAr1JgWI",
>>>>>>> Stashed changes
        "name": "NRG - Rustico - Alexandria",
        "address": {
            "street": "827 Slaters Lane, Alexandria, VA 22314",
            "lat": "38.8216366",
            "lon": "-77.0471365"
        },
        "locations": "Restaurant",
        "wines": [
            "Foothills"
        ]
    },
    {
<<<<<<< Updated upstream
        "id": "8inVhRnLkIO5iLEP2OY18",
=======
        "id": "pCcP28Y9GNA0GFofXst6Q",
>>>>>>> Stashed changes
        "name": "Patty O's Cafe",
        "address": {
            "street": "Inn at Little Washington, Washington, VA 22747",
            "lat": "38.7138077",
            "lon": "-78.1595479"
        },
        "locations": "Restaurant",
        "wines": [
            "Foothills"
        ]
    },
    {
<<<<<<< Updated upstream
        "id": "PL8QboaDQhnUhDZHh8ly6",
=======
        "id": "LofaPe91qx-CkiHs1nxAJ",
>>>>>>> Stashed changes
        "name": "Quirk Hotel - Charlottesville",
        "address": {
            "street": "499 W Main Street, Charlottesville, VA 22902",
            "lat": "38.03121",
            "lon": "-78.48776"
        },
        "locations": "Restaurant/Retail",
        "wines": [
            "Foothills"
        ]
    },
    {
<<<<<<< Updated upstream
        "id": "0k5DcT6pOwZJUCBL_0lF2",
=======
        "id": "p3HhyGcC2tQIyWBQ-92gT",
>>>>>>> Stashed changes
        "name": "Rhett's Bar and Grill",
        "address": {
            "street": "134 Wood Ridge Terrace Ste.100, Zion Crossroads, VA 22942",
            "lat": "37.9804992",
            "lon": "-78.2134246"
        },
        "locations": "Restaurant",
        "wines": [
            "Foothills"
        ]
    },
    {
<<<<<<< Updated upstream
        "id": "k065SRnTHcjjVtPL6eKn8",
=======
        "id": "qr852f8-Al54Sr9hN5Kqs",
>>>>>>> Stashed changes
        "name": "Roanoke Natural Foods Co-op",
        "address": {
            "street": "1319 Grandin Rd SW, Roanoke, VA 24015",
            "lat": "37.2652232",
            "lon": "-79.9776246"
        },
        "locations": "Retail",
        "wines": [
            "Foothills"
        ]
    },
    {
<<<<<<< Updated upstream
        "id": "cjg_Ws8dfdPwOLZuQ_vjk",
=======
        "id": "NZy9_Bl6i2ItZUjvU78yn",
>>>>>>> Stashed changes
        "name": "Roosevelt",
        "address": {
            "street": "623 N. 25th St., Richmond, VA 23223",
            "lat": "37.534897",
            "lon": "-77.4154189"
        },
        "locations": "Restaurant",
        "wines": [
            "Foothills"
        ]
    },
    {
<<<<<<< Updated upstream
        "id": "hOc-4kF-Odrepevxt4rOi",
=======
        "id": "4podhZHE8U2ieOiEDvbZ-",
>>>>>>> Stashed changes
        "name": "Tail Up Goat",
        "address": {
            "street": "1827 Adams Mill Rd. NW, Washington, DC 20009",
            "lat": "38.923447",
            "lon": "-77.043176"
        },
        "locations": "Restaurant",
        "wines": [
            "Foothills"
        ]
    },
    {
<<<<<<< Updated upstream
        "id": "5kG81c1KmzVjTFVGgWDtv",
=======
        "id": "9JxPyiPG_AC8w-_4KVXSc",
>>>>>>> Stashed changes
        "name": "Whole Foods - H Street",
        "address": {
            "street": "600-A H Street, NE, Washington, DC 20002",
            "lat": "38.8995727",
            "lon": "-77.0201171"
        },
        "locations": "Restaurant/Retail",
        "wines": [
            "Foothills"
        ]
    },
    {
<<<<<<< Updated upstream
        "id": "iAktcpEXCYdQ7MqpuVDoX",
=======
        "id": "-JfpRecrTwGuH2Y2AWWio",
>>>>>>> Stashed changes
        "name": "Whole Foods - Old Town",
        "address": {
            "street": "1700 Duke Street, Alexandria, VA 22314",
            "lat": "38.8041416",
            "lon": "-77.0600615"
        },
        "locations": "Restaurant/Retail",
        "wines": [
            "Foothills",
            "Rosé"
        ]
    },
    {
<<<<<<< Updated upstream
        "id": "gDv4Z_b_jlibQboBikWwY",
=======
        "id": "pyRCn8Q_nDp8_5HOxsC_I",
>>>>>>> Stashed changes
        "name": "Whole Foods - Pentagon City",
        "address": {
            "street": "520 12th St S Ste 100, Arlington, VA 22202",
            "lat": "38.8628102",
            "lon": "-77.0545096"
        },
        "locations": "Restaurant/Retail",
        "wines": [
            "Foothills",
            "Rosé"
        ]
    },
    {
<<<<<<< Updated upstream
        "id": "zd9Wqbw91RWaUw_OIIM0H",
=======
        "id": "3s3GKUVrfJm9De6vXcGjW",
>>>>>>> Stashed changes
        "name": "Whole Foods - Short Pump",
        "address": {
            "street": "11173 West Broad St., Richmond, VA 23060",
            "lat": "37.6475262",
            "lon": "-77.5994359"
        },
        "locations": "Restaurant/Retail",
        "wines": [
            "Foothills"
        ]
    },
    {
<<<<<<< Updated upstream
        "id": "bsqCnI70pn2dlBzl5sZG9",
=======
        "id": "gyodd0w11_jzoLUZHojEM",
>>>>>>> Stashed changes
        "name": "Amber Ox Kitchen & Brewery",
        "address": {
            "street": "521 Prince George St., Williamsburg, VA 23185",
            "lat": "37.272864",
            "lon": "-76.708414"
        },
        "locations": "Restaurant",
        "wines": [
            "Foothills"
        ]
    },
    {
<<<<<<< Updated upstream
        "id": "6u-viQEsWbQvMle6VzzNG",
=======
        "id": "YkRO4Tt7hmegm61jKtN02",
>>>>>>> Stashed changes
        "name": "Crystal City Wine Shop",
        "address": {
            "street": "220 20th St. South, Arlington, VA 22202",
            "lat": "38.85597",
            "lon": "-77.0500304"
        },
        "locations": "Retail",
        "wines": [
            "Foothills",
            "Petit Manseng",
            "RISE",
            "Rosé"
        ]
    },
    {
<<<<<<< Updated upstream
        "id": "75TitMg6rZs1OJb78SwaK",
=======
        "id": "UfBvEJ0nCbNGV0I1FlfKg",
>>>>>>> Stashed changes
        "name": "Dawson's Market Dupont Circle",
        "address": {
            "street": "2001 S St. NW, Washington, DC 20009",
            "lat": "38.9143274",
            "lon": "-77.0451575"
        },
        "locations": "Restaurant/Retail",
        "wines": [
            "Foothills",
            "Rosé",
            "Young Wine Red"
        ]
    },
    {
<<<<<<< Updated upstream
        "id": "GMvwHBhgUu81wFXnEDVJ0",
=======
        "id": "s8TcHIJJfmQ4U6zypvliC",
>>>>>>> Stashed changes
        "name": "Ellwood Thompson",
        "address": {
            "street": "4 N Thompson St, Richmond, VA 23221",
            "lat": "37.5574138",
            "lon": "-77.4884332"
        },
        "locations": "Retail",
        "wines": [
            "Foothills"
        ]
    },
    {
<<<<<<< Updated upstream
        "id": "NXt8bPiehKT1Oo5Uh1qOB",
=======
        "id": "a82-RCblyTWKcr6bsOGtE",
>>>>>>> Stashed changes
        "name": "Fat Canary",
        "address": {
            "street": "The Cheese Shop of VA, Inc., Williamsburg, VA 23185",
            "lat": "37.2706994",
            "lon": "-76.7061859"
        },
        "locations": "Restaurant",
        "wines": [
            "Foothills",
            "Rosé"
        ]
    },
    {
<<<<<<< Updated upstream
        "id": "oyR1ZuVUF8TB6B8Dwd2rN",
=======
        "id": "gxdosiPcCHD-Kg5_UdB2o",
>>>>>>> Stashed changes
        "name": "Friendly City Food Co-op",
        "address": {
            "street": "150 E Wolfe St, Harrisonburg, VA 22802",
            "lat": "38.4516609",
            "lon": "-78.8665291"
        },
        "locations": "Retail",
        "wines": [
            "Foothills",
            "Rosé"
        ]
    },
    {
<<<<<<< Updated upstream
        "id": "KqvAICWPMQwcHPIWiWGaK",
=======
        "id": "k1EbrSRh997FIs3EdLw_V",
>>>>>>> Stashed changes
        "name": "NRG - Rustico - Ballston",
        "address": {
            "street": "4075 Wilson Blvd., Arlington, VA 22203",
            "lat": "38.8803079",
            "lon": "-77.1085112"
        },
        "locations": "Restaurant",
        "wines": [
            "Foothills"
        ]
    },
    {
<<<<<<< Updated upstream
        "id": "rGgF9tDlTad2NED7zy8B1",
=======
        "id": "MGiQ5dU1M2gZsQ_C86OEu",
>>>>>>> Stashed changes
        "name": "Press 626",
        "address": {
            "street": "626 West Olney Rd., Norfolk, VA 23507",
            "lat": "36.8605378",
            "lon": "-76.2996588"
        },
        "locations": "Restaurant",
        "wines": [
            "Foothills",
            "Petit Manseng",
            "Shenandoah Valley Cabernet Franc",
            "Young Wine Red"
        ]
    },
    {
<<<<<<< Updated upstream
        "id": "7xWxwrcH0a2LxmWSndFa_",
=======
        "id": "UayXGJGs0dEgYO7QXmvjS",
>>>>>>> Stashed changes
        "name": "Prosperity Kitchen & Pantry",
        "address": {
            "street": "532 Virginia Beach Blvd Ste B, Virginia Beach, VA 23451",
            "lat": "36.8444829",
            "lon": "-75.9806406"
        },
        "locations": "Restaurant",
        "wines": [
            "Foothills"
        ]
    },
    {
<<<<<<< Updated upstream
        "id": "xYd1wN33mBvT3S1spjQEI",
=======
        "id": "-P8knQlihqXVeXpyNUoy2",
>>>>>>> Stashed changes
        "name": "Veil - Forest Hill",
        "address": {
            "street": "4910 Forest Hill Ave, Richmond, VA 23225",
            "lat": "37.5218053",
            "lon": "-77.4900606"
        },
        "locations": "Restaurant",
        "wines": [
            "Foothills"
        ]
    },
    {
<<<<<<< Updated upstream
        "id": "zFbxERSoc5XZzi2H53v9X",
=======
        "id": "2xlcWlrsmFWqMRH-AWKta",
>>>>>>> Stashed changes
        "name": "Whole Foods - Fair Lakes",
        "address": {
            "street": "4501 Market Commons Drive, Fairfax, VA 22033",
            "lat": "38.8578497",
            "lon": "-77.377751"
        },
        "locations": "Restaurant/Retail",
        "wines": [
            "Foothills"
        ]
    },
    {
<<<<<<< Updated upstream
        "id": "Tmf-IIeTvU14w9N0CxQIE",
=======
        "id": "LkhFz9_6tCs8cfHglplPI",
>>>>>>> Stashed changes
        "name": "Whole Foods - Short Pump",
        "address": {
            "street": "11173 West Broad St., Richmond, VA 23060",
            "lat": "37.6475262",
            "lon": "-77.5994359"
        },
        "locations": "Restaurant/Retail",
        "wines": [
            "Foothills"
        ]
    },
    {
<<<<<<< Updated upstream
        "id": "1B_CSis4UBo7JE9hov_n9",
=======
        "id": "AU9bnY4PZ1l6r69sAx_IG",
>>>>>>> Stashed changes
        "name": "Whole Foods - Tysons",
        "address": {
            "street": "7511 Leesburg Pike, Falls Church, VA 22043",
            "lat": "38.9026076",
            "lon": "-77.2050359"
        },
        "locations": "Restaurant/Retail",
        "wines": [
            "Foothills"
        ]
    },
    {
<<<<<<< Updated upstream
        "id": "3vE5k9_hvfp4gmCVEpT1S",
=======
        "id": "7lOgk56Xlt3S7gn7FfJmI",
>>>>>>> Stashed changes
        "name": "Whole Foods - Virginia Beach",
        "address": {
            "street": "1800 Laskin Road, Virginia Beach, VA 23454",
            "lat": "36.8509319",
            "lon": "-76.0281576"
        },
        "locations": "Restaurant/Retail",
        "wines": [
            "Foothills",
            "Rosé"
        ]
    },
    {
<<<<<<< Updated upstream
        "id": "UgC2ymiwezWmqTo7fEm1b",
=======
        "id": "kNVRdTVZGTcAVJ-Y8I4gT",
>>>>>>> Stashed changes
        "name": "Whole Foods - West Broad",
        "address": {
            "street": "2024 W Broad Street, Richmond, VA 23220",
            "lat": "37.5581958",
            "lon": "-77.4612166"
        },
        "locations": "Restaurant/Retail",
        "wines": [
            "Foothills"
        ]
    },
    {
<<<<<<< Updated upstream
        "id": "6Rm2yt8gMKwduU4Er8VN6",
=======
        "id": "VzpSzyU05Rvnodusjr6lX",
>>>>>>> Stashed changes
        "name": "Jardin",
        "address": {
            "street": "1520 West Main Street, Richmond, VA 23220",
            "lat": "37.5476874",
            "lon": "-77.4605615"
        },
        "locations": "Restaurant",
        "wines": [
            "Foothills"
        ]
    },
    {
<<<<<<< Updated upstream
        "id": "mvdoWJGTRpF97aW-_JdYr",
=======
        "id": "OC5Dk0ITh0Qa9JJHEi_0Q",
>>>>>>> Stashed changes
        "name": "Wine Warehouse",
        "address": {
            "street": "1804 Hydraulic Rd, Charlottesville, VA 22902",
            "lat": "38.0607943",
            "lon": "-78.4914214"
        },
        "locations": "Retail",
        "wines": [
            "Foothills"
        ]
    },
    {
<<<<<<< Updated upstream
        "id": "mBbXlsHvrh8l1RlTaJNny",
=======
        "id": "PjOy7W7X2LajUel1XrKPR",
>>>>>>> Stashed changes
        "name": "King's Ransom",
        "address": {
            "street": "728 King St, Alexandria, VA 22314",
            "lat": "38.8050097",
            "lon": "-77.0479903"
        },
        "locations": "Restaurant",
        "wines": [
            "Foothills"
        ]
    },
    {
<<<<<<< Updated upstream
        "id": "6HO8wOGq3l5iyEvBLGMSp",
=======
        "id": "efeeL_2WCIX5eK2eZ8Ex0",
>>>>>>> Stashed changes
        "name": "Kings County Wines",
        "address": {
            "street": "1420 Cortelyou Road, Brooklyn, NY 11226",
            "lat": "40.6409309",
            "lon": "-73.9645048"
        },
        "locations": "Retail",
        "wines": [
            "Foothills"
        ]
    },
    {
<<<<<<< Updated upstream
        "id": "g656eOrL0MpwbteVHr4ma",
=======
        "id": "x_uM3A2I5OcJHGIZ65Zjd",
>>>>>>> Stashed changes
        "name": "NRG - Red Apron Mosaic",
        "address": {
            "street": "8298 Glass Alley Ste 110, Fairfax, VA 22031",
            "lat": "38.8735482",
            "lon": "-77.2308105"
        },
        "locations": "Restaurant",
        "wines": [
            "Foothills"
        ]
    },
    {
<<<<<<< Updated upstream
        "id": "tIMM31HjAs2FC0iCy7Blh",
=======
        "id": "4CRWADwh1KbC8Yq11SJou",
>>>>>>> Stashed changes
        "name": "Taste - City Center",
        "address": {
            "street": "Karla Zappatelli, Newport News, VA 23606",
            "lat": "37.0672839",
            "lon": "-76.514138"
        },
        "locations": "Retail",
        "wines": [
            "Foothills"
        ]
    },
    {
<<<<<<< Updated upstream
        "id": "2lapS2yaeciFYglL1ZiCI",
=======
        "id": "YKVS0_gEVo_uHHEHU3mBr",
>>>>>>> Stashed changes
        "name": "Union Market",
        "address": {
            "street": "2306 Jefferson Avenue, Richmond, VA 23223",
            "lat": "37.5351655",
            "lon": "-77.4180834"
        },
        "locations": "Restaurant",
        "wines": [
            "Foothills"
        ]
    },
    {
<<<<<<< Updated upstream
        "id": "Ws8J8IGMjl4HWDll71VVT",
=======
        "id": "22d6FWa5V-YFsraBpfcC_",
>>>>>>> Stashed changes
        "name": "Whole Foods - Ashburn",
        "address": {
            "street": "19800 Belmont Chase Dr, Ashburn, VA 20147",
            "lat": "39.0686101",
            "lon": "-77.4843579"
        },
        "locations": "Restaurant/Retail",
        "wines": [
            "Foothills"
        ]
    },
    {
<<<<<<< Updated upstream
        "id": "UH7RTjYHyIoxNe7tRyQrR",
=======
        "id": "mOzyNp8L4tgs7KsZLNoka",
>>>>>>> Stashed changes
        "name": "Whole Foods - Boro Tysons",
        "address": {
            "street": "1635 Boro Place, McLean, VA 22102",
            "lat": "38.9246913",
            "lon": "-77.2333798"
        },
        "locations": "Restaurant/Retail",
        "wines": [
            "Foothills",
            "Rosé"
        ]
    },
    {
<<<<<<< Updated upstream
        "id": "O57Q1oYxvXLOf9NpiPjJ5",
=======
        "id": "jbK2T3HBOEeMTe9N7rQpc",
>>>>>>> Stashed changes
        "name": "Whole Foods - Pentagon City",
        "address": {
            "street": "520 12th St S Ste 100, Arlington, VA 22202",
            "lat": "38.8628102",
            "lon": "-77.0545096"
        },
        "locations": "Restaurant/Retail",
        "wines": [
            "Foothills"
        ]
    },
    {
<<<<<<< Updated upstream
        "id": "LPaNW9dRIy2PcCrYd3jK4",
=======
        "id": "Z4R4wI2WyI0TzSIUUvti6",
>>>>>>> Stashed changes
        "name": "Wine Seller - Williamsburg",
        "address": {
            "street": "4680 Monticello Ave Suite 15, Williamsburg, VA 23188",
            "lat": "37.2722283",
            "lon": "-76.7577749"
        },
        "locations": "Retail",
        "wines": [
            "Foothills"
        ]
    },
    {
<<<<<<< Updated upstream
        "id": "EZEfTj6oxVrFMlIfOI0Ma",
=======
        "id": "isVRDylN7fV1n-CypTDKA",
>>>>>>> Stashed changes
        "name": "Jardin",
        "address": {
            "street": "1520 West Main Street, Richmond, VA 23220",
            "lat": "37.5476874",
            "lon": "-77.4605615"
        },
        "locations": "Restaurant",
        "wines": [
            "Foothills"
        ]
    },
    {
<<<<<<< Updated upstream
        "id": "hz2U5mNqK4RtJGG1KllHi",
=======
        "id": "sDVrchgoY3RqYSDM17bDR",
>>>>>>> Stashed changes
        "name": "Live Arts",
        "address": {
            "street": "123 East Water St, Charlottesville, VA 22902",
            "lat": "38.0300169",
            "lon": "-78.4812638"
        },
        "locations": "Restaurant",
        "wines": [
            "Foothills",
            "Rosé"
        ]
    },
    {
<<<<<<< Updated upstream
        "id": "eLgDkHzWvam-bCRPdzj19",
=======
        "id": "N6J-KcokWxLYNEx9Er-20",
>>>>>>> Stashed changes
        "name": "NRG - Iron Gate",
        "address": {
            "street": "1734 N St. NW, Washington, DC 20036",
            "lat": "38.9070697",
            "lon": "-77.0398501"
        },
        "locations": "Restaurant",
        "wines": [
            "Foothills",
            "Petit Manseng"
        ]
    },
    {
<<<<<<< Updated upstream
        "id": "aAJxnKU-IfKQzTi3ufxKb",
=======
        "id": "DC62sC_KEqeJkF5oxCwAt",
>>>>>>> Stashed changes
        "name": "Vinosity",
        "address": {
            "street": "174 E Davis St, Culpeper, VA 22701",
            "lat": "38.4731199",
            "lon": "-77.9948819"
        },
        "locations": "Retail",
        "wines": [
            "Foothills",
            "Rosé",
            "Young Wine Red"
        ]
    },
    {
<<<<<<< Updated upstream
        "id": "ouHUXRk4PPEE6DBPmksS1",
=======
        "id": "OngSdSKY7ica8UwFa7XnE",
>>>>>>> Stashed changes
        "name": "Whole Foods - Newport News",
        "address": {
            "street": "12080 Jefferson Ave, Newport News, VA 23606",
            "lat": "37.1028877",
            "lon": "-76.4907572"
        },
        "locations": "Restaurant/Retail",
        "wines": [
            "Foothills",
            "Rosé"
        ]
    },
    {
<<<<<<< Updated upstream
        "id": "Sp4xBashFHxrhTwGKU79L",
=======
        "id": "7lU5dHO9CaKlAVFWKle8H",
>>>>>>> Stashed changes
        "name": "Wool Factory",
        "address": {
            "street": "1837 Broadway Street, Charlottesville, VA 22902",
            "lat": "38.0197143",
            "lon": "-78.4557898"
        },
        "locations": "Restaurant/Retail",
        "wines": [
            "Foothills"
        ]
    },
    {
<<<<<<< Updated upstream
        "id": "6t_-mPp0k9VLLGI7tH1dh",
=======
        "id": "3SG0M_6hmPRu_ectNNWa_",
>>>>>>> Stashed changes
        "name": "Fort Lewis Lodge",
        "address": {
            "street": "603 Old Plantation Way, Millboro, VA 24460",
            "lat": "38.114054",
            "lon": "-79.6110139"
        },
        "locations": "Restaurant",
        "wines": [
            "Foothills"
        ]
    },
    {
<<<<<<< Updated upstream
        "id": "2e5E7h-VwEY2JkktMpq8S",
=======
        "id": "pKscjDn0aOqDf5_8zK3ik",
>>>>>>> Stashed changes
        "name": "Alley Light",
        "address": {
            "street": "108 2nd St. SW, Charlottesville, VA 22902",
            "lat": "38.0305995",
            "lon": "-78.482276"
        },
        "locations": "Restaurant/Retail",
        "wines": [
            "Foothills",
            "RISE",
            "Shenandoah Valley Cabernet Franc",
            "Young Wine Red"
        ]
    },
    {
<<<<<<< Updated upstream
        "id": "6eg6mtsy1G8brec9W-65s",
=======
        "id": "KaKPCaM-W-z0BBkEDJwMY",
>>>>>>> Stashed changes
        "name": "Odd Provisions",
        "address": {
            "street": "3301 11th Street NW, Washington, DC 20010",
            "lat": "38.9309006",
            "lon": "-77.0278015"
        },
        "locations": "Retail",
        "wines": [
            "Foothills",
            "Rosé"
        ]
    },
    {
<<<<<<< Updated upstream
        "id": "THjzOON8tHhktete2mIc3",
=======
        "id": "eG96zmKpnG01imJWPWyUv",
>>>>>>> Stashed changes
        "name": "Farmhouse, The",
        "address": {
            "street": "285 Ridinger St., Christiansburg, VA 24073",
            "lat": "37.1534355",
            "lon": "-80.4219158"
        },
        "locations": "Restaurant",
        "wines": [
            "Foothills",
            "Rosé"
        ]
    },
    {
<<<<<<< Updated upstream
        "id": "QtTcybX3VAEOeL2Qh8JMb",
=======
        "id": "TuQTl-StKZ4HNoupJapAs",
>>>>>>> Stashed changes
        "name": "Heurich House Museum",
        "address": {
            "street": "1307 New Hampshire Ave. NW, Washington, DC 20036",
            "lat": "38.9080119",
            "lon": "-77.0445379"
        },
        "locations": "Restaurant",
        "wines": [
            "Foothills"
        ]
    },