[
    {
        "id": "_O-5LjhLww6B6310IOoUV",
        "name": "Amber Ox Kitchen & Brewery",
        "address": {
            "street": "521 Prince George St., Williamsburg, VA 23185",
            "lat": "37.272864",
            "lon": "-76.708414"
        },
        "locations": "Restaurant",
        "wines": [
            "Five Forks",
            "Foothills"
        ]
    },
    {
        "id": "Tpdp7nr5n7kuCVXF6FqiH",
        "name": "Arrowine",
        "address": {
            "street": "4508 Lee Hwy, Arlington, VA 22207",
            "lat": "38.8983733",
            "lon": "-77.1183586"
        },
        "locations": "Retail",
        "wines": [
            "Rosé",
            "Foothills",
            "Pétillant Naturel White",
            "Shenandoah Valley Cabernet Franc",
            "Chardonnay"
        ]
    },
    {
        "id": "bs2VFv4unWUa5SUQSIzzh",
        "name": "Barrel Chest",
        "address": {
            "street": "4035 Electric Rd. #B, Roanoke, VA 24018",
            "lat": "37.2235279",
            "lon": "-79.982868"
        },
        "locations": "Retail",
        "wines": [
            "Foothills",
            "Five Forks",
            "Pétillant Naturel White",
            "Young Wine",
            "Petit Manseng",
            "Eluvium"
        ]
    },
    {
        "id": "aP5sniDvv6jC7YsQKlzdc",
        "name": "Barrel Thief",
        "address": {
            "street": "5805 Patterson Ave, Richmond, VA 23226",
            "lat": "37.5794435",
            "lon": "-77.5149812"
        },
        "locations": "Restaurant/Retail",
        "wines": [
            "Petit Manseng",
            "Rosé",
            "Pétillant Naturel White",
            "Foothills"
        ]
    },
    {
        "id": "BL-JJmWD5e03hEU8w8Rl8",
        "name": "Beer Run",
        "address": {
            "street": "156 Carlton Rd Ste 203, Charlottesville, VA 22902",
            "lat": "38.0246361",
            "lon": "-78.468401"
        },
        "locations": "Restaurant/Retail",
        "wines": [
            "Young Wine",
            "Shenandoah Valley Cabernet Franc"
        ]
    },
    {
        "id": "hQ6jP1ZKuCdysRfdB_0Ws",
        "name": "Blanca",
        "address": {
            "street": "4117 Granby St Ste A, Norfolk, VA 23504",
            "lat": "36.8846514",
            "lon": "-76.2818304"
        },
        "locations": "Restaurant",
        "wines": [
            "Petit Manseng"
        ]
    },
    {
        "id": "ko4zJ2eok333jRlcYeLZj",
        "name": "Caboose",
        "address": {
            "street": "108 S. Railroad Ave., Ashland, VA 23005",
            "lat": "37.758286",
            "lon": "-77.4816338"
        },
        "locations": "Restaurant/Retail",
        "wines": [
            "Chardonnay",
            "Foothills"
        ]
    },
    {
        "id": "yVlTM4INEMqG3FsANsyiD",
        "name": "City Vino",
        "address": {
            "street": "810 Caroline St Suite 101, Fredericksburg, VA 22401",
            "lat": "38.3019961",
            "lon": "-77.4590376"
        },
        "locations": "Retail",
        "wines": [
            "Rosé",
            "Eluvium",
            "Young Wine",
            "Five Forks"
        ]
    },
    {
        "id": "eyN3S79LOZ_thia6p1Iu-",
        "name": "Common House",
        "address": {
            "street": "206 West Market Street, Charlottesville, VA 22902",
            "lat": "38.0317194",
            "lon": "-78.4822538"
        },
        "locations": "Restaurant",
        "wines": [
            "Pétillant Naturel White",
            "Rosé",
            "Chardonnay"
        ]
    },
    {
        "id": "9D98qMHFfk6cfwGEMDqqI",
        "name": "Buck's Fishing",
        "address": {
            "street": "5031 Connecticut Ave NW, Washington, DC 20008",
            "lat": "38.955832",
            "lon": "-77.0698701"
        },
        "locations": "Restaurant",
        "wines": [
            "Rosé"
        ]
    },
    {
        "id": "Qvm5LLhhYvLMGsuF0Klnh",
        "name": "Crystal City Wine Shop",
        "address": {
            "street": "220 20th St. South, Arlington, VA 22202",
            "lat": "38.85597",
            "lon": "-77.0500304"
        },
        "locations": "Retail",
        "wines": [
            "Five Forks",
            "Petit Manseng",
            "Young Wine",
            "Rosé",
            "Foothills",
            "RISE"
        ]
    },
    {
        "id": "BN9vLvb1IxeOC0XAzyGYU",
        "name": "Commune - Virginia Beach",
        "address": {
            "street": "501 Virginia Beach Blvd. Ste. B, Virginia Beach, VA 23451",
            "lat": "36.8441296",
            "lon": "-75.9793877"
        },
        "locations": "Restaurant",
        "wines": [
            "Foothills"
        ]
    },
    {
        "id": "P7W8smpjVPCPJbBW5F2NT",
        "name": "Department of Beer & Wine",
        "address": {
            "street": "2724 Richmond Hwy, Alexandria, VA 22301",
            "lat": "38.830645",
            "lon": "-77.051175"
        },
        "locations": "Retail",
        "wines": [
            "Rosé",
            "Pétillant Naturel White",
            "Five Forks",
            "Foothills",
            "Petit Manseng"
        ]
    },
    {
        "id": "3ktqsE6y3eJeWwkoasnK6",
        "name": "Dominion Wine and Beer",
        "address": {
            "street": "107 Rowell Ct., Falls Church, VA 22046",
            "lat": "38.8897048",
            "lon": "-77.183834"
        },
        "locations": "Restaurant/Retail",
        "wines": [
            "Five Forks",
            "Foothills",
            "Rosé",
            "Petit Manseng",
            "Chardonnay"
        ]
    },
    {
        "id": "UELm4JYJZhVXMUF4AY9io",
        "name": "Ellwood Thompson",
        "address": {
            "street": "4 N Thompson St, Richmond, VA 23221",
            "lat": "37.5574421",
            "lon": "-77.4886194"
        },
        "locations": "Retail",
        "wines": [
            "Shenandoah Valley Cabernet Franc",
            "Quaker Run Chardonnay",
            "Chardonnay",
            "Rosé",
            "Petit Manseng",
            "Five Forks",
            "Foothills",
            "Pétillant Naturel White",
            "Eluvium",
            "Pétillant Naturel Red"
        ]
    },
    {
        "id": "2wsI_hmhaKEIGesAjwehf",
        "name": "Fat Canary",
        "address": {
            "street": "The Cheese Shop of VA, Inc., Williamsburg, VA 23185",
            "lat": "37.2706994",
            "lon": "-76.7061859"
        },
        "locations": "Restaurant",
        "wines": [
            "Foothills",
            "Shenandoah Valley Cabernet Franc",
            "Rosé",
            "Five Forks",
            "Pétillant Naturel White",
            "Young Wine",
            "Eluvium",
            "Quaker Run Chardonnay"
        ]
    },
    {
        "id": "yTiCp2btb1252N00eRT2o",
        "name": "Crystal Palate",
        "address": {
            "street": "4500 Pretty Lake Avenue, Norfolk, VA 23518",
            "lat": "36.925493",
            "lon": "-76.1880817"
        },
        "locations": "Retail",
        "wines": [
            "Chardonnay"
        ]
    },
    {
        "id": "46QBmkqQu2BCd18AEfLhz",
        "name": "Field & Main",
        "address": {
            "street": "8369 W. Main St., Marshall, VA 20115",
            "lat": "38.8647631",
            "lon": "-77.8574303"
        },
        "locations": "Restaurant/Retail",
        "wines": [
            "Shenandoah Valley Cabernet Franc",
            "Red Vine",
            "Rosé",
            "F & M Red",
            "Eluvium",
            "RISE"
        ]
    },
    {
        "id": "P5CKAMtSrzNmAGTpaJxQr",
        "name": "Foods of All Nations",
        "address": {
            "street": "2121 Ivy Rd, Charlottesville, VA 22903",
            "lat": "38.0432978",
            "lon": "-78.5119067"
        },
        "locations": "Retail",
        "wines": [
            "Young Wine",
            "Five Forks",
            "Rosé",
            "Foothills",
            "Shenandoah Valley Cabernet Franc",
            "Pétillant Naturel White",
            "Chardonnay"
        ]
    },
    {
        "id": "gNs6F_3apv4YkUdq1qyNm",
        "name": "Feast",
        "address": {
            "street": "416 W Main St Suite H, Charlottesville, VA 22902",
            "lat": "38.0304142",
            "lon": "-78.4872613"
        },
        "locations": "Retail",
        "wines": [
            "Rosé"
        ]
    },
    {
        "id": "ZsoIPc50wV-OOXmEgEO49",
        "name": "Founding Farmers - DC",
        "address": {
            "street": "1924 Pennsylvania Ave. NW, Washington, DC 20006",
            "lat": "38.9002854",
            "lon": "-77.0445269"
        },
        "locations": "Restaurant",
        "wines": [
            "Rosé"
        ]
    },
    {
        "id": "sI4U_Yo8MeQvO02DNnUkm",
        "name": "Founding Farmers - Tyson's Corner",
        "address": {
            "street": "1800 Tyson's Blvd., McLean, VA 22102",
            "lat": "38.9223637",
            "lon": "-77.2224625"
        },
        "locations": "Restaurant",
        "wines": [
            "Rosé"
        ]
    },
    {
        "id": "hsax2usRgrAyFhS5iHWAF",
        "name": "Fort Lewis Lodge",
        "address": {
            "street": "603 Old Plantation Way, Millboro, VA 24460",
            "lat": "38.114054",
            "lon": "-79.6110139"
        },
        "locations": "Retail",
        "wines": [
            "Foothills",
            "Young Wine"
        ]
    },
    {
        "id": "08ttkslUu6M_Vt0BeHGaX",
        "name": "Friendly City Food Co-op",
        "address": {
            "street": "150 E Wolfe St, Harrisonburg, VA 22802",
            "lat": "38.4516609",
            "lon": "-78.8665291"
        },
        "locations": "Retail",
        "wines": [
            "Rosé",
            "Pétillant Naturel White",
            "Foothills",
            "Petit Manseng",
            "Young Wine"
        ]
    },
    {
        "id": "aYzKbeH3npX_TWPVNbbQ-",
        "name": "Glen's Garden Market",
        "address": {
            "street": "2001 S St. NW, Washington, DC 20009",
            "lat": "38.9143274",
            "lon": "-77.0451575"
        },
        "locations": "Restaurant/Retail",
        "wines": [
            "Rosé",
            "Shenandoah Valley Cabernet Franc",
            "Foothills",
            "Pétillant Naturel White",
            "Five Forks",
            "Young Wine"
        ]
    },
    {
        "id": "SgP0iKYAQZXBhKmR0Rkjs",
        "name": "Frankly Wines",
        "address": {
            "street": "66 West Broadway, New York, NY 10007",
            "lat": "40.7146846",
            "lon": "-74.0101186"
        },
        "locations": "Retail",
        "wines": [
            "Rosé"
        ]
    },
    {
        "id": "y6sxCN9oKchY4eXGNUoyl",
        "name": "Greenwood",
        "address": {
            "street": "6701 Rockfish Gap TPK, Crozet, VA 22932",
            "lat": "38.0413202",
            "lon": "-78.732343"
        },
        "locations": "Retail",
        "wines": [
            "Five Forks",
            "Petit Manseng",
            "Young Wine",
            "Foothills",
            "Rosé",
            "Eluvium",
            "Shenandoah Valley Cabernet Franc",
            "RISE"
        ]
    },
    {
        "id": "XGA5yTfe7ajVOw02Dpo1i",
        "name": "Good Wine",
        "address": {
            "street": "327 5th Avenue, Brooklyn, NY 11215",
            "lat": "40.6724091",
            "lon": "-73.9833358"
        },
        "locations": "Retail",
        "wines": [
            "Rosé",
            "Young Wine"
        ]
    },
    {
        "id": "TXc1IFmi13KYeWDKm1s-H",
        "name": "J Emerson",
        "address": {
            "street": "5716 Grove Ave, Richmond, VA 23226",
            "lat": "37.5733362",
            "lon": "-77.5180274"
        },
        "locations": "Retail",
        "wines": [
            "Rosé",
            "Chardonnay",
            "Foothills",
            "Young Wine",
            "Five Forks",
            "Shenandoah Valley Cabernet Franc"
        ]
    },
    {
        "id": "Ui6DNEYAM2yCW7ct91q_Q",
        "name": "Jackson River Cellars",
        "address": {
            "street": "180 Oakley Farm Ln, Warm Springs, VA 24484",
            "lat": "38.0425248",
            "lon": "-79.7906726"
        },
        "locations": "Retail",
        "wines": [
            "Young Wine",
            "Pétillant Naturel White"
        ]
    },
    {
        "id": "xRaolZHkQ8DUr6nk2C62B",
        "name": "La Fromagerie",
        "address": {
            "street": "1222 King St, Alexandria, VA 22314",
            "lat": "38.805648",
            "lon": "-77.053429"
        },
        "locations": "Restaurant/Retail",
        "wines": [
            "Young Wine",
            "Rosé",
            "Eluvium",
            "Pétillant Naturel White",
            "Quaker Run Chardonnay"
        ]
    },
    {
        "id": "WYmR7s7xHqaQJIIRaJu6Y",
        "name": "Libbie Market",
        "address": {
            "street": "400 Libbie Ave., Richmond, VA 23226",
            "lat": "37.5746309",
            "lon": "-77.5183971"
        },
        "locations": "Retail",
        "wines": [
            "Rosé",
            "Eluvium",
            "Petit Manseng"
        ]
    },
    {
        "id": "rJusRU6Tjz29IuKQ1bv31",
        "name": "Little Red Fox",
        "address": {
            "street": "5035 Connecticut Ave. NW, Washington, DC 20008",
            "lat": "38.9558822",
            "lon": "-77.0699601"
        },
        "locations": "Restaurant/Retail",
        "wines": [
            "Pétillant Naturel White",
            "Shenandoah Valley Cabernet Franc"
        ]
    },
    {
        "id": "_ySScB_r_4H9PN-u2l3b4",
        "name": "Grisette",
        "address": {
            "street": "3119 East Marshall Street, Richmond, VA 23223",
            "lat": "37.528621",
            "lon": "-77.4119182"
        },
        "locations": "Restaurant",
        "wines": [
            "Petit Manseng"
        ]
    },
    {
        "id": "NL2_0xvXvtGZ8xsgpa3XW",
        "name": "Market Street Wine Shop",
        "address": {
            "street": "311 East Market St, Charlottesville, VA 22902",
            "lat": "38.0310663",
            "lon": "-78.4789692"
        },
        "locations": "Retail",
        "wines": [
            "Five Forks",
            "Rosé",
            "Pétillant Naturel White",
            "Shenandoah Valley Cabernet Franc",
            "Foothills",
            "Pétillant Naturel Red",
            "RISE"
        ]
    },
    {
        "id": "GHZrHMG06Wm7ABiCkSkgP",
        "name": "Mona Lisa",
        "address": {
            "street": "921 Preston Ave, Charlottesville, VA 22903",
            "lat": "38.038434",
            "lon": "-78.489901"
        },
        "locations": "Retail",
        "wines": [
            "Five Forks",
            "Petit Manseng",
            "Foothills",
            "Young Wine",
            "Pétillant Naturel White",
            "Eluvium"
        ]
    },
    {
        "id": "5Pi3-Ehp4YU6DTpQ2Nwjm",
        "name": "Norm's Beer & Wine",
        "address": {
            "street": "136 Branch Rd SE, Vienna, VA 22180",
            "lat": "38.9062317",
            "lon": "-77.257151"
        },
        "locations": "Retail",
        "wines": [
            "Quaker Run Chardonnay",
            "Rosé",
            "Five Forks",
            "Chardonnay",
            "Foothills"
        ]
    },
    {
        "id": "zyHSRxaDNnghc5UmlFFb1",
        "name": "Locke Store",
        "address": {
            "street": "2049 Millwood Rd., Millwood, VA 22646",
            "lat": "39.0695452",
            "lon": "-78.0379379"
        },
        "locations": "Retail",
        "wines": [
            "Rosé",
            "Eluvium",
            "Pétillant Naturel White",
            "Petit Manseng",
            "Quaker Run Chardonnay"
        ]
    },
    {
        "id": "adoqFwMYkmjWuWd1OdEvi",
        "name": "Nota Bene",
        "address": {
            "street": "2110 E Main St., Richmond, VA 23223",
            "lat": "37.5311605",
            "lon": "-77.4243981"
        },
        "locations": "Restaurant",
        "wines": [
            "Five Forks",
            "Chardonnay",
            "Foothills"
        ]
    },
    {
        "id": "5LNEN-L5w0LamGp_zuqyv",
        "name": "Organic Butcher of McLean",
        "address": {
            "street": "6712 Old Dominion Drive, McLean, VA 22101",
            "lat": "38.9335412",
            "lon": "-77.1758584"
        },
        "locations": "Retail",
        "wines": [
            "Rosé",
            "Five Forks",
            "Young Wine",
            "Pétillant Naturel Red",
            "Chardonnay",
            "Foothills",
            "Shenandoah Valley Cabernet Franc",
            "RISE"
        ]
    },
    {
        "id": "65sTDx4y1x4JpS-kA7yBg",
        "name": "Outpost",
        "address": {
            "street": "4813 Forest Hill Ave., Richmond, VA 23225",
            "lat": "37.5211852",
            "lon": "-77.4878087"
        },
        "locations": "Retail",
        "wines": [
            "Foothills",
            "Young Wine",
            "Rosé",
            "Shenandoah Valley Cabernet Franc"
        ]
    },
    {
        "id": "0mGNeM-_pZqXJNLzCS33G",
        "name": "Odd Provisions",
        "address": {
            "street": "3301 11th Street NW, Washington, DC 20010",
            "lat": "38.9309006",
            "lon": "-77.0278015"
        },
        "locations": "Retail",
        "wines": [
            "Pétillant Naturel White"
        ]
    },
    {
        "id": "D5f3P755e0N7UXINXCSen",
        "name": "Planet Wine",
        "address": {
            "street": "2000-2004 Mount Vernon Ave, Alexandria, VA 22301",
            "lat": "38.8239816",
            "lon": "-77.0585376"
        },
        "locations": "Retail",
        "wines": [
            "Petit Manseng",
            "Young Wine",
            "Rosé",
            "Shenandoah Valley Cabernet Franc"
        ]
    },
    {
        "id": "a12xUquum4GkqcG76023t",
        "name": "Prosperity Kitchen & Pantry",
        "address": {
            "street": "532 Virginia Beach Blvd Ste B, Virginia Beach, VA 23451",
            "lat": "36.8444829",
            "lon": "-75.9806406"
        },
        "locations": "Restaurant",
        "wines": [
            "Foothills",
            "Young Wine",
            "RISE"
        ]
    },
    {
        "id": "_mtBO81X2-YWN9E4QyyFv",
        "name": "Red Hen-DC",
        "address": {
            "street": "1822 1st St. NW, Washington, DC 20001",
            "lat": "38.9149738",
            "lon": "-77.0124095"
        },
        "locations": "Restaurant",
        "wines": [
            "Rosé",
            "Petit Manseng"
        ]
    },
    {
        "id": "t7MyYUGjhw2VlcjMFmg4Q",
        "name": "Salisbury Country Club",
        "address": {
            "street": "13620 W. Salisbury Rd, Midlothian, VA 23113",
            "lat": "37.5278854",
            "lon": "-77.6533788"
        },
        "locations": "Restaurant",
        "wines": [
            "Rosé",
            "Shenandoah Valley Cabernet Franc",
            "Five Forks",
            "Young Wine",
            "RISE"
        ]
    },
    {
        "id": "ShiIX05SuQTCxYqleVPcp",
        "name": "Screwtop",
        "address": {
            "street": "1025 Fillmore St. N, Arlington, VA 22201",
            "lat": "38.8859072",
            "lon": "-77.0926894"
        },
        "locations": "Restaurant/Retail",
        "wines": [
            "Rosé",
            "Eluvium",
            "Pétillant Naturel Red"
        ]
    },
    {
        "id": "sOc1RCQXLCp5PVP4t_L7V",
        "name": "Pendulum Fine Meats",
        "address": {
            "street": "820 Shirley Avenue, Norfolk, VA 23517",
            "lat": "36.8683635",
            "lon": "-76.2987524"
        },
        "locations": "Retail",
        "wines": [
            "Rosé",
            "Young Wine",
            "Five Forks"
        ]
    },
    {
        "id": "GhBuRsKWnHbC06xyxUlyv",
        "name": "Succotash",
        "address": {
            "street": "915 F St. NW, Washington, DC 20004",
            "lat": "38.897644",
            "lon": "-77.02474"
        },
        "locations": "Restaurant",
        "wines": [
            "Five Forks"
        ]
    },
    {
        "id": "oT2gXa0ETGhQgHHD47Rza",
        "name": "Ten Sushi",
        "address": {
            "street": "120B East Main St, Charlottesville, VA 22902",
            "lat": "38.0303542",
            "lon": "-78.4810329"
        },
        "locations": "Restaurant",
        "wines": [
            "Rosé"
        ]
    },
    {
        "id": "2K1a7gikq7OrcxGSH3MFF",
        "name": "The Inn at Meander Plantation",
        "address": {
            "street": "2333 N James Madison Hwy, Locust Dale, VA 22948",
            "lat": "38.3494656",
            "lon": "-78.118313"
        },
        "locations": "Restaurant",
        "wines": [
            "Rosé",
            "Petit Manseng",
            "Foothills",
            "Shenandoah Valley Cabernet Franc"
        ]
    },
    {
        "id": "CErNKj1G8H7KbmqHA2jGT",
        "name": "The Market at Grelen",
        "address": {
            "street": "15091 Yager Rd, Somerset, VA 22972",
            "lat": "38.199417",
            "lon": "-78.194607"
        },
        "locations": "Restaurant/Retail",
        "wines": [
            "Rosé",
            "Chardonnay"
        ]
    },
    {
        "id": "hlNIxqGI4dWXEs7dnAqkp",
        "name": "Thornton River Grille",
        "address": {
            "street": "Thornton River Grille, Sperryville, VA 22740",
            "lat": "38.6525114",
            "lon": "-78.2667447"
        },
        "locations": "Restaurant",
        "wines": [
            "Rosé",
            "Foothills",
            "Chardonnay",
            "Young Wine",
            "Eluvium"
        ]
    },
    {
        "id": "pefuEjxBTQnQemlRpe56w",
        "name": "Town Duck",
        "address": {
            "street": "100 Main St, Warrenton, VA 20186",
            "lat": "38.7122701",
            "lon": "-77.7930779"
        },
        "locations": "Retail",
        "wines": [
            "Rosé",
            "Foothills",
            "Eluvium",
            "Five Forks"
        ]
    },
    {
        "id": "lDI1NNnezDk2uWfyKPoPo",
        "name": "Unwined Belle View",
        "address": {
            "street": "1600 Belle View Blvd., Alexandria, VA 22307",
            "lat": "38.7761672",
            "lon": "-77.0597746"
        },
        "locations": "Retail",
        "wines": [
            "Rosé",
            "Eluvium",
            "Petit Manseng",
            "Young Wine"
        ]
    },
    {
        "id": "RJFe1FgNjq7gLHq4cK92N",
        "name": "Urban Hang Suite",
        "address": {
            "street": "304 E. Broad Street, Richmond, VA 23219",
            "lat": "37.5441901",
            "lon": "-77.4388111"
        },
        "locations": "Restaurant/Retail",
        "wines": [
            "Foothills"
        ]
    },
    {
        "id": "VB1bfhxwjG13c6gdqxVuU",
        "name": "Thamee",
        "address": {
            "street": "1320 H St NE, Washington, DC 20002",
            "lat": "38.9004226",
            "lon": "-76.9874602"
        },
        "locations": "Restaurant",
        "wines": [
            "Young Wine"
        ]
    },
    {
        "id": "YfYQPaCOga2Tz3o-Rncyk",
        "name": "Westside Produce & Provisions",
        "address": {
            "street": "5015 Colley Ave., Norfolk, VA 23508",
            "lat": "36.8890919",
            "lon": "-76.2954496"
        },
        "locations": "Retail",
        "wines": [
            "Rosé",
            "Five Forks",
            "Foothills",
            "Chardonnay",
            "Young Wine",
            "Eluvium",
            "Shenandoah Valley Cabernet Franc"
        ]
    },
    {
        "id": "MnvMaAg7aN8KrnFJR4exW",
        "name": "Wardman Wines",
        "address": {
            "street": "625 Monroe St. NE, Ste.#A7, Washington, DC 20007",
            "lat": "38.9318318",
            "lon": "-76.9971246"
        },
        "locations": "Retail",
        "wines": [
            "Rosé"
        ]
    },
    {
        "id": "0J2_Awf7i0aDdSzlU_MGK",
        "name": "Whole Foods - Arlington",
        "address": {
            "street": "2700 Wilson Blvd., Arlington, VA 22201",
            "lat": "38.8892254",
            "lon": "-77.0912401"
        },
        "locations": "Restaurant/Retail",
        "wines": [
            "Five Forks",
            "Rosé"
        ]
    },
    {
        "id": "ORihSj7Ih2RnIf7UsUQyX",
        "name": "Whole Foods - Boro Tysons",
        "address": {
            "street": "1635 Boro Place, McLean, VA 22102",
            "lat": "38.9246153",
            "lon": "-77.2335301"
        },
        "locations": "Restaurant/Retail",
        "wines": [
            "Five Forks",
            "Rosé",
            "Foothills"
        ]
    },
    {
        "id": "c_pawCbf-hLWvgv90dzdl",
        "name": "Whole Foods - Charlottesville",
        "address": {
            "street": "1797 Hydraulic Road, Charlottesville, VA 22901",
            "lat": "38.059773",
            "lon": "-78.4891351"
        },
        "locations": "Restaurant/Retail",
        "wines": [
            "Rosé",
            "Five Forks",
            "Foothills"
        ]
    },
    {
        "id": "uvW0TivGGn-xYJGdkEEQ3",
        "name": "Whole Foods - Short Pump",
        "address": {
            "street": "11173 West Broad St., Richmond, VA 23060",
            "lat": "37.6475665",
            "lon": "-77.5997292"
        },
        "locations": "Restaurant/Retail",
        "wines": [
            "Rosé",
            "Foothills",
            "Five Forks"
        ]
    },
    {
        "id": "Rr52gs37YTLqwxFSCHwpB",
        "name": "Whole Foods - Ashburn",
        "address": {
            "street": "19800 Belmont Chase Dr, Ashburn, VA 20147",
            "lat": "39.0684834",
            "lon": "-77.4843963"
        },
        "locations": "Restaurant/Retail",
        "wines": [
            "Foothills",
            "Rosé",
            "Five Forks"
        ]
    },
    {
        "id": "mjJl18HSeAGVS0dt4Mb5N",
        "name": "Whole Foods - South Capitol Hill",
        "address": {
            "street": "101 H St. SE, Washington, DC 20003",
            "lat": "38.8802819",
            "lon": "-77.005121"
        },
        "locations": "Restaurant/Retail",
        "wines": [
            "Rosé",
            "Five Forks"
        ]
    },
    {
        "id": "6w4xn24hpA5kWcbQ1jFQY",
        "name": "Whole Foods - West Broad",
        "address": {
            "street": "2024 W Broad Street, Richmond, VA 23220",
            "lat": "37.5581958",
            "lon": "-77.4612166"
        },
        "locations": "Restaurant/Retail",
        "wines": [
            "Foothills"
        ]
    },
    {
        "id": "0cHBz8mZhVHjIGpXU3b06",
        "name": "Williamsburg Winery",
        "address": {
            "street": "5800 Wessex Hundred, Williamsburg, VA 23185",
            "lat": "37.2315138",
            "lon": "-76.718275"
        },
        "locations": "Restaurant/Retail",
        "wines": [
            "Rosé",
            "Eluvium"
        ]
    },
    {
        "id": "PG0A29rhNgdpPYXsdMWhd",
        "name": "Wine Guild",
        "address": {
            "street": "221 Carlton Rd, Suite 1, Charlottesville, VA 22902",
            "lat": "38.0236619",
            "lon": "-78.4696887"
        },
        "locations": "Retail",
        "wines": [
            "Young Wine",
            "Rosé",
            "Shenandoah Valley Cabernet Franc"
        ]
    },
    {
        "id": "0MXlTF3AHzQ_hFU6Sj3_e",
        "name": "Wine Gourmet",
        "address": {
            "street": "3524 Electric Road, Roanoke, VA 24014",
            "lat": "37.2271841",
            "lon": "-79.9984762"
        },
        "locations": "Retail",
        "wines": [
            "Rosé"
        ]
    },
    {
        "id": "Xgh_bD5kwtHv_i0h6i8eX",
        "name": "Wool Factory, The",
        "address": {
            "street": "1837 Broadway Street, Charlottesville, VA 22902",
            "lat": "38.0201796",
            "lon": "-78.4580027"
        },
        "locations": "Restaurant/Retail",
        "wines": [
            "Foothills",
            "Rosé",
            "Eluvium",
            "Five Forks",
            "Pétillant Naturel White",
            "Young Wine",
            "RISE"
        ]
    },
    {
        "id": "A75dd-qNH1fLuoD7AdFm8",
        "name": "Wine Seller - Williamsburg",
        "address": {
            "street": "4680 Monticello Ave Suite 15, Williamsburg, VA 23188",
            "lat": "37.2719211",
            "lon": "-76.7595155"
        },
        "locations": "Retail",
        "wines": [
            "Foothills",
            "Five Forks",
            "RISE"
        ]
    },
    {
        "id": "pNr8Sb5vu2t0oaFubwMtc",
        "name": "Zocalo",
        "address": {
            "street": "201 E Main St Suite E, Charlottesville, VA 22902",
            "lat": "38.0307918",
            "lon": "-78.4803003"
        },
        "locations": "Restaurant",
        "wines": [
            "Rosé"
        ]
    },
    {
        "id": "lsBP0bbscBrLpKRQoeOHh",
        "name": "313 Franklin",
        "address": {
            "street": "313 Franklin Street, South Hill, VA 23970",
            "lat": "36.726272",
            "lon": "-78.1245498"
        },
        "locations": "Restaurant/Retail",
        "wines": [
            "Chardonnay",
            "Petit Manseng",
            "Shenandoah Valley Cabernet Franc"
        ]
    },
    {
        "id": "rrgrZbrpQ0m-burPQhV9Q",
        "name": "Balducci's - Alexandria",
        "address": {
            "street": "600 Franklin St, Alexandria, VA 22314",
            "lat": "38.7978102",
            "lon": "-77.0479011"
        },
        "locations": "Retail",
        "wines": [
            "Chardonnay",
            "Eluvium",
            "Young Wine",
            "Rosé",
            "Shenandoah Valley Cabernet Franc",
            "RISE"
        ]
    },
    {
        "id": "a4XmEojvQacd74Xr7ks8v",
        "name": "Copake Wine Works",
        "address": {
            "street": "69 Main St, Copake, NY 12516",
            "lat": "42.1040725",
            "lon": "-73.5494551"
        },
        "locations": "Restaurant/Retail",
        "wines": [
            "Chardonnay"
        ]
    },
    {
        "id": "UYxH3pyZ2VgB0F7ke2gWn",
        "name": "J Emerson",
        "address": {
            "street": "5716 Grove Ave, Richmond, VA 23226",
            "lat": "37.5733362",
            "lon": "-77.5180274"
        },
        "locations": "Retail",
        "wines": [
            "Chardonnay",
            "Rosé",
            "Pétillant Naturel White",
            "Five Forks",
            "Young Wine"
        ]
    },
    {
        "id": "Uxi-09YqgXHSd746inj7F",
        "name": "Olivino",
        "address": {
            "street": "905 Fulton Street, Broooklyn, NY 11238",
            "lat": "40.6837237",
            "lon": "-73.9671635"
        },
        "locations": "Retail",
        "wines": [
            "Chardonnay",
            "Rosé",
            "Foothills",
            "Shenandoah Valley Cabernet Franc"
        ]
    },
    {
        "id": "O9BDKzza0esFs6luwHCAr",
        "name": "White Moose Inn",
        "address": {
            "street": "291 Main St., Washington, VA 22747",
            "lat": "38.7123391",
            "lon": "-78.16034"
        },
        "locations": "Restaurant",
        "wines": [
            "Chardonnay",
            "Quaker Run Chardonnay",
            "Foothills"
        ]
    },
    {
        "id": "bjm7KZFjgn3omx0oQhdgw",
        "name": "Buckhead's Chop House",
        "address": {
            "street": "8510 Patterson Ave., Richmond, VA 23229",
            "lat": "37.5951667",
            "lon": "-77.5639423"
        },
        "locations": "Restaurant",
        "wines": [
            "Eluvium"
        ]
    },
    {
        "id": "hxDYFcdTFsl9Mk9CpMxel",
        "name": "Lafayette Inn",
        "address": {
            "street": "146 Main St, Stanardsville, VA 22973",
            "lat": "38.2973151",
            "lon": "-78.4385435"
        },
        "locations": "Restaurant",
        "wines": [
            "Eluvium",
            "Five Forks",
            "Shenandoah Valley Cabernet Franc"
        ]
    },
    {
        "id": "hKg2-WGWqmvpIQ8mG7vaq",
        "name": "Mom's Apple Pie",
        "address": {
            "street": "126 A Commerce St, Occoquan Historic Dist., VA 22125",
            "lat": "38.6822873",
            "lon": "-77.2600693"
        },
        "locations": "Retail",
        "wines": [
            "Eluvium",
            "Pétillant Naturel White",
            "Petit Manseng",
            "Pétillant Naturel Red"
        ]
    },
    {
        "id": "W80cuWWmpuN8I5towEu6W",
        "name": "Unwined Bradlee Shopping Center",
        "address": {
            "street": "3690-J King St, Alexandria, VA 22302",
            "lat": "38.8296628",
            "lon": "-77.0921948"
        },
        "locations": "Retail",
        "wines": [
            "Eluvium",
            "Rosé"
        ]
    },
    {
        "id": "NscsRcphhxf5b-JQdKu92",
        "name": "Mom's Apple Pie Hill High",
        "address": {
            "street": "35246 Harry Byrd Hwy Ste. 100, Round Hill, VA 20141",
            "lat": "39.1277991",
            "lon": "-77.7873132"
        },
        "locations": "Retail",
        "wines": [
            "Eluvium",
            "Pétillant Naturel White",
            "Shenandoah Valley Cabernet Franc",
            "Young Wine",
            "RISE"
        ]
    },
    {
        "id": "qd3psDShl4PJQiyClCikO",
        "name": "Roosevelt",
        "address": {
            "street": "623 N. 25th St., Richmond, VA 23223",
            "lat": "37.534897",
            "lon": "-77.4154189"
        },
        "locations": "Restaurant",
        "wines": [
            "Five Forks"
        ]
    },
    {
        "id": "5z5DECKWA2ZSEDRI8KaRv",
        "name": "Hazel Jane's",
        "address": {
            "street": "670 Dekalb Ave, Atlanta, GA 30307",
            "lat": "33.7535491",
            "lon": "-84.3655673"
        },
        "locations": "Restaurant/Retail",
        "wines": [
            "Five Forks"
        ]
    },
    {
        "id": "6nrod2p4t5bIFv4B5utkn",
        "name": "Tall Boy Beverage Co.",
        "address": {
            "street": "2095 South Milledge, Athens, GA 30605",
            "lat": "33.9229175",
            "lon": "-83.377894"
        },
        "locations": "Restaurant/Retail",
        "wines": [
            "Five Forks",
            "Rosé"
        ]
    },
    {
        "id": "emTKgZLwZF1D1sCYnjQ_3",
        "name": "Vino Market",
        "address": {
            "street": "3730 Winterfield Rd., Midlothian, VA 23113",
            "lat": "37.5535346",
            "lon": "-77.6685934"
        },
        "locations": "Retail",
        "wines": [
            "Five Forks",
            "Foothills",
            "Rosé",
            "Eluvium"
        ]
    },
    {
        "id": "d9UPuJ6PKnjmyqlXPBNQH",
        "name": "Whole Foods - Florida Ave",
        "address": {
            "street": "FAV - BU# 10651, Washington, DC 20001",
            "lat": "38.912068",
            "lon": "-77.0190228"
        },
        "locations": "Restaurant/Retail",
        "wines": [
            "Five Forks",
            "Rosé"
        ]
    },
    {
        "id": "AILI7XoEJWwp60BQeB2gJ",
        "name": "Whole Foods - Tenley",
        "address": {
            "street": "4530 40th Street NW, Washington, DC 20016",
            "lat": "38.9490789",
            "lon": "-77.0792007"
        },
        "locations": "Restaurant/Retail",
        "wines": [
            "Five Forks",
            "Rosé"
        ]
    },
    {
        "id": "pRnWjdFjzzjvrGP_NCorG",
        "name": "Whole Foods - Virginia Beach",
        "address": {
            "street": "1800 Laskin Road, Virginia Beach, VA 23454",
            "lat": "36.8509319",
            "lon": "-76.0281576"
        },
        "locations": "Restaurant/Retail",
        "wines": [
            "Five Forks",
            "Rosé",
            "Foothills"
        ]
    },
    {
        "id": "fRX-momnwjXb0LpSn5WAp",
        "name": "Wool Factory, The",
        "address": {
            "street": "1837 Broadway Street, Charlottesville, VA 22902",
            "lat": "38.0195964",
            "lon": "-78.4553634"
        },
        "locations": "Restaurant/Retail",
        "wines": [
            "Five Forks",
            "Foothills",
            "Rosé",
            "Young Wine",
            "Pétillant Naturel White"
        ]
    },
    {
        "id": "ZaSvwPkIR2ZxDTcX4ulAm",
        "name": "Each Peach Market",
        "address": {
            "street": "3068 Mt Pleasant St NW, Washington, DC 20009",
            "lat": "38.928548",
            "lon": "-77.0375272"
        },
        "locations": "Restaurant/Retail",
        "wines": [
            "Foothills"
        ]
    },
    {
        "id": "8yLIH3dMmy7jNVtj9NmvN",
        "name": "Fat Canary",
        "address": {
            "street": "The Cheese Shop of VA, Inc., Williamsburg, VA 23185",
            "lat": "37.2706994",
            "lon": "-76.7061859"
        },
        "locations": "Restaurant",
        "wines": [
            "Foothills",
            "Rosé",
            "Five Forks",
            "Shenandoah Valley Cabernet Franc",
            "Eluvium"
        ]
    },
    {
        "id": "eMpPxLRKDVl8wogC9Gphp",
        "name": "Roanoke Natural Foods Co-op",
        "address": {
            "street": "1319 Grandin Rd SW, Roanoke, VA 24015",
            "lat": "37.2652232",
            "lon": "-79.9776246"
        },
        "locations": "Retail",
        "wines": [
            "Foothills",
            "Rosé",
            "Young Wine"
        ]
    },
    {
        "id": "eFIqETt7roKcZQUd7qyvz",
        "name": "Shields Market",
        "address": {
            "street": "206 North Shields Avenue, Richmond, VA 23220",
            "lat": "37.5530887",
            "lon": "-77.4668696"
        },
        "locations": "Restaurant/Retail",
        "wines": [
            "Foothills"
        ]
    },
    {
        "id": "WTANl5EmStKAN7ZFbhl4W",
        "name": "Thornton River Grille",
        "address": {
            "street": "Thornton River Grille, Sperryville, VA 22740",
            "lat": "38.6573169",
            "lon": "-78.2267817"
        },
        "locations": "Restaurant",
        "wines": [
            "Foothills",
            "Rosé",
            "Young Wine",
            "Eluvium"
        ]
    },
    {
        "id": "TmYv8E9h5AGydpofj3PcH",
        "name": "Vintage Cellar",
        "address": {
            "street": "1338 South Main St., Blacksburg, VA 24060",
            "lat": "37.215963",
            "lon": "-80.402101"
        },
        "locations": "Retail",
        "wines": [
            "Foothills"
        ]
    },
    {
        "id": "BrsLVoFMDR6MeVXdTsv17",
        "name": "Alewife",
        "address": {
            "street": "3120 E Marshall St., Richmond, VA 23223",
            "lat": "37.5288799",
            "lon": "-77.4116006"
        },
        "locations": "Restaurant",
        "wines": [
            "Pétillant Naturel White",
            "Pétillant Naturel Red"
        ]
    },
    {
        "id": "yn1xhK3ARhdBxIqbhKhYe",
        "name": "Whole Foods - Springfield",
        "address": {
            "street": "8402 Old Keene Mill Road, Springfield, VA 22152",
            "lat": "38.7796348",
            "lon": "-77.2343247"
        },
        "locations": "Restaurant/Retail",
        "wines": [
            "Foothills",
            "Rosé"
        ]
    },
    {
        "id": "uQMYel6I1FH3Fedv_7xjT",
        "name": "Irving Bottle",
        "address": {
            "street": "155 Irving Ave, Brooklyn, NY 11237",
            "lat": "40.7026833",
            "lon": "-73.9205791"
        },
        "locations": "Retail",
        "wines": [
            "Pétillant Naturel White",
            "Young Wine"
        ]
    },
    {
        "id": "uv_KSVRKGIlQaCCXvAvsM",
        "name": "La Fromagerie",
        "address": {
            "street": "1222 King St, Alexandria, VA 22314",
            "lat": "38.805648",
            "lon": "-77.053429"
        },
        "locations": "Restaurant/Retail",
        "wines": [
            "Pétillant Naturel White",
            "Eluvium",
            "Young Wine"
        ]
    },
    {
        "id": "fwGH1DWGStCpUWPzImY7C",
        "name": "Little Red Fox",
        "address": {
            "street": "5035 Connecticut Ave. NW, Washington, DC 20008",
            "lat": "38.9558822",
            "lon": "-77.0699601"
        },
        "locations": "Restaurant/Retail",
        "wines": [
            "Pétillant Naturel White",
            "Five Forks"
        ]
    },
    {
        "id": "-pHo8ecdR0S08_BxJOkOR",
        "name": "Mom's Apple Pie Hill High",
        "address": {
            "street": "35246 Harry Byrd Hwy Ste. 100, Round Hill, VA 20141",
            "lat": "39.1277991",
            "lon": "-77.7873132"
        },
        "locations": "Retail",
        "wines": [
            "Petit Manseng",
            "Shenandoah Valley Cabernet Franc",
            "Young Wine"
        ]
    },
    {
        "id": "GZ3ZCbK7cap3oPQ_8Y-sd",
        "name": "Slope Cellars",
        "address": {
            "street": "436 7th Ave, Brooklyn, NY 11215",
            "lat": "40.6635697",
            "lon": "-73.9846443"
        },
        "locations": "Restaurant/Retail",
        "wines": [
            "Quaker Run Chardonnay",
            "Young Wine"
        ]
    },
    {
        "id": "QV-nSgu9wABGQMHqCpYdk",
        "name": "All Purpose Pizzeria - Waterfront",
        "address": {
            "street": "79 Potomac Ave SE, Washington, DC 20003",
            "lat": "38.871234",
            "lon": "-77.0072947"
        },
        "locations": "Restaurant",
        "wines": [
            "Rosé"
        ]
    },
    {
        "id": "SvR0_NQtWAKlhmE98aGIp",
        "name": "Arrowine",
        "address": {
            "street": "4508 Lee Hwy, Arlington, VA 22207",
            "lat": "38.8983733",
            "lon": "-77.1183586"
        },
        "locations": "Retail",
        "wines": [
            "Rosé",
            "Quaker Run Chardonnay",
            "Foothills"
        ]
    },
    {
        "id": "_IS2791sn83czXiE9V807",
        "name": "Barcelona Wine Store",
        "address": {
            "street": "280 Elizabeth Street, Atlanta, GA 30307",
            "lat": "33.7620933",
            "lon": "-84.3583112"
        },
        "locations": "Restaurant/Retail",
        "wines": [
            "Rosé"
        ]
    },
    {
        "id": "70RV-ajJIkcNRcUBp4AlC",
        "name": "Barrel Thief",
        "address": {
            "street": "5805 Patterson Ave, Richmond, VA 23226",
            "lat": "37.5794435",
            "lon": "-77.5149812"
        },
        "locations": "Restaurant/Retail",
        "wines": [
            "Rosé",
            "Pétillant Naturel White",
            "Foothills"
        ]
    },
    {
        "id": "9iKEwxQB5VKiBq0Z6x-K1",
        "name": "Crystal City Wine Shop",
        "address": {
            "street": "220 20th St. South, Arlington, VA 22202",
            "lat": "38.85597",
            "lon": "-77.0500304"
        },
        "locations": "Retail",
        "wines": [
            "Rosé",
            "Young Wine",
            "Pétillant Naturel Red",
            "Foothills",
            "Petit Manseng"
        ]
    },
    {
        "id": "YmSf26z7UG0s7zsjbGM88",
        "name": "Foods of All Nations",
        "address": {
            "street": "2121 Ivy Rd, Charlottesville, VA 22903",
            "lat": "38.0432978",
            "lon": "-78.5119067"
        },
        "locations": "Retail",
        "wines": [
            "Rosé",
            "Young Wine",
            "Eluvium",
            "Five Forks",
            "Petit Manseng"
        ]
    },
    {
        "id": "x0iy3ZVUuqMSywCpxhCOw",
        "name": "Friendly City Food Co-op",
        "address": {
            "street": "150 E Wolfe St, Harrisonburg, VA 22802",
            "lat": "38.4516609",
            "lon": "-78.8665291"
        },
        "locations": "Retail",
        "wines": [
            "Rosé",
            "Pétillant Naturel White",
            "Young Wine",
            "Foothills",
            "Petit Manseng"
        ]
    },
    {
        "id": "J-YCQ1SwFIS6I9bmfAdPq",
        "name": "Glen's Garden Market",
        "address": {
            "street": "2001 S St. NW, Washington, DC 20009",
            "lat": "38.9143274",
            "lon": "-77.0451575"
        },
        "locations": "Restaurant/Retail",
        "wines": [
            "Rosé",
            "Shenandoah Valley Cabernet Franc",
            "Pétillant Naturel White",
            "Young Wine",
            "Pétillant Naturel Red"
        ]
    },
    {
        "id": "LD2FmxB55jlkItnCg-dT9",
        "name": "Glen Manor Vineyards LLC",
        "address": {
            "street": "2244 Browntown Road, Front Royal, VA 22630",
            "lat": "38.840197",
            "lon": "-78.228299"
        },
        "locations": "Restaurant",
        "wines": [
            "Rosé"
        ]
    },
    {
        "id": "Atw6N-4GLAeM4g6tDLSBs",
        "name": "J Emerson",
        "address": {
            "street": "5716 Grove Ave, Richmond, VA 23226",
            "lat": "37.5733362",
            "lon": "-77.5180274"
        },
        "locations": "Retail",
        "wines": [
            "Rosé",
            "Foothills",
            "Five Forks"
        ]
    },
    {
        "id": "DY1jPjn-QW1HcFL6t9q4N",
        "name": "Kinship",
        "address": {
            "street": "1015 7th St NW, Washington, DC 20001",
            "lat": "38.9035135",
            "lon": "-77.0216296"
        },
        "locations": "Restaurant",
        "wines": [
            "Rosé"
        ]
    },
    {
        "id": "x2vebZhivqS1x7b5CI_hX",
        "name": "Market Street Wine Shop",
        "address": {
            "street": "311 East Market St, Charlottesville, VA 22902",
            "lat": "38.0310663",
            "lon": "-78.4789692"
        },
        "locations": "Retail",
        "wines": [
            "Rosé",
            "Pétillant Naturel Red",
            "RISE"
        ]
    },
    {
        "id": "9Gkkrm6N-vKMRJJc7PTtd",
        "name": "Montgomery Co. Dept. of Liquor Control",
        "address": {
            "street": "Division of Financial, Gaithersburg, MD 20878",
            "lat": "39.139876",
            "lon": "-77.1926495"
        },
        "locations": "Restaurant/Retail",
        "wines": [
            "Rosé"
        ]
    },
    {
        "id": "6sjnvjIM7fvnO51csN4dx",
        "name": "My Friends Bottle Shop",
        "address": {
            "street": "275 Memorial Drive SE, Atlanta, GA 30312",
            "lat": "33.7464701",
            "lon": "-84.3784358"
        },
        "locations": "Restaurant/Retail",
        "wines": [
            "Rosé"
        ]
    },
    {
        "id": "VXvZvOAQc9fhDA3y_zlzo",
        "name": "Red Hen-DC",
        "address": {
            "street": "1822 1st St. NW, Washington, DC 20001",
            "lat": "38.9149738",
            "lon": "-77.0124095"
        },
        "locations": "Restaurant",
        "wines": [
            "Rosé"
        ]
    },
    {
        "id": "HLbZN7eKO6oX3ZeNnLqty",
        "name": "Sorso Wine Boutique",
        "address": {
            "street": "1069 Bedford Ave, Brooklyn, NY 11216",
            "lat": "40.6874318",
            "lon": "-73.954402"
        },
        "locations": "Retail",
        "wines": [
            "Rosé",
            "RISE"
        ]
    },
    {
        "id": "0bx7lPKKgm1YiAmmmjgV0",
        "name": "Planet Wine",
        "address": {
            "street": "2000-2004 Mount Vernon Ave, Alexandria, VA 22301",
            "lat": "38.8239816",
            "lon": "-77.0585376"
        },
        "locations": "Retail",
        "wines": [
            "Rosé"
        ]
    },
    {
        "id": "OMXho7BM0-kLSZP_AWuID",
        "name": "Unwined Bradlee Shopping Center",
        "address": {
            "street": "3690-J King St, Alexandria, VA 22302",
            "lat": "38.8296628",
            "lon": "-77.0921948"
        },
        "locations": "Retail",
        "wines": [
            "Rosé"
        ]
    },
    {
        "id": "g8J0Tl3AyXCJAk-y6LSaZ",
        "name": "Unwined Belle View",
        "address": {
            "street": "1600 Belle View Blvd., Alexandria, VA 22307",
            "lat": "38.7761672",
            "lon": "-77.0597746"
        },
        "locations": "Retail",
        "wines": [
            "Rosé",
            "Shenandoah Valley Cabernet Franc"
        ]
    },
    {
        "id": "JzkKQRSrOarHyH4w54-JJ",
        "name": "Whole Foods - Charlottesville",
        "address": {
            "street": "1797 Hydraulic Road, Charlottesville, VA 22901",
            "lat": "38.059773",
            "lon": "-78.4891351"
        },
        "locations": "Restaurant/Retail",
        "wines": [
            "Rosé",
            "Foothills"
        ]
    },
    {
        "id": "FKFbv2v0kQOmc756gFuVd",
        "name": "Vyne Yard",
        "address": {
            "street": "594 Rogers Ave, Brooklyn, NY 11225",
            "lat": "40.6571942",
            "lon": "-73.9534567"
        },
        "locations": "Retail",
        "wines": [
            "Rosé"
        ]
    },
    {
        "id": "gdeout9qb_vkPgnD3zP3J",
        "name": "Whole Foods - Old Town",
        "address": {
            "street": "1700 Duke Street, Alexandria, VA 22314",
            "lat": "38.8041416",
            "lon": "-77.0600615"
        },
        "locations": "Restaurant/Retail",
        "wines": [
            "Rosé",
            "Foothills"
        ]
    },
    {
        "id": "vt1U506BOGli3Qaps9YfS",
        "name": "Whole Foods - Florida Ave",
        "address": {
            "street": "FAV - BU# 10651, Washington, DC 20001",
            "lat": "38.912068",
            "lon": "-77.0190228"
        },
        "locations": "Restaurant/Retail",
        "wines": [
            "Rosé",
            "Five Forks"
        ]
    },
    {
        "id": "G-DOborgCC7de_c3qF0DE",
        "name": "Whole Foods - South Capitol Hill",
        "address": {
            "street": "101 H St. SE, Washington, DC 20003",
            "lat": "38.8802819",
            "lon": "-77.005121"
        },
        "locations": "Restaurant/Retail",
        "wines": [
            "Rosé"
        ]
    },
    {
        "id": "xevHcL6U2v3kfz7khVisw",
        "name": "Primland Resort",
        "address": {
            "street": "2000 Busted Rock Road, Meadows of Dan, VA 24120",
            "lat": "36.6617827",
            "lon": "-80.4318697"
        },
        "locations": "Restaurant",
        "wines": [
            "Shenandoah Valley Cabernet Franc"
        ]
    },
    {
        "id": "IMBkMUQNwGo5OoqDG_Rtv",
        "name": "Green Room, The",
        "address": {
            "street": "130 W Beverly St, Staunton, VA 24401",
            "lat": "38.15216",
            "lon": "-79.1136552"
        },
        "locations": "Restaurant",
        "wines": [
            "Young Wine"
        ]
    },
    {
        "id": "mLbqa1eYcVGJ73m6H60Tj",
        "name": "Rosemont of Virginia (Farm Winery)",
        "address": {
            "street": "1050 Blackridge Rd., La Crosse, VA 23950",
            "lat": "36.5883045",
            "lon": "-78.0661485"
        },
        "locations": "Restaurant",
        "wines": [
            "Young Wine"
        ]
    },
    {
        "id": "WLPN_VK-fDdMU_piheMij",
        "name": "Oyster Oyster",
        "address": {
            "street": "1440 8th Street NW, Washington, DC 20001",
            "lat": "38.9092538",
            "lon": "-77.0231184"
        },
        "locations": "Restaurant",
        "wines": [
            "Young Wine"
        ]
    },
    {
        "id": "PQd5L4Wt2pJIJzxF6nxH7",
        "name": "Shack, The",
        "address": {
            "street": "105 S. Coalter St., Staunton, VA 24401",
            "lat": "38.148151",
            "lon": "-79.0681357"
        },
        "locations": "Restaurant",
        "wines": [
            "Young Wine",
            "Shenandoah Valley Cabernet Franc"
        ]
    },
    {
        "id": "VKGJA2MTfemK6qd-M83PP",
        "name": "Vanderbilt Wine Merchants",
        "address": {
            "street": "573 Vanderbilt Ave, Broooklyn, NY 11238",
            "lat": "40.6805749",
            "lon": "-73.9674951"
        },
        "locations": "Restaurant/Retail",
        "wines": [
            "Young Wine",
            "Eluvium"
        ]
    },
    {
        "id": "Joj5nIa20z-VbCL7szakp",
        "name": "Wine Guild",
        "address": {
            "street": "221 Carlton Rd, Suite 1, Charlottesville, VA 22902",
            "lat": "38.0236619",
            "lon": "-78.4696887"
        },
        "locations": "Retail",
        "wines": [
            "Young Wine"
        ]
    },
    {
        "id": "COdvna7oM2W6kSP5VpFQ8",
        "name": "Wine Warehouse",
        "address": {
            "street": "1804 Hydraulic Rd, Charlottesville, VA 22902",
            "lat": "38.0607943",
            "lon": "-78.4914214"
        },
        "locations": "Retail",
        "wines": [
            "Young Wine",
            "Foothills",
            "Shenandoah Valley Cabernet Franc",
            "RISE"
        ]
    },
    {
        "id": "hUVdMV-BWMj-2IxQpuV-P",
        "name": "Wool Factory, The",
        "address": {
            "street": "1837 Broadway Street, Charlottesville, VA 22902",
            "lat": "38.0195964",
            "lon": "-78.4553634"
        },
        "locations": "Restaurant/Retail",
        "wines": [
            "Young Wine",
            "Pétillant Naturel White",
            "Foothills"
        ]
    },
    {
        "id": "F4dS7ji3-ha0nsDmIOQ-q",
        "name": "2941 Restaurant",
        "address": {
            "street": "2941 Fairview Park Dr, Falls Church, VA 22042",
            "lat": "38.8689164",
            "lon": "-77.2148275"
        },
        "locations": "Restaurant",
        "wines": [
            "Shenandoah Valley Cabernet Franc",
            "Foothills"
        ]
    },
    {
        "id": "QlE9t2okY6c-UiIFPEYp0",
        "name": "Amber Ox Kitchen & Brewery",
        "address": {
            "street": "521 Prince George St., Williamsburg, VA 23185",
            "lat": "37.272864",
            "lon": "-76.708414"
        },
        "locations": "Restaurant",
        "wines": [
            "Foothills",
            "Five Forks"
        ]
    },
    {
        "id": "3L255oDu3h8V0KpOLTDEz",
        "name": "Arrowine",
        "address": {
            "street": "4508 Lee Hwy, Arlington, VA 22207",
            "lat": "38.8983733",
            "lon": "-77.1183586"
        },
        "locations": "Retail",
        "wines": [
            "Shenandoah Valley Cabernet Franc"
        ]
    },
    {
        "id": "urgnzpRmsD_3K7k7wzjRr",
        "name": "Astor Wines & Spirits",
        "address": {
            "street": "399 Lafayette St, New York, NY 10003",
            "lat": "40.7279823",
            "lon": "-73.9926938"
        },
        "locations": "Retail",
        "wines": [
            "Chardonnay",
            "Shenandoah Valley Cabernet Franc"
        ]
    },
    {
        "id": "WhizG2mWxnaI4bRRBL3AN",
        "name": "Barrel Thief",
        "address": {
            "street": "5805 Patterson Ave, Richmond, VA 23226",
            "lat": "37.5794435",
            "lon": "-77.5149812"
        },
        "locations": "Restaurant/Retail",
        "wines": [
            "Rosé"
        ]
    },
    {
        "id": "2wywGEo8mLES73Fm51_Ox",
        "name": "Caboose",
        "address": {
            "street": "108 S. Railroad Ave., Ashland, VA 23005",
            "lat": "37.758286",
            "lon": "-77.4816338"
        },
        "locations": "Restaurant/Retail",
        "wines": [
            "Rosé",
            "Foothills"
        ]
    },
    {
        "id": "dTjNI_3p2uftzPKkZPpl2",
        "name": "Chat's Liquor",
        "address": {
            "street": "503 8th St SE, Washington, DC 20003",
            "lat": "38.8825132",
            "lon": "-76.9952785"
        },
        "locations": "Retail",
        "wines": [
            "Young Wine"
        ]
    },
    {
        "id": "46NqndQXqXCnpBCZnsMyO",
        "name": "Clay Restaurant",
        "address": {
            "street": "553 Manhattan Ave , Manhattan, NY 10027",
            "lat": "40.809486",
            "lon": "-73.9538229"
        },
        "locations": "Restaurant",
        "wines": [
            "Rosé"
        ]
    },
    {
        "id": "9yCHeIMaNtid5sRSQW8j6",
        "name": "Crystal City Wine Shop",
        "address": {
            "street": "220 20th St. South, Arlington, VA 22202",
            "lat": "38.85597",
            "lon": "-77.0500304"
        },
        "locations": "Retail",
        "wines": [
            "Rosé"
        ]
    },
    {
        "id": "SU9lP0c5wmZAgGN6X8_Jz",
        "name": "Department of Beer & Wine",
        "address": {
            "street": "2724 Richmond Hwy, Alexandria, VA 22301",
            "lat": "38.8306444",
            "lon": "-77.0511825"
        },
        "locations": "Retail",
        "wines": [
            "Rosé",
            "Young Wine"
        ]
    },
    {
        "id": "UODfFysQbs_KRdCPTDvJL",
        "name": "Field & Main",
        "address": {
            "street": "8369 W. Main St., Marshall, VA 20115",
            "lat": "38.8647631",
            "lon": "-77.8574303"
        },
        "locations": "Restaurant/Retail",
        "wines": [
            "F & M Red",
            "Rosé",
            "Red Vine"
        ]
    },
    {
        "id": "TcDwZXJsaVdu_jvQEnSuP",
        "name": "Dominion Wine and Beer",
        "address": {
            "street": "107 Rowell Ct., Falls Church, VA 22046",
            "lat": "38.8897048",
            "lon": "-77.183834"
        },
        "locations": "Restaurant/Retail",
        "wines": [
            "Rosé",
            "Foothills"
        ]
    },
    {
        "id": "rGCEzBQ55YiBqfUrt0AVn",
        "name": "Founding Farmers - Reston",
        "address": {
            "street": "1904 Reston Metro Plaza, Suite 100, Reston, VA 20190",
            "lat": "38.9488917",
            "lon": "-77.3383807"
        },
        "locations": "Restaurant",
        "wines": [
            "Rosé"
        ]
    },
    {
        "id": "wR6u3Q-twg-En9DPhWpW9",
        "name": "Foods of All Nations",
        "address": {
            "street": "2121 Ivy Rd, Charlottesville, VA 22903",
            "lat": "38.0432978",
            "lon": "-78.5119067"
        },
        "locations": "Retail",
        "wines": [
            "Shenandoah Valley Cabernet Franc",
            "Rosé",
            "Eluvium"
        ]
    },
    {
        "id": "Xst2cTXvmj773S6QAXNr7",
        "name": "Founding Farmers - Tyson's Corner",
        "address": {
            "street": "1800 Tyson's Blvd., McLean, VA 22102",
            "lat": "38.9223637",
            "lon": "-77.2224625"
        },
        "locations": "Restaurant",
        "wines": [
            "Rosé"
        ]
    },
    {
        "id": "lkPJmR063m8gzHzycwGsE",
        "name": "Friendly City Food Co-op",
        "address": {
            "street": "150 E Wolfe St, Harrisonburg, VA 22802",
            "lat": "38.4516609",
            "lon": "-78.8665291"
        },
        "locations": "Retail",
        "wines": [
            "Rosé",
            "Pétillant Naturel White",
            "Foothills"
        ]
    },
    {
        "id": "emvSYU6YIs4fFi9bu8idz",
        "name": "Glen's Garden Market",
        "address": {
            "street": "2001 S St. NW, Washington, DC 20009",
            "lat": "38.9143274",
            "lon": "-77.0451575"
        },
        "locations": "Restaurant/Retail",
        "wines": [
            "Rosé",
            "Young Wine"
        ]
    },
    {
        "id": "zoIlL3BM7pnD6UGnGAwg1",
        "name": "Henry's",
        "address": {
            "street": "69 Central Ave., Brooklyn, NY 11206",
            "lat": "40.701166",
            "lon": "-73.9302185"
        },
        "locations": "Retail",
        "wines": [
            "Young Wine"
        ]
    },
    {
        "id": "GEGALKuol1mERfDiTUteD",
        "name": "Irving Bottle",
        "address": {
            "street": "157 Irving Ave, Brooklyn, NY 10013",
            "lat": "40.7027192",
            "lon": "-73.920458"
        },
        "locations": "Retail",
        "wines": [
            "Young Wine"
        ]
    },
    {
        "id": "_sQfWd9yl9iCrxOR6-wG-",
        "name": "La Fromagerie",
        "address": {
            "street": "1222 King St, Alexandria, VA 22314",
            "lat": "38.805648",
            "lon": "-77.053429"
        },
        "locations": "Restaurant/Retail",
        "wines": [
            "Young Wine"
        ]
    },
    {
        "id": "noKvGtozOxOPYZcJa5Ya4",
        "name": "Lafayette Inn",
        "address": {
            "street": "146 Main St, Stanardsville, VA 22973",
            "lat": "38.2973151",
            "lon": "-78.4385435"
        },
        "locations": "Restaurant",
        "wines": [
            "Five Forks"
        ]
    },
    {
        "id": "JOdZTzMgfaGwx5q9l-iVM",
        "name": "Newtown Baking",
        "address": {
            "street": "960 W Beverlely Street, Staunton, VA 24400",
            "lat": "38.1498989",
            "lon": "-79.0827541"
        },
        "locations": "Retail",
        "wines": [
            "Five Forks",
            "Foothills"
        ]
    },
    {
        "id": "4CoqwdD7f0bi-6dcZsnGH",
        "name": "Locke Store",
        "address": {
            "street": "2049 Millwood Rd., Millwood, VA 22646",
            "lat": "39.0695734",
            "lon": "-78.0379555"
        },
        "locations": "Retail",
        "wines": [
            "Rosé",
            "Quaker Run Chardonnay",
            "Petit Manseng"
        ]
    },
    {
        "id": "Zsh8P7CyrCT6v0gPXyHxt",
        "name": "Norm's Beer & Wine",
        "address": {
            "street": "136 Branch Rd SE, Vienna, VA 22180",
            "lat": "38.9062317",
            "lon": "-77.257151"
        },
        "locations": "Retail",
        "wines": [
            "Five Forks",
            "Shenandoah Valley Cabernet Franc",
            "Foothills"
        ]
    },
    {
        "id": "fQ1sWPDSorcoEhiX364DX",
        "name": "Organic Butcher of McLean",
        "address": {
            "street": "6712 Old Dominion Drive, McLean, VA 22101",
            "lat": "38.9335412",
            "lon": "-77.1758584"
        },
        "locations": "Retail",
        "wines": [
            "Rosé",
            "Young Wine",
            "Foothills"
        ]
    },
    {
        "id": "Kw0blDE-RN1wNt77IHG4z",
        "name": "Pendulum Fine Meats",
        "address": {
            "street": "820 Shirley Avenue, Norfolk, VA 23517",
            "lat": "36.8683635",
            "lon": "-76.2987524"
        },
        "locations": "Retail",
        "wines": [
            "Young Wine",
            "Foothills"
        ]
    },
    {
        "id": "OW6BtL15NEH8Ej9Xmi41L",
        "name": "Rio Hill Wine & Beer",
        "address": {
            "street": "1908 Rio Hill Center, Charlottesville, VA 22901",
            "lat": "38.0877905",
            "lon": "-78.4749043"
        },
        "locations": "Retail",
        "wines": [
            "Rosé",
            "Shenandoah Valley Cabernet Franc",
            "Foothills"
        ]
    },
    {
        "id": "lfffEFsmlVDc2urZT3TcI",
        "name": "Prosperity Kitchen & Pantry",
        "address": {
            "street": "532 Virginia Beach Blvd Ste B, Virginia Beach, VA 23451",
            "lat": "36.8444829",
            "lon": "-75.9806406"
        },
        "locations": "Restaurant",
        "wines": [
            "Foothills"
        ]
    },
    {
        "id": "A_ZIlSuMPpu-bI_mlMn0v",
        "name": "River and Rail",
        "address": {
            "street": "2201 Crystal Spring Ave. SW, Roanoke, VA 24014",
            "lat": "37.2487077",
            "lon": "-79.9468159"
        },
        "locations": "Restaurant",
        "wines": [
            "Foothills"
        ]
    },
    {
        "id": "f5Ydz-06cypXiz-MkEeZf",
        "name": "Taste - Headquarters",
        "address": {
            "street": "1391 Air Rail Avenue, Virginia Beach, VA 23455",
            "lat": "36.8929573",
            "lon": "-76.1918905"
        },
        "locations": "Restaurant/Retail",
        "wines": [
            "Foothills",
            "Rosé",
            "Eluvium"
        ]
    },
    {
        "id": "r7tt5GY_eBhfMBQ42quW9",
        "name": "Swirl & Sip",
        "address": {
            "street": "2905 District Ave. Ste. 112, Fairfax, VA 22031",
            "lat": "38.8733231",
            "lon": "-77.229401"
        },
        "locations": "Retail",
        "wines": [
            "Rosé"
        ]
    },
    {
        "id": "WyxG1GOJSs4abzVwAp570",
        "name": "Thornton River Grille",
        "address": {
            "street": "Thornton River Grille, Sperryville, VA 22740",
            "lat": "38.6573169",
            "lon": "-78.2267817"
        },
        "locations": "Restaurant",
        "wines": [
            "Rosé"
        ]
    },
    {
        "id": "3Voi2F5tkSnwmK-GthCMu",
        "name": "Virginia Cheese Company",
        "address": {
            "street": "501 Botetourt Street, Norfolk, VA 23510",
            "lat": "36.8528816",
            "lon": "-76.2961736"
        },
        "locations": "Retail",
        "wines": [
            "Petit Manseng",
            "Rosé",
            "Five Forks"
        ]
    },
    {
        "id": "qtEfnIuVK4PkpdH27u80N",
        "name": "Westside Produce & Provisions",
        "address": {
            "street": "5015 Colley Ave., Norfolk, VA 23508",
            "lat": "36.8890972",
            "lon": "-76.2954949"
        },
        "locations": "Retail",
        "wines": [
            "Rosé",
            "Young Wine",
            "Five Forks",
            "Shenandoah Valley Cabernet Franc",
            "Foothills"
        ]
    },
    {
        "id": "pEM4H01RqPIPlAjV0Vell",
        "name": "Unwined Belle View",
        "address": {
            "street": "1600 Belle View Blvd., Alexandria, VA 22307",
            "lat": "38.7761672",
            "lon": "-77.0597746"
        },
        "locations": "Retail",
        "wines": [
            "Shenandoah Valley Cabernet Franc"
        ]
    },
    {
        "id": "glGyzNsh9Y3vyynQMbrgb",
        "name": "Whole Foods - Boro Tysons",
        "address": {
            "street": "1635 Boro Place, McLean, VA 22102",
            "lat": "38.9246164",
            "lon": "-77.2334974"
        },
        "locations": "Restaurant/Retail",
        "wines": [
            "Five Forks",
            "Rosé"
        ]
    },
    {
        "id": "SwNdOcj0SK5FyT7XOwIuV",
        "name": "Whole Foods - Arlington",
        "address": {
            "street": "2700 Wilson Blvd., Arlington, VA 22201",
            "lat": "38.8892254",
            "lon": "-77.0912401"
        },
        "locations": "Restaurant/Retail",
        "wines": [
            "Rosé"
        ]
    },
    {
        "id": "1_Df5l1VW25HeFPdLJtp3",
        "name": "Whole Foods - Old Town",
        "address": {
            "street": "1700 Duke Street, Alexandria, VA 22314",
            "lat": "38.8041416",
            "lon": "-77.0600615"
        },
        "locations": "Restaurant/Retail",
        "wines": [
            "Rosé",
            "Foothills"
        ]
    },
    {
        "id": "HignINe3FIM0gSvmp_-dr",
        "name": "Whole Foods - Short Pump",
        "address": {
            "street": "11173 West Broad St., Richmond, VA 23060",
            "lat": "37.6475665",
            "lon": "-77.5997292"
        },
        "locations": "Restaurant/Retail",
        "wines": [
            "Rosé"
        ]
    },
    {
        "id": "U1dJz6hRMaQ3lFP72Vpbd",
        "name": "Whole Foods - Tysons",
        "address": {
            "street": "7511 Leesburg Pike, Falls Church, VA 22043",
            "lat": "38.903442",
            "lon": "-77.2044823"
        },
        "locations": "Restaurant/Retail",
        "wines": [
            "Foothills"
        ]
    },
    {
        "id": "9edAWAgaZCOA_RtJFXysi",
        "name": "Whole Foods - West Broad",
        "address": {
            "street": "2024 W Broad Street, Richmond, VA 23220",
            "lat": "37.5581958",
            "lon": "-77.4612166"
        },
        "locations": "Restaurant/Retail",
        "wines": [
            "Rosé"
        ]
    },
    {
        "id": "jz7wxkGD_1eXdi-tiYtO7",
        "name": "Wine Warehouse",
        "address": {
            "street": "1804 Hydraulic Rd, Charlottesville, VA 22902",
            "lat": "38.0607943",
            "lon": "-78.4914214"
        },
        "locations": "Retail",
        "wines": [
            "Chardonnay",
            "Shenandoah Valley Cabernet Franc",
            "Young Wine"
        ]
    },
    {
        "id": "e4p4CDr1cOTNnZSyz7ECD",
        "name": "Wool Factory, The",
        "address": {
            "street": "1837 Broadway Street, Charlottesville, VA 22902",
            "lat": "38.0195964",
            "lon": "-78.4553634"
        },
        "locations": "Restaurant/Retail",
        "wines": [
            "Young Wine"
        ]
    },
    {
        "id": "rbz59skACwmFCSJDtILwb",
        "name": "Zynodoa",
        "address": {
            "street": "115 E Beverly St, Staunton, VA 24401",
            "lat": "38.149814",
            "lon": "-79.0709713"
        },
        "locations": "Restaurant",
        "wines": [
            "Petit Manseng",
            "Eluvium"
        ]
    },
    {
        "id": "SKLUTTUnR7yNpNdRZ2jWW",
        "name": "313 Franklin",
        "address": {
            "street": "313 Franklin Street, South Hill, VA 23970",
            "lat": "36.726272",
            "lon": "-78.1245498"
        },
        "locations": "Restaurant/Retail",
        "wines": [
            "Foothills"
        ]
    },
    {
        "id": "q0hJzu_VjK5jSVf0Sd87D",
        "name": "Alley Light",
        "address": {
            "street": "108 2nd St. SW, Charlottesville, VA 22902",
            "lat": "38.0305995",
            "lon": "-78.482276"
        },
        "locations": "Restaurant",
        "wines": [
            "Shenandoah Valley Cabernet Franc"
        ]
    },
    {
        "id": "uA1VpVgFb3VqQyTnJCaOS",
        "name": "Bottleworks",
        "address": {
            "street": "3078 Stony Point Rd., Richmond, VA 23235",
            "lat": "37.537796",
            "lon": "-77.5651916"
        },
        "locations": "Retail",
        "wines": [
            "Chardonnay",
            "Foothills"
        ]
    },
    {
        "id": "Ek4YbUXo3jVvvtTMfyNtq",
        "name": "Amber Ox Kitchen & Brewery",
        "address": {
            "street": "521 Prince George St., Williamsburg, VA 23185",
            "lat": "37.272864",
            "lon": "-76.708414"
        },
        "locations": "Restaurant",
        "wines": [
            "Foothills"
        ]
    },
    {
        "id": "KKpl2bWe5tmcUCugIriON",
        "name": "Calvert Woodley",
        "address": {
            "street": "4339 Connecticut Ave NW, Washington, DC 20008",
            "lat": "38.945234",
            "lon": "-77.063612"
        },
        "locations": "Retail",
        "wines": [
            "Chardonnay",
            "Eluvium"
        ]
    },
    {
        "id": "_WwqDvDqR4iST6EZlfLy6",
        "name": "Broad Branch Market",
        "address": {
            "street": "5608 Broad Branch Rd NW, Washington, DC 20015",
            "lat": "38.9655874",
            "lon": "-77.0687234"
        },
        "locations": "Retail",
        "wines": [
            "Chardonnay"
        ]
    },
    {
        "id": "kaFW9cqD5mNunRThLTrvu",
        "name": "Commune - Norfolk",
        "address": {
            "street": "759 Granby St., Norfolk, VA 23510",
            "lat": "36.8562717",
            "lon": "-76.2885787"
        },
        "locations": "Restaurant",
        "wines": [
            "Chardonnay",
            "Foothills",
            "Petit Manseng"
        ]
    },
    {
        "id": "1g4f69OjvDhnt3TiZvEf9",
        "name": "Cellar d'Or",
        "address": {
            "street": "136 E State St, Ithaca, NY 14850",
            "lat": "42.4397353",
            "lon": "-76.4977365"
        },
        "locations": "Restaurant/Retail",
        "wines": [
            "Rosé"
        ]
    },
    {
        "id": "ZeWHOQ8zbz8MX5FZ9wqDr",
        "name": "Crystal Palate",
        "address": {
            "street": "4500 Pretty Lake Avenue, Norfolk, VA 23518",
            "lat": "36.925493",
            "lon": "-76.1880817"
        },
        "locations": "Retail",
        "wines": [
            "Chardonnay"
        ]
    },
    {
        "id": "eWNtwk-jTfVf26ERqe_gp",
        "name": "Dandelion Wine",
        "address": {
            "street": "153 Franklin Street, Brooklyn, NY 11222",
            "lat": "40.731666",
            "lon": "-73.9580947"
        },
        "locations": "Restaurant/Retail",
        "wines": [
            "Five Forks"
        ]
    },
    {
        "id": "hNuuWzpPirIjWG5NRbcK0",
        "name": "Farmers & Distillers",
        "address": {
            "street": "600 Massachusetts Ave. NW, Washington, DC 20001",
            "lat": "38.9012307",
            "lon": "-77.0207401"
        },
        "locations": "Restaurant",
        "wines": [
            "Rosé"
        ]
    },
    {
        "id": "tPOtxapmsr2XT4rGCfDWO",
        "name": "Fat Canary",
        "address": {
            "street": "The Cheese Shop of VA, Inc., Williamsburg, VA 23185",
            "lat": "37.2706994",
            "lon": "-76.7061859"
        },
        "locations": "Restaurant",
        "wines": [
            "Foothills",
            "Shenandoah Valley Cabernet Franc"
        ]
    },
    {
        "id": "v2-S0tCzm9GKPWMtG3h9a",
        "name": "Farmers Fishers Bakers",
        "address": {
            "street": "3000 K Street NW, Washington, DC 20007",
            "lat": "38.9025537",
            "lon": "-77.0601033"
        },
        "locations": "Restaurant",
        "wines": [
            "Rosé"
        ]
    },
    {
        "id": "uvFzKb8Lpa5hUySfrloiA",
        "name": "Flight Wine Bar",
        "address": {
            "street": "777 6th Street NW, Washington, DC 20001",
            "lat": "38.89937",
            "lon": "-77.01959"
        },
        "locations": "Restaurant",
        "wines": [
            "Rosé"
        ]
    },
    {
        "id": "QD72abcv0XGol9JI9LUrD",
        "name": "Fort Lewis Lodge",
        "address": {
            "street": "603 Old Plantation Way, Millboro, VA 24460",
            "lat": "38.114054",
            "lon": "-79.6110139"
        },
        "locations": "Retail",
        "wines": [
            "Young Wine"
        ]
    },
    {
        "id": "Gf379el4fb2oSnrh58nMd",
        "name": "Founding Farmers - Reston",
        "address": {
            "street": "1904 Reston Metro Plaza, Suite 100, Reston, VA 20190",
            "lat": "38.9488917",
            "lon": "-77.3383807"
        },
        "locations": "Restaurant",
        "wines": [
            "Rosé"
        ]
    },
    {
        "id": "sfzRaOKLlQTrDmg_dR2hQ",
        "name": "Hot Cakes",
        "address": {
            "street": "Barracks Road Shopping Center, Charlottesville, VA 22903",
            "lat": "38.0528154",
            "lon": "-78.5012568"
        },
        "locations": "Restaurant/Retail",
        "wines": [
            "Foothills",
            "Pétillant Naturel White",
            "Young Wine"
        ]
    },
    {
        "id": "brYoBk3R41B8oGDMA9z-D",
        "name": "Friendly City Food Co-op",
        "address": {
            "street": "150 E Wolfe St, Harrisonburg, VA 22802",
            "lat": "38.4516609",
            "lon": "-78.8665291"
        },
        "locations": "Retail",
        "wines": [
            "Rosé",
            "Petit Manseng"
        ]
    },
    {
        "id": "iYP4f1hOeCrVP04q9jgpq",
        "name": "Inn at Little Washington",
        "address": {
            "street": "438 Main St., Washington, VA 22747",
            "lat": "38.7141037",
            "lon": "-78.1596423"
        },
        "locations": "Restaurant",
        "wines": [
            "Pétillant Naturel Red"
        ]
    },
    {
        "id": "wii-ZmTbrOPTPxvwAMQdc",
        "name": "J Emerson",
        "address": {
            "street": "5716 Grove Ave, Richmond, VA 23226",
            "lat": "37.5733362",
            "lon": "-77.5180274"
        },
        "locations": "Retail",
        "wines": [
            "Young Wine"
        ]
    },
    {
        "id": "zPCHjnkc6o8LQOvTFCKiy",
        "name": "Locke Store",
        "address": {
            "street": "2049 Millwood Rd., Millwood, VA 22646",
            "lat": "39.0695734",
            "lon": "-78.0379555"
        },
        "locations": "Retail",
        "wines": [
            "Rosé"
        ]
    },
    {
        "id": "rw-17eORv03FsILHJHmHI",
        "name": "Market Street Wine Shop",
        "address": {
            "street": "311 East Market St, Charlottesville, VA 22902",
            "lat": "38.0310698",
            "lon": "-78.4789677"
        },
        "locations": "Retail",
        "wines": [
            "Pétillant Naturel Red",
            "Rosé",
            "Young Wine"
        ]
    },
    {
        "id": "bYas6kFoq5fJ0YT2Whm54",
        "name": "Mr. Bill's Wine Cellar",
        "address": {
            "street": "2825 B Brambleton Ave., Roanoke, VA 24015",
            "lat": "37.2438511",
            "lon": "-79.9909487"
        },
        "locations": "Retail",
        "wines": [
            "Young Wine"
        ]
    },
    {
        "id": "CHyP6m3cvlg7KQtEuSGHP",
        "name": "Mona Lisa",
        "address": {
            "street": "921 Preston Ave, Charlottesville, VA 22903",
            "lat": "38.038434",
            "lon": "-78.489901"
        },
        "locations": "Retail",
        "wines": [
            "Rosé",
            "Young Wine",
            "Five Forks"
        ]
    },
    {
        "id": "KqyDv0EZahlsPyS8z7LJy",
        "name": "Newtown Baking",
        "address": {
            "street": "960 W Beverlely Street, Staunton, VA 24400",
            "lat": "38.1498989",
            "lon": "-79.0827541"
        },
        "locations": "Retail",
        "wines": [
            "Foothills"
        ]
    },
    {
        "id": "uKyLrd4_0AYp8DJePNiE8",
        "name": "Reveler's Hour",
        "address": {
            "street": "1775 Columbia Road NW, Washington, DC 20009",
            "lat": "38.9235097",
            "lon": "-77.0420765"
        },
        "locations": "Restaurant",
        "wines": [
            "Pétillant Naturel White",
            "Petit Manseng"
        ]
    },
    {
        "id": "jPTZI44zOrUeOxZsCGY7I",
        "name": "RichWine",
        "address": {
            "street": "2601 Maury Street, Richmond, VA 23224",
            "lat": "37.5095",
            "lon": "-77.4565725"
        },
        "locations": "Retail",
        "wines": [
            "Foothills",
            "Pétillant Naturel Red",
            "Rosé"
        ]
    },
    {
        "id": "waio1pnzkUVtcOv8ODe0o",
        "name": "Olmstead",
        "address": {
            "street": "659 Vanderbilt Avenue, Brooklyn, NY 11238",
            "lat": "40.677064",
            "lon": "-73.9687578"
        },
        "locations": "Restaurant/Retail",
        "wines": [
            "Petit Manseng"
        ]
    },
    {
        "id": "efQg5Y7QLBScF07Ef1vXu",
        "name": "Saison",
        "address": {
            "street": "23 W Marshall St. Suite A, Richmond, VA 23220",
            "lat": "37.546819",
            "lon": "-77.4420934"
        },
        "locations": "Restaurant",
        "wines": [
            "Pétillant Naturel Red"
        ]
    },
    {
        "id": "JxEbXoKMY1XHnUhZen6w4",
        "name": "Rio Hill Wine & Beer",
        "address": {
            "street": "1908 Rio Hill Center, Charlottesville, VA 22901",
            "lat": "38.0877905",
            "lon": "-78.4749043"
        },
        "locations": "Retail",
        "wines": [
            "Rosé",
            "Chardonnay"
        ]
    },
    {
        "id": "sdzezl1xJZaXKjOSWttDj",
        "name": "Southbound",
        "address": {
            "street": "3036 Stony Point Rd., Richmond, VA 23235",
            "lat": "37.537796",
            "lon": "-77.5651916"
        },
        "locations": "Restaurant",
        "wines": [
            "Chardonnay",
            "Five Forks"
        ]
    },
    {
        "id": "PsF5iV-qcJYRoSVy4iUmK",
        "name": "Salt Line, The",
        "address": {
            "street": "79 Potomac Ave SE, Washington, DC 20003",
            "lat": "38.871234",
            "lon": "-77.0072947"
        },
        "locations": "Restaurant",
        "wines": [
            "Petit Manseng"
        ]
    },
    {
        "id": "MZIE0g_X8ojtZ34EgCjkg",
        "name": "St. Anselm",
        "address": {
            "street": "1250 5th St. NE, Washington, DC 20002",
            "lat": "38.9077745",
            "lon": "-76.9990918"
        },
        "locations": "Restaurant",
        "wines": [
            "Shenandoah Valley Cabernet Franc"
        ]
    },
    {
        "id": "iX4f6jiQbm62tFRmIj9ow",
        "name": "The Roost",
        "address": {
            "street": "1401 Pennsylvania Ave SE, Washington, DC 20003",
            "lat": "38.8798036",
            "lon": "-76.9852327"
        },
        "locations": "Restaurant",
        "wines": [
            "Young Wine"
        ]
    },
    {
        "id": "lArf63alfzWvD6GgLbTVl",
        "name": "Tipsy",
        "address": {
            "street": "584 Myrtle Ave, Brooklyn, NY 11205",
            "lat": "40.6938285",
            "lon": "-73.9612496"
        },
        "locations": "Restaurant/Retail",
        "wines": [
            "Quaker Run Chardonnay"
        ]
    },
    {
        "id": "tePt8JvRP8NYe_Tlr3UYP",
        "name": "Toast - Norfolk",
        "address": {
            "street": "2406 Colonial Ave, Norfolk, VA 23517",
            "lat": "36.8717646",
            "lon": "-76.2903709"
        },
        "locations": "Restaurant",
        "wines": [
            "Pétillant Naturel White"
        ]
    },
    {
        "id": "O06zxrl8P1qcNArbuZ_dk",
        "name": "Vino Market",
        "address": {
            "street": "3730 Winterfield Rd., Midlothian, VA 23113",
            "lat": "37.5535346",
            "lon": "-77.6685934"
        },
        "locations": "Retail",
        "wines": [
            "Five Forks",
            "Rosé",
            "Foothills"
        ]
    },
    {
        "id": "ix3ZNRDUpYm7i3lSlToFw",
        "name": "Vanderbilt Wine Merchants",
        "address": {
            "street": "573 Vanderbilt Ave, New York, NY 11238",
            "lat": "40.6805749",
            "lon": "-73.9674951"
        },
        "locations": "Restaurant/Retail",
        "wines": [
            "Eluvium"
        ]
    },
    {
        "id": "6ZiFuAJE8XsuwAtQPbXbo",
        "name": "Virginia Cheese Company",
        "address": {
            "street": "501 Botetourt Street, Norfolk, VA 23510",
            "lat": "36.8528816",
            "lon": "-76.2961736"
        },
        "locations": "Retail",
        "wines": [
            "Rosé",
            "Petit Manseng"
        ]
    },
    {
        "id": "Fbb2yVPWPdyEMkcNwu87t",
        "name": "Westside Produce & Provisions",
        "address": {
            "street": "5015 Colley Ave., Norfolk, VA 23508",
            "lat": "36.8890972",
            "lon": "-76.2954949"
        },
        "locations": "Retail",
        "wines": [
            "Pétillant Naturel White",
            "Petit Manseng"
        ]
    },
    {
        "id": "sIu0vh3qMgdqJcAeXaF-j",
        "name": "Whole Foods - Ashburn",
        "address": {
            "street": "19800 Belmont Chase Dr, Ashburn, VA 20147",
            "lat": "39.0684834",
            "lon": "-77.4843963"
        },
        "locations": "Restaurant/Retail",
        "wines": [
            "Foothills",
            "Rosé"
        ]
    },
    {
        "id": "iby2CFGW-Uc-E8WXxv9HC",
        "name": "White Moose Inn",
        "address": {
            "street": "291 Main St., Washington, VA 22747",
            "lat": "38.7123391",
            "lon": "-78.16034"
        },
        "locations": "Restaurant",
        "wines": [
            "Eluvium",
            "Foothills"
        ]
    },
    {
        "id": "uxn03SfTPkA72K5bVvIvT",
        "name": "Whole Foods - Charlottesville",
        "address": {
            "street": "1797 Hydraulic Road, Charlottesville, VA 22901",
            "lat": "38.059773",
            "lon": "-78.4891351"
        },
        "locations": "Restaurant/Retail",
        "wines": [
            "Rosé",
            "Foothills"
        ]
    },
    {
        "id": "HnaJu8HKTAV_KPt9uM_df",
        "name": "Whole Foods - Florida Ave",
        "address": {
            "street": "FAV - BU# 10651, Washington, DC 20001",
            "lat": "38.9071923",
            "lon": "-77.0368707"
        },
        "locations": "Restaurant/Retail",
        "wines": [
            "Rosé"
        ]
    },
    {
        "id": "jGMKgOXuZIachqq6iwb2e",
        "name": "Whole Foods - H Street",
        "address": {
            "street": "600-A H Street, NE, Washington, DC 20002",
            "lat": "38.9005142",
            "lon": "-76.9976267"
        },
        "locations": "Restaurant/Retail",
        "wines": [
            "Five Forks"
        ]
    },
    {
        "id": "lp-1Ey4F4eVS0FMQwOZBQ",
        "name": "Whole Foods - Springfield",
        "address": {
            "street": "8402 Old Keene Mill Road, Springfield, VA 22152",
            "lat": "38.7796348",
            "lon": "-77.2343247"
        },
        "locations": "Restaurant/Retail",
        "wines": [
            "Rosé"
        ]
    },
    {
        "id": "MlxN2vhyPniB4Ma-XhmrB",
        "name": "Whole Foods - Tenley",
        "address": {
            "street": "4530 40th Street NW, Washington, DC 20016",
            "lat": "38.9490789",
            "lon": "-77.0792007"
        },
        "locations": "Restaurant/Retail",
        "wines": [
            "Rosé"
        ]
    },
    {
        "id": "mk07P4cTsLKsC1VSk--0c",
        "name": "Whole Foods - Vienna",
        "address": {
            "street": "143 Maple Ave East, Vienna, VA 22180",
            "lat": "38.9022469",
            "lon": "-77.2626957"
        },
        "locations": "Restaurant/Retail",
        "wines": [
            "Rosé"
        ]
    },
    {
        "id": "mAAm_DzqUBwIYcuLlgmAU",
        "name": "Wine House, The",
        "address": {
            "street": "3950 University Dr Ste 212, Fairfax, VA 22030",
            "lat": "38.8471237",
            "lon": "-77.3050684"
        },
        "locations": "Retail",
        "wines": [
            "Pétillant Naturel White"
        ]
    },
    {
        "id": "6Rvb7odbsc_4BsRrpAh_J",
        "name": "Wine Seller - Williamsburg",
        "address": {
            "street": "4680 Monticello Ave Suite 15, Williamsburg, VA 23188",
            "lat": "37.2719211",
            "lon": "-76.7595155"
        },
        "locations": "Retail",
        "wines": [
            "Foothills"
        ]
    },
    {
        "id": "1wtXs1My52GqnVO5SDuNF",
        "name": "Zynodoa",
        "address": {
            "street": "115 E Beverly St, Staunton, VA 24401",
            "lat": "38.149814",
            "lon": "-79.0709713"
        },
        "locations": "Restaurant",
        "wines": [
            "Petit Manseng"
        ]
    },
    {
        "id": "LJxBeFboQUBDQFQSLfr_u",
        "name": "2941 Restaurant",
        "address": {
            "street": "2941 Fairview Park Dr, Falls Church, VA 22042",
            "lat": "38.8689164",
            "lon": "-77.2148275"
        },
        "locations": "Restaurant",
        "wines": [
            "Shenandoah Valley Cabernet Franc"
        ]
    },
    {
        "id": "duScWPTc2zZEFu7LpntLP",
        "name": "Artisan Wine Co & Greene Grape",
        "address": {
            "street": "765 Fulton St, Brooklyn, NY 11217",
            "lat": "40.6863309",
            "lon": "-73.9740152"
        },
        "locations": "Retail",
        "wines": [
            "Rosé"
        ]
    },
    {
        "id": "44f347UhVMeY1S7Vaw2vC",
        "name": "Balducci's - Alexandria",
        "address": {
            "street": "600 Franklin St, Alexandria, VA 22314",
            "lat": "38.7978102",
            "lon": "-77.0479011"
        },
        "locations": "Retail",
        "wines": [
            "Rosé",
            "RISE"
        ]
    },
    {
        "id": "k0gGaBrzfOVxHIUPgu9sg",
        "name": "Batch 13",
        "address": {
            "street": "1724 14th St. NW, Washington, DC 20009",
            "lat": "38.9134494",
            "lon": "-77.0321808"
        },
        "locations": "Retail",
        "wines": [
            "Five Forks",
            "Foothills"
        ]
    },
    {
        "id": "8DFnY-mjXJ2ZzAz6Rx6xt",
        "name": "Bassin's MacArthur Beverages",
        "address": {
            "street": "4877 MacArthur Blvd NW, Washington, DC 20007",
            "lat": "38.9178223",
            "lon": "-77.0963311"
        },
        "locations": "Retail",
        "wines": [
            "Foothills"
        ]
    },
    {
        "id": "CicMzmQthlx59Tl2PxVui",
        "name": "Beau Thai - Mt. Pleasant",
        "address": {
            "street": "3162 Mt. Pleasant St. NW, Washington, DC 20010",
            "lat": "38.9302882",
            "lon": "-77.0382422"
        },
        "locations": "Restaurant",
        "wines": [
            "Foothills"
        ]
    },
    {
        "id": "CF0kidukJjR-Bk6xkQGjK",
        "name": "Bed Vyne",
        "address": {
            "street": "385 Tompkins Ave, Brooklyn, NY 11216",
            "lat": "40.6846262",
            "lon": "-73.9440354"
        },
        "locations": "Retail",
        "wines": [
            "Foothills"
        ]
    },
    {
        "id": "5BUXfKaXzht0XAeTkgoFU",
        "name": "Brut Wine Bar (Grape + Bean)",
        "address": {
            "street": "118 S Royal St #1, Alexandria, VA 22314",
            "lat": "38.8039433",
            "lon": "-77.0435496"
        },
        "locations": "Restaurant",
        "wines": [
            "Eluvium"
        ]
    },
    {
        "id": "R-xkyahg6-JdgOa9rRAO9",
        "name": "Clementine Cafe",
        "address": {
            "street": "153 S Main St, Harrisonburg, VA 22801",
            "lat": "38.4478062",
            "lon": "-78.8692932"
        },
        "locations": "Restaurant",
        "wines": [
            "Petit Manseng",
            "Chardonnay"
        ]
    },
    {
        "id": "mu_hr6WLQOTUG3FKJu2Mq",
        "name": "Clarity",
        "address": {
            "street": "442 Maple Avenue E, Vienna, VA 22180",
            "lat": "38.9093714",
            "lon": "-77.256641"
        },
        "locations": "Restaurant",
        "wines": [
            "Shenandoah Valley Cabernet Franc"
        ]
    },
    {
        "id": "3xny2wsJKdwtz8ZkI-mzI",
        "name": "Columbia Room",
        "address": {
            "street": "1224 9th St. NW, Washington, DC 20009",
            "lat": "38.9063932",
            "lon": "-77.0243474"
        },
        "locations": "Restaurant",
        "wines": [
            "Pétillant Naturel White"
        ]
    },
    {
        "id": "KoXS1IkpKBIsBtuEeOTZG",
        "name": "Common House No 2 (RVA)",
        "address": {
            "street": "303 West Broad Street, Richmond, VA 23220",
            "lat": "37.5470582",
            "lon": "-77.4449701"
        },
        "locations": "Restaurant",
        "wines": [
            "Quaker Run Chardonnay"
        ]
    },
    {
        "id": "3w-6rCxN953g-YsHU3DeP",
        "name": "Ellwood Thompson",
        "address": {
            "street": "4 N Thompson St, Richmond, VA 23221",
            "lat": "37.5574421",
            "lon": "-77.4886194"
        },
        "locations": "Retail",
        "wines": [
            "Quaker Run Chardonnay",
            "Eluvium",
            "Young Wine"
        ]
    },
    {
        "id": "UN7nqPyXLQ19dJk6qsn8_",
        "name": "Fat Canary",
        "address": {
            "street": "The Cheese Shop of VA, Inc., Williamsburg, VA 23185",
            "lat": "37.2706994",
            "lon": "-76.7061859"
        },
        "locations": "Restaurant",
        "wines": [
            "Young Wine",
            "Rosé"
        ]
    },
    {
        "id": "PHmUrIIWc6DDanw3dTk-1",
        "name": "Commune - Norfolk",
        "address": {
            "street": "759 Granby St., Norfolk, VA 23510",
            "lat": "36.8562717",
            "lon": "-76.2885787"
        },
        "locations": "Restaurant",
        "wines": [
            "Chardonnay"
        ]
    },
    {
        "id": "wEw4aOHfpHVL55057lQFw",
        "name": "Flatiron Wines",
        "address": {
            "street": "929 Broadway, New York, NY 20020",
            "lat": "40.740278",
            "lon": "-73.9896832"
        },
        "locations": "Retail",
        "wines": [
            "Shenandoah Valley Cabernet Franc",
            "Petit Manseng"
        ]
    },
    {
        "id": "7jhYx7AGQGcdt5uvDNvgx",
        "name": "Glen's Garden Market",
        "address": {
            "street": "2001 S St. NW, Washington, DC 20009",
            "lat": "38.9143274",
            "lon": "-77.0451575"
        },
        "locations": "Restaurant/Retail",
        "wines": [
            "Rosé"
        ]
    },
    {
        "id": "76OJAewULJ0EaBm1qc8zG",
        "name": "Jefferson Hotel",
        "address": {
            "street": "101 W Franklin St, Richmond, VA 23220",
            "lat": "37.5442364",
            "lon": "-77.4454155"
        },
        "locations": "Restaurant",
        "wines": [
            "Eluvium",
            "Foothills"
        ]
    },
    {
        "id": "1_zRanwsLOpsLp4s-XHcO",
        "name": "Greenwood",
        "address": {
            "street": "6701 Rockfish Gap TPK, Crozet, VA 22932",
            "lat": "38.0413202",
            "lon": "-78.732343"
        },
        "locations": "Retail",
        "wines": [
            "Chardonnay"
        ]
    },
    {
        "id": "IG_uJpc0AU3e2nyxPd7Rt",
        "name": "Mom's Apple Pie Hill High",
        "address": {
            "street": "35246 Harry Byrd Hwy Ste. 100, Round Hill, VA 20141",
            "lat": "39.1277991",
            "lon": "-77.7873132"
        },
        "locations": "Retail",
        "wines": [
            "Pétillant Naturel White"
        ]
    },
    {
        "id": "cznq6AaqBf9GfPxGqWoZI",
        "name": "Mona Lisa",
        "address": {
            "street": "921 Preston Ave, Charlottesville, VA 22903",
            "lat": "38.038434",
            "lon": "-78.489901"
        },
        "locations": "Retail",
        "wines": [
            "Petit Manseng"
        ]
    },
    {
        "id": "byh30jEWPQuqhgr19UgRS",
        "name": "Mr. Bill's Wine Cellar",
        "address": {
            "street": "2825 B Brambleton Ave., Roanoke, VA 24015",
            "lat": "37.2438511",
            "lon": "-79.9909487"
        },
        "locations": "Retail",
        "wines": [
            "Young Wine"
        ]
    },
    {
        "id": "VCYStuBaUi1J_o718HWXE",
        "name": "Nota Bene",
        "address": {
            "street": "2110 E Main St., Richmond, VA 23223",
            "lat": "37.5311605",
            "lon": "-77.4243981"
        },
        "locations": "Restaurant",
        "wines": [
            "Foothills"
        ]
    },
    {
        "id": "UVMJDJlspAIg7AnbB3WVr",
        "name": "Olmsted",
        "address": {
            "street": "659 Vanderbilt Ave, Brooklyn, NY 11238",
            "lat": "40.677064",
            "lon": "-73.9687578"
        },
        "locations": "Restaurant",
        "wines": [
            "Petit Manseng",
            "Eluvium"
        ]
    },
    {
        "id": "0ivg6h5IcePZ4TZ2052vf",
        "name": "Outpost",
        "address": {
            "street": "4813 Forest Hill Ave., Richmond, VA 23225",
            "lat": "37.5211852",
            "lon": "-77.4878087"
        },
        "locations": "Retail",
        "wines": [
            "Young Wine",
            "Shenandoah Valley Cabernet Franc"
        ]
    },
    {
        "id": "zmcNVsZ_1HrWFwIbrDwa7",
        "name": "Perch",
        "address": {
            "street": "2918 W. Broad Street, Richmond, VA 23230",
            "lat": "37.5640539",
            "lon": "-77.4719183"
        },
        "locations": "Restaurant",
        "wines": [
            "Petit Manseng"
        ]
    },
    {
        "id": "yeOXST2aqYNRgDnVKogri",
        "name": "Rhett's Bar and Grill",
        "address": {
            "street": "134 Wood Ridge Terrace Ste.100, Zion Crossroads, VA 22942",
            "lat": "37.9801543",
            "lon": "-78.2131386"
        },
        "locations": "Restaurant",
        "wines": [
            "Foothills",
            "Five Forks"
        ]
    },
    {
        "id": "7LHQdxxFRkrJ5OIHxZKT_",
        "name": "RichWine",
        "address": {
            "street": "2601 Maury Street, Richmond, VA 23224",
            "lat": "37.5095",
            "lon": "-77.4565725"
        },
        "locations": "Retail",
        "wines": [
            "Rosé"
        ]
    },
    {
        "id": "2a5kx-p_f8DRLWmaSGmkC",
        "name": "Primland Resort",
        "address": {
            "street": "2000 Busted Rock Road, Meadows of Dan, VA 24120",
            "lat": "36.6617827",
            "lon": "-80.4318697"
        },
        "locations": "Restaurant",
        "wines": [
            "Chardonnay"
        ]
    },
    {
        "id": "i-hEriafQZi-uZukMCK2R",
        "name": "Rio Hill Wine & Beer",
        "address": {
            "street": "1908 Rio Hill Center, Charlottesville, VA 22901",
            "lat": "38.0877905",
            "lon": "-78.4749043"
        },
        "locations": "Retail",
        "wines": [
            "Rosé"
        ]
    },
    {
        "id": "r5B7eZtXzHQTSDfHzJVyR",
        "name": "Shagbark",
        "address": {
            "street": "4901 Libbie Mill E Blvd. Ste 175, Richmond, VA 23230",
            "lat": "37.5906296",
            "lon": "-77.4937676"
        },
        "locations": "Restaurant",
        "wines": [
            "Rosé",
            "Eluvium"
        ]
    },
    {
        "id": "DlrtiN-2LCix5BNZs9aiV",
        "name": "Screwtop",
        "address": {
            "street": "1025 Fillmore St. N, Arlington, VA 22201",
            "lat": "38.8859072",
            "lon": "-77.0926894"
        },