[
    {
        "id": "akonm4TXBcwK3iak47SB2",
        "name": "Alewife",
        "address": {
            "street": "3120 E Marshall St., Richmond, VA 23223-7437",
            "lat": "37.5288799",
            "lon": "-77.4116006"
        },
        "locations": "Restaurant",
        "wines": [
            "Pétillant Naturel Red",
            "Pétillant Naturel White"
        ]
    },
    {
        "id": "D2DemUHU4BLrUUFfbHBfN",
        "name": "Arrowine",
        "address": {
            "street": "4508 Lee Hwy, Arlington, VA 22207",
            "lat": "38.8983733",
            "lon": "-77.1183586"
        },
        "locations": "Retail",
        "wines": [
            "Rosé",
            "Chardonnay",
            "Foothills",
            "Pétillant Naturel White",
            "Shenandoah Valley Cabernet Franc"
        ]
    },
    {
        "id": "o990LHmqN8leLQUxb1eqz",
        "name": "Barrel Thief",
        "address": {
            "street": "5805 Patterson Ave, Richmond, VA 23226",
            "lat": "37.2235279",
            "lon": "-79.982868"
        },
        "locations": "Restaurant/Retail",
        "wines": [
            "Rosé",
            "Foothills",
            "Pétillant Naturel White",
            "Petit Manseng"
        ]
    },
    {
        "id": "9z8RRFsCYvtfhp_zjmWdh",
        "name": "Bottleworks",
        "address": {
            "street": "3078 Stony Point Rd., Richmond, VA 23235",
            "lat": "37.537796",
            "lon": "-77.5651916"
        },
        "locations": "Retail",
        "wines": [
            "Chardonnay",
            "Foothills"
        ]
    },
    {
        "id": "TPKUC7w8LuedsdMgkS8oM",
        "name": "Cairo Wine & Liquor",
        "address": {
            "street": "1618 17th St NW, Washington, DC 20009",
            "lat": "38.9117809",
            "lon": "-77.0387481"
        },
        "locations": "Retail",
        "wines": [
            "Rosé"
        ]
    },
    {
        "id": "_b_LRMEnBzfkod08GJN0h",
        "name": "Crystal City Wine Shop",
        "address": {
            "street": "220 20th St. South, Arlington, VA 22202",
            "lat": "38.85597",
            "lon": "-77.0500304"
        },
        "locations": "Retail",
        "wines": [
            "Foothills",
            "Petit Manseng",
            "Rosé",
            "Five Forks",
            "Young Wine",
            "RISE"
        ]
    },
    {
        "id": "SZnxJkI7jET9Y8iJUfZtt",
        "name": "Crystal Palate",
        "address": {
            "street": "4500 Pretty Lake Avenue, Norfolk, VA 23518",
            "lat": "36.925493",
            "lon": "-76.1880817"
        },
        "locations": "Retail",
        "wines": [
            "Chardonnay"
        ]
    },
    {
        "id": "Z9aMNmp0EXwF5NLMmf4jN",
        "name": "Department of Beer & Wine",
        "address": {
            "street": "2724 Richmond Hwy, Alexandria, VA 22301",
            "lat": "38.830645",
            "lon": "-77.051175"
        },
        "locations": "Retail",
        "wines": [
            "Foothills",
            "Rosé",
            "Five Forks",
            "Petit Manseng"
        ]
    },
    {
        "id": "_wo9t20sOKFZdo_P05Kn-",
        "name": "Dominion Wine and Beer",
        "address": {
            "street": "107 Rowell Ct., Falls Church, VA 22046-3126",
            "lat": "38.8897048",
            "lon": "-77.183834"
        },
        "locations": "Restaurant/Retail",
        "wines": [
            "Chardonnay",
            "Petit Manseng",
            "Rosé",
            "Foothills",
            "Five Forks"
        ]
    },
    {
        "id": "0baibg6jsJguTCcdJ1xhD",
        "name": "Ellwood Thompson",
        "address": {
            "street": "4 N Thompson St, Richmond, VA 23221",
            "lat": "37.5574421",
            "lon": "-77.4886194"
        },
        "locations": "Retail",
        "wines": [
            "Eluvium",
            "Foothills",
            "Petit Manseng",
            "Shenandoah Valley Cabernet Franc",
            "Pétillant Naturel White",
            "Quaker Run Chardonnay",
            "Chardonnay",
            "Five Forks",
            "Rosé",
            "Pétillant Naturel Red"
        ]
    },
    {
        "id": "qzGAIsvlKPGxsjJOj-4HM",
        "name": "Commonwealth Club",
        "address": {
            "street": "401 W. Franklin Street, Richmond, VA 23220",
            "lat": "37.5458434",
            "lon": "-77.447656"
        },
        "locations": "Restaurant",
        "wines": [
            "Rosé",
            "RISE"
        ]
    },
    {
        "id": "dHJOGgcZE_5AcRRwja6Sj",
        "name": "Foods of All Nations",
        "address": {
            "street": "2121 Ivy Rd, Charlottesville, VA 22903",
            "lat": "38.0432978",
            "lon": "-78.5119067"
        },
        "locations": "Retail",
        "wines": [
            "Rosé",
            "Pétillant Naturel White",
            "Young Wine",
            "Shenandoah Valley Cabernet Franc",
            "Chardonnay",
            "Foothills",
            "RISE"
        ]
    },
    {
        "id": "VWEAdP0gCG-qP7X7BB-tE",
        "name": "Founding Farmers - Reston",
        "address": {
            "street": "1904 Reston Metro Plaza, Suite 100, Reston, VA 20190",
            "lat": "38.9488917",
            "lon": "-77.3383807"
        },
        "locations": "Restaurant",
        "wines": [
            "Rosé"
        ]
    },
    {
        "id": "mjrcQE0SP12mixjZDtraU",
        "name": "Founding Farmers - Tyson's Corner",
        "address": {
            "street": "1800 Tyson's Blvd., McLean, VA 22102",
            "lat": "38.9488917",
            "lon": "-77.3383807"
        },
        "locations": "Restaurant",
        "wines": [
            "Rosé"
        ]
    },
    {
        "id": "91pqHJfB-umvAaNOCNKh0",
        "name": "Glen's Garden Market",
        "address": {
            "street": "2001 S St. NW, Washington, DC 20009",
            "lat": "38.9143274",
            "lon": "-77.0451575"
        },
        "locations": "Restaurant/Retail",
        "wines": [
            "Foothills",
            "Rosé",
            "Pétillant Naturel White",
            "Shenandoah Valley Cabernet Franc",
            "Five Forks"
        ]
    },
    {
        "id": "UneKhPiZTCTGr_fW0lJZj",
        "name": "Greenwood",
        "address": {
            "street": "6701 Rockfish Gap TPK, Crozet, VA 22932",
            "lat": "38.0413202",
            "lon": "-78.732343"
        },
        "locations": "Retail",
        "wines": [
            "Chardonnay",
            "Rosé",
            "Pétillant Naturel White",
            "Five Forks",
            "Young Wine",
            "Foothills",
            "Eluvium",
            "RISE"
        ]
    },
    {
        "id": "mH1EEMM0oEbKipyvgrDeU",
        "name": "J Emerson",
        "address": {
            "street": "5716 Grove Ave, Richmond, VA 23226",
            "lat": "37.5733362",
            "lon": "-77.5180274"
        },
        "locations": "Retail",
        "wines": [
            "Foothills",
            "Rosé",
            "Pétillant Naturel White",
            "Chardonnay",
            "Young Wine"
        ]
    },
    {
        "id": "Ft_HdqMVG3s1XVgp5JEvY",
        "name": "Friendly City Food Co-op",
        "address": {
            "street": "150 E Wolfe St, Harrisonburg, VA 22802",
            "lat": "38.4516609",
            "lon": "-78.8665291"
        },
        "locations": "Retail",
        "wines": [
            "Rosé",
            "Foothills",
            "Pétillant Naturel White",
            "Petit Manseng",
            "Young Wine",
            "RISE"
        ]
    },
    {
        "id": "86iB3dMnDJqMjNEE2utdO",
        "name": "Market Street Wine Shop",
        "address": {
            "street": "311 East Market St, Charlottesville, VA 22902",
            "lat": "38.0310663",
            "lon": "-78.4789692"
        },
        "locations": "Retail",
        "wines": [
            "Rosé",
            "Shenandoah Valley Cabernet Franc",
            "Chardonnay",
            "Eluvium",
            "Foothills",
            "Pétillant Naturel White",
            "Petit Manseng",
            "Young Wine Chambourcin",
            "Five Forks",
            "Pétillant Naturel Red"
        ]
    },
    {
        "id": "-i5mY2fprsb4mY-OjM8ti",
        "name": "Mona Lisa",
        "address": {
            "street": "921 Preston Ave, Charlottesville, VA 22903",
            "lat": "38.038434",
            "lon": "-78.489901"
        },
        "locations": "Retail",
        "wines": [
            "Foothills",
            "Rosé",
            "Shenandoah Valley Cabernet Franc",
            "Five Forks",
            "Young Wine",
            "Pétillant Naturel White"
        ]
    },
    {
        "id": "dtPuzL7LSHBCg3Wy_QZfg",
        "name": "Locke Store",
        "address": {
            "street": "2049 Millwood Rd., Millwood, VA 22646",
            "lat": "39.0695452",
            "lon": "-78.0379379"
        },
        "locations": "Retail",
        "wines": [
            "Rosé",
            "Pétillant Naturel White",
            "Eluvium",
            "Petit Manseng",
            "Quaker Run Chardonnay"
        ]
    },
    {
        "id": "aQQydZQjBnaix7ZzFmA9Y",
        "name": "Montgomery Co. Dept. of Liquor Control",
        "address": {
            "street": "Division of Financial, Gaithersburg, MD 20878",
            "lat": "39.139876",
            "lon": "-77.1926495"
        },
        "locations": "Retail",
        "wines": [
            "Rosé"
        ]
    },
    {
        "id": "thIti_XJOAagyoVrvuSAo",
        "name": "Perch",
        "address": {
            "street": "2918 W. Broad Street, Richmond, VA 23230",
            "lat": "37.5640539",
            "lon": "-77.4719183"
        },
        "locations": "Restaurant",
        "wines": [
            "Foothills",
            "Petit Manseng",
            "Rosé"
        ]
    },
    {
        "id": "xZr9wAFR_UJH37lNUojus",
        "name": "Planet Wine",
        "address": {
            "street": "2000-2004 Mount Vernon Ave, Alexandria, VA 22301",
            "lat": "38.8239944",
            "lon": "-77.0585361"
        },
        "locations": "Retail",
        "wines": [
            "Rosé",
            "Shenandoah Valley Cabernet Franc",
            "Petit Manseng",
            "Young Wine"
        ]
    },
    {
        "id": "8tY-sXDEoYabGmaLySyf2",
        "name": "Prosperity Kitchen & Pantry",
        "address": {
            "street": "532 Virginia Beach Blvd Ste B, Virginia Beach, VA 23451",
            "lat": "36.8444829",
            "lon": "-75.9806406"
        },
        "locations": "Restaurant",
        "wines": [
            "Foothills",
            "RISE"
        ]
    },
    {
        "id": "R9b-hKqRx-YVaYt91f7DN",
        "name": "Rio Hill Wine & Beer",
        "address": {
            "street": "1908 Rio Hill Center, Charlottesville, VA 22901",
            "lat": "38.0877905",
            "lon": "-78.4749043"
        },
        "locations": "Retail",
        "wines": [
            "Foothills",
            "Rosé",
            "Chardonnay",
            "Eluvium",
            "Shenandoah Valley Cabernet Franc"
        ]
    },
    {
        "id": "gvsUpmMsTVtQ1Pg8KxfnG",
        "name": "Outpost",
        "address": {
            "street": "4813 Forest Hill Ave., Richmond, VA 23225-3143",
            "lat": "37.5211852",
            "lon": "-77.4878087"
        },
        "locations": "Retail",
        "wines": [
            "Foothills",
            "Rosé",
            "Shenandoah Valley Cabernet Franc",
            "Young Wine",
            "RISE"
        ]
    },
    {
        "id": "3UDhV-9x3p2tve48zzILP",
        "name": "Rustico - Ballston",
        "address": {
            "street": "4075 Wilson Blvd., Arlington, VA 22203",
            "lat": "38.8803079",
            "lon": "-77.1085112"
        },
        "locations": "Restaurant",
        "wines": [
            "Rosé"
        ]
    },
    {
        "id": "cADZAdTAKtwrF9jUKzmF2",
        "name": "Roosevelt",
        "address": {
            "street": "623 N. 25th St., Richmond, VA 23223",
            "lat": "37.534897",
            "lon": "-77.4154189"
        },
        "locations": "Restaurant",
        "wines": [
            "Foothills",
            "Five Forks"
        ]
    },
    {
        "id": "gZ1YG_AzzfrGPshzfLzQX",
        "name": "Salisbury Country Club",
        "address": {
            "street": "13620 W. Salisbury Rd, Midlothian, VA 23113",
            "lat": "37.5278854",
            "lon": "-77.6533788"
        },
        "locations": "Restaurant",
        "wines": [
            "Foothills",
            "Petit Manseng",
            "Rosé",
            "Pétillant Naturel White",
            "Five Forks",
            "Young Wine",
            "RISE"
        ]
    },
    {
        "id": "CJWPsReWrpQzhAW3eK1-S",
        "name": "Saison",
        "address": {
            "street": "23 W Marshall St. Suite A, Richmond, VA 23220",
            "lat": "37.546819",
            "lon": "-77.4420934"
        },
        "locations": "Restaurant",
        "wines": [
            "Rosé",
            "Pétillant Naturel White",
            "Pétillant Naturel Red"
        ]
    },
    {
        "id": "-mSAwvztGNeBk2-x5MxZD",
        "name": "Stone Tower Winery",
        "address": {
            "street": "19925 Hogback Mountain Road, Leesburg, VA 20175",
            "lat": "39.063064",
            "lon": "-77.635397"
        },
        "locations": "Restaurant/Retail",
        "wines": [
            "Shenandoah Valley Cabernet Franc"
        ]
    },
    {
        "id": "volyw7c3JO-JWoJ-zdR-0",
        "name": "Taste - Ghent",
        "address": {
            "street": "407 W 21st Street, Norfolk, VA 23517-2114",
            "lat": "36.868141",
            "lon": "-76.290231"
        },
        "locations": "Restaurant/Retail",
        "wines": [
            "Rosé"
        ]
    },
    {
        "id": "kQroheNB6SfwHzq1ABtgV",
        "name": "Taste - Headquarters",
        "address": {
            "street": "1391 Air Rail Avenue, Virginia Beach, VA 23455",
            "lat": "36.8929573",
            "lon": "-76.1918905"
        },
        "locations": "Restaurant/Retail",
        "wines": [
            "Rosé",
            "Foothills",
            "Eluvium"
        ]
    },
    {
        "id": "aFRyDZBHRdx9SJb3Jkf_r",
        "name": "Thornton River Grille",
        "address": {
            "street": "Thornton River Grille, Sperryville, VA 22740",
            "lat": "38.6525114",
            "lon": "-78.2667447"
        },
        "locations": "Restaurant",
        "wines": [
            "Chardonnay",
            "Foothills",
            "Petit Manseng",
            "Rosé",
            "Young Wine",
            "Eluvium"
        ]
    },
    {
        "id": "aIyvdjhkE231wd12RDSlN",
        "name": "Unwined Belle View",
        "address": {
            "street": "1600 Belle View Blvd., Alexandria, VA 22307",
            "lat": "38.7761672",
            "lon": "-77.0597746"
        },
        "locations": "Retail",
        "wines": [
            "Rosé",
            "Pétillant Naturel White",
            "Petit Manseng",
            "Young Wine"
        ]
    },
    {
        "id": "embj7WvUB_50nAzoNT9_h",
        "name": "Unwined Bradlee Shopping Center",
        "address": {
            "street": "3690-J King St, Alexandria, VA 22302",
            "lat": "38.8296628",
            "lon": "-77.0921948"
        },
        "locations": "Retail",
        "wines": [
            "Rosé",
            "Eluvium"
        ]
    },
    {
        "id": "RslmvWMERDQBBTHOZEzas",
        "name": "Urban Hang Suite",
        "address": {
            "street": "304 E. Broad Street, Richmond, VA 23219",
            "lat": "37.5441901",
            "lon": "-77.4388111"
        },
        "locations": "Restaurant/Retail",
        "wines": [
            "Foothills"
        ]
    },
    {
        "id": "SIP07NkvJ43ksE2g18xIi",
        "name": "Taste - Westhampton",
        "address": {
            "street": "5706 Grove Ave Ste 100, Richmond, VA 23226-2346",
            "lat": "37.5732828",
            "lon": "-77.5173888"
        },
        "locations": "Restaurant/Retail",
        "wines": [
            "Rosé"
        ]
    },
    {
        "id": "awc19j9JIrC9-kvaD9Dxg",
        "name": "USA Wine Imports:Good Wine",
        "address": {
            "street": "327 5th Avenue, Brooklyn, NY 11215",
            "lat": "40.6724091",
            "lon": "-73.9833358"
        },
        "locations": "Retail",
        "wines": [
            "Foothills"
        ]
    },
    {
        "id": "wXZNcyjHJ9pTXZjAOOp0R",
        "name": "USA Wine Imports:Kings County Wines",
        "address": {
            "street": "1420 Cortelyou Road, Brooklyn, NY 11226",
            "lat": "40.6724091",
            "lon": "-73.9833358"
        },
        "locations": "Retail",
        "wines": [
            "Rosé"
        ]
    },
    {
        "id": "dcInQq9q-MrgYZYv4ZCZB",
        "name": "USA Wine Imports:Sorso Wine Boutique",
        "address": {
            "street": "1069 Bedford Avenue, Brooklyn, NY 11216",
            "lat": "40.6724091",
            "lon": "-73.9833358"
        },
        "locations": "Retail",
        "wines": [
            "Rosé"
        ]
    },
    {
        "id": "wcxjP3wuLwrPGivkbHiEu",
        "name": "W2 Wines, LLC",
        "address": {
            "street": "16031 Hillsboro Road, Purcellville, VA 20132",
            "lat": "39.173889",
            "lon": "-77.725546"
        },
        "locations": "Retail",
        "wines": [
            "Petit Manseng",
            "Rosé",
            "Shenandoah Valley Cabernet Franc"
        ]
    },
    {
        "id": "Ju59Sg3uTxQ6okCY9ldrD",
        "name": "USA Wine Imports:Zap Wines & Spirits",
        "address": {
            "street": "105 Court Street, Brooklyn, NY 11201",
            "lat": "40.6724091",
            "lon": "-73.9833358"
        },
        "locations": "Retail",
        "wines": [
            "Foothills"
        ]
    },
    {
        "id": "PPOIoqMm4y-DRN9mfAl92",
        "name": "Wardman Wines",
        "address": {
            "street": "625 Monroe St. NE, Ste.#A7, Washington, DC 20007",
            "lat": "38.9318318",
            "lon": "-76.9971246"
        },
        "locations": "Retail",
        "wines": [
            "Rosé"
        ]
    },
    {
        "id": "wWrO-6GFtjEly2xCzl9p-",
        "name": "Westside Produce & Provisions",
        "address": {
            "street": "5015 Colley Ave., Norfolk, VA 23508-2039",
            "lat": "36.8890919",
            "lon": "-76.2954496"
        },
        "locations": "Retail",
        "wines": [
            "Chardonnay",
            "Eluvium",
            "Foothills",
            "Rosé",
            "Shenandoah Valley Cabernet Franc",
            "Young Wine"
        ]
    },
    {
        "id": "zpyDrL3EPZIv7TmGvLEYg",
        "name": "Whole Foods - Ashburn",
        "address": {
            "street": "19800 Belmont Chase Dr, Ashburn, VA 20147",
            "lat": "39.0684834",
            "lon": "-77.4843963"
        },
        "locations": "Restaurant/Retail",
        "wines": [
            "Foothills",
            "Rosé",
            "Five Forks"
        ]
    },
    {
        "id": "qopj8GeOeToCAovwwClc4",
        "name": "Whole Foods - Boro Tysons",
        "address": {
            "street": "1635 Boro Place, McLean, VA 22102",
            "lat": "38.9246153",
            "lon": "-77.2335301"
        },
        "locations": "Restaurant/Retail",
        "wines": [
            "Foothills",
            "Rosé",
            "Five Forks"
        ]
    },
    {
        "id": "5H136dnuecwtt62jt-0BL",
        "name": "Whole Foods - Charlottesville",
        "address": {
            "street": "1797 Hydraulic Road, Charlottesville, VA 22901",
            "lat": "38.059773",
            "lon": "-78.4891351"
        },
        "locations": "Restaurant/Retail",
        "wines": [
            "Foothills",
            "Rosé",
            "Five Forks"
        ]
    },
    {
        "id": "pFaSzq9vlt5u-BORhSFn1",
        "name": "Whole Foods - H Street",
        "address": {
            "street": "600-A H Street, NE, Washington, DC 20002",
            "lat": "38.9005142",
            "lon": "-76.9976267"
        },
        "locations": "Restaurant/Retail",
        "wines": [
            "Foothills",
            "Rosé",
            "Five Forks"
        ]
    },
    {
        "id": "zZ7gJse1WNU9dq40DGM4J",
        "name": "Washington Street Purveyors",
        "address": {
            "street": "9 E Washington St, Lexington, VA 24450",
            "lat": "37.7845823",
            "lon": "-79.441534"
        },
        "locations": "Retail",
        "wines": [
            "Chardonnay"
        ]
    },
    {
        "id": "TbbIl3VHXdTowFk3WkR-d",
        "name": "Wine Gourmet",
        "address": {
            "street": "3524 Electric Road, Roanoke, VA 24014-1109",
            "lat": "37.2271841",
            "lon": "-79.9984762"
        },
        "locations": "Retail",
        "wines": [
            "Rosé"
        ]
    },
    {
        "id": "O_6R1s9h4pbiMKmSwuLey",
        "name": "Wine Seller - Williamsburg",
        "address": {
            "street": "4680 Monticello Ave Suite 15, Williamsburg, VA 23188",
            "lat": "37.2719211",
            "lon": "-76.7595155"
        },
        "locations": "Retail",
        "wines": [
            "Foothills",
            "Rosé",
            "Pétillant Naturel White",
            "Five Forks",
            "RISE"
        ]
    },
    {
        "id": "dfkONUfCjFV5jHk2Q7ndZ",
        "name": "Whole Foods - West Broad",
        "address": {
            "street": "2024 W Broad Street, Richmond, VA 23220",
            "lat": "37.5581958",
            "lon": "-77.4612166"
        },
        "locations": "Restaurant/Retail",
        "wines": [
            "Foothills"
        ]
    },
    {
        "id": "Dzf5CSarBXGtDWdmcDIU1",
        "name": "67 Liquor Shop",
        "address": {
            "street": "179 Columbus Ave, New York, NY 10023",
            "lat": "40.7746082",
            "lon": "-73.9805925"
        },
        "locations": "Retail",
        "wines": [
            "Rosé"
        ]
    },
    {
        "id": "LG6rLfGAC1j6xk_B0APav",
        "name": "Arrowine",
        "address": {
            "street": "4508 Lee Hwy, Arlington, VA 22207",
            "lat": "38.8983733",
            "lon": "-77.1183586"
        },
        "locations": "Retail",
        "wines": [
            "Foothills",
            "Rosé"
        ]
    },
    {
        "id": "cPFy7brVkjjN1xJJHzu4U",
        "name": "Barrel Thief",
        "address": {
            "street": "5805 Patterson Ave, Richmond, VA 23226",
            "lat": "37.2235279",
            "lon": "-79.982868"
        },
        "locations": "Restaurant/Retail",
        "wines": [
            "Foothills",
            "Rosé",
            "Petit Manseng",
            "Pétillant Naturel White"
        ]
    },
    {
        "id": "8nElBgqCAVB2XiJzAfhtO",
        "name": "Alewife",
        "address": {
            "street": "3120 E Marshall St., Richmond, VA 23223-7437",
            "lat": "37.5288799",
            "lon": "-77.4116006"
        },
        "locations": "Restaurant",
        "wines": [
            "Pétillant Naturel White"
        ]
    },
    {
        "id": "-O-TwLMhFqQqnglDb6Zj_",
        "name": "Broken Tulip",
        "address": {
            "street": "3129 W. Cary Street, Richmond, VA 23221",
            "lat": "37.5532674",
            "lon": "-77.481503"
        },
        "locations": "Restaurant",
        "wines": [
            "Pétillant Naturel White",
            "Young Wine Chambourcin"
        ]
    },
    {
        "id": "v3I6DQEgUY0DOTAhmjncJ",
        "name": "Blacksburg Wine Lab",
        "address": {
            "street": "400 Turner St. NW, Blacksburg, VA 24060",
            "lat": "37.2331938",
            "lon": "-80.421742"
        },
        "locations": "Restaurant",
        "wines": [
            "Foothills"
        ]
    },
    {
        "id": "IsH8Si-sPEVPybNPl6Q8T",
        "name": "Buck's Fishing",
        "address": {
            "street": "5031 Connecticut Ave NW, Washington, DC 20008",
            "lat": "38.955832",
            "lon": "-77.0698701"
        },
        "locations": "Restaurant",
        "wines": [
            "Rosé"
        ]
    },
    {
        "id": "OL3hIYCFtADur-BX2FpiR",
        "name": "Common House",
        "address": {
            "street": "206 West Market Street, Charlottesville, VA 22902",
            "lat": "38.0317194",
            "lon": "-78.4822538"
        },
        "locations": "Restaurant",
        "wines": [
            "Eluvium",
            "Petit Manseng",
            "Rosé",
            "Pétillant Naturel White"
        ]
    },
    {
        "id": "Oj-TTcPRpnQBbyCTnGPxi",
        "name": "Crystal City Wine Shop",
        "address": {
            "street": "220 20th St. South, Arlington, VA 22202",
            "lat": "38.85597",
            "lon": "-77.0500304"
        },
        "locations": "Retail",
        "wines": [
            "Pétillant Naturel White",
            "Rosé",
            "Petit Manseng",
            "Young Wine",
            "Pétillant Naturel Red"
        ]
    },
    {
        "id": "LT-VeYx59mUUAU2BuV8iK",
        "name": "Chain Bridge Cellars",
        "address": {
            "street": "1351 Chain Bridge Rd, McLean, VA 22101",
            "lat": "38.9385421",
            "lon": "-77.1746454"
        },
        "locations": "Retail",
        "wines": [
            "Foothills"
        ]
    },
    {
        "id": "wAOUS_KpD2rQqwPSxEd61",
        "name": "Ellwood Thompson",
        "address": {
            "street": "4 N Thompson St, Richmond, VA 23221",
            "lat": "37.5574421",
            "lon": "-77.4886194"
        },
        "locations": "Retail",
        "wines": [
            "Petit Manseng",
            "Rosé",
            "Quaker Run Chardonnay"
        ]
    },
    {
        "id": "FbQ8c3a5C3S3bGS9BwGjE",
        "name": "Fat Canary",
        "address": {
            "street": "The Cheese Shop of VA, Inc., Williamsburg, VA 23185",
            "lat": "37.2706994",
            "lon": "-76.7061859"
        },
        "locations": "Restaurant",
        "wines": [
            "Foothills",
            "Rosé",
            "Five Forks",
            "Pétillant Naturel White",
            "Shenandoah Valley Cabernet Franc"
        ]
    },
    {
        "id": "7cacJsCPekG1TaLAYb0UN",
        "name": "Dominion Wine and Beer",
        "address": {
            "street": "107 Rowell Ct., Falls Church, VA 22046-3126",
            "lat": "38.8897048",
            "lon": "-77.183834"
        },
        "locations": "Restaurant/Retail",
        "wines": [
            "Rosé",
            "Foothills"
        ]
    },
    {
        "id": "FNFDT40_UymLjV913ASlP",
        "name": "Feast",
        "address": {
            "street": "416 W Main St Suite H, Charlottesville, VA 22902",
            "lat": "38.0304142",
            "lon": "-78.4872613"
        },
        "locations": "Retail",
        "wines": [
            "Rosé"
        ]
    },
    {
        "id": "tJRMxwLuclgbI2u3_afe0",
        "name": "Foods of All Nations",
        "address": {
            "street": "2121 Ivy Rd, Charlottesville, VA 22903",
            "lat": "38.0432978",
            "lon": "-78.5119067"
        },
        "locations": "Retail",
        "wines": [
            "Rosé",
            "Five Forks",
            "Young Wine",
            "Eluvium"
        ]
    },
    {
        "id": "NSV1HX85LDUx0C0WM_DbF",
        "name": "Glen's Garden Market",
        "address": {
            "street": "2001 S St. NW, Washington, DC 20009",
            "lat": "38.9143274",
            "lon": "-77.0451575"
        },
        "locations": "Restaurant/Retail",
        "wines": [
            "Rosé",
            "Shenandoah Valley Cabernet Franc",
            "Pétillant Naturel White",
            "Young Wine"
        ]
    },
    {
        "id": "F1B4LUrL9Zco8LrsjxZ1J",
        "name": "Friendly City Food Co-op",
        "address": {
            "street": "150 E Wolfe St, Harrisonburg, VA 22802",
            "lat": "38.4516609",
            "lon": "-78.8665291"
        },
        "locations": "Retail",
        "wines": [
            "Rosé",
            "Pétillant Naturel White",
            "Young Wine",
            "Foothills",
            "Petit Manseng"
        ]
    },
    {
        "id": "j32GAoXdC8On7qyimUAE-",
        "name": "Grisette",
        "address": {
            "street": "3119 East Marshall Street, Richmond, VA 23223",
            "lat": "37.528621",
            "lon": "-77.4119182"
        },
        "locations": "Restaurant",
        "wines": [
            "Petit Manseng"
        ]
    },
    {
        "id": "oGw8QcI5iUm1dNo2su5_X",
        "name": "Greenwood",
        "address": {
            "street": "6701 Rockfish Gap TPK, Crozet, VA 22932",
            "lat": "38.0413202",
            "lon": "-78.732343"
        },
        "locations": "Retail",
        "wines": [
            "Young Wine Chambourcin",
            "Petit Manseng"
        ]
    },
    {
        "id": "M6zf0lkYgUoV55wiKRk5q",
        "name": "Heirloom Café",
        "address": {
            "street": "815 N Chase St, Athens, GA 30601",
            "lat": "33.9663133",
            "lon": "-83.3931064"
        },
        "locations": "Restaurant/Retail",
        "wines": [
            "Rosé"
        ]
    },
    {
        "id": "xdG06cuNf3D3q9w00H8m4",
        "name": "J Emerson",
        "address": {
            "street": "5716 Grove Ave, Richmond, VA 23226",
            "lat": "37.5733362",
            "lon": "-77.5180274"
        },
        "locations": "Retail",
        "wines": [
            "Rosé",
            "Chardonnay",
            "Pétillant Naturel White",
            "Five Forks"
        ]
    },
    {
        "id": "iiOWajqHuvpqUxoF9kI19",
        "name": "La Fromagerie",
        "address": {
            "street": "1222 King St, Alexandria, VA 22314-2927",
            "lat": "38.805648",
            "lon": "-77.053429"
        },
        "locations": "Restaurant/Retail",
        "wines": [
            "Eluvium",
            "Pétillant Naturel White",
            "Quaker Run Chardonnay",
            "Rosé",
            "Young Wine"
        ]
    },
    {
        "id": "niZ8ctZcfwToS0BW9JOzZ",
        "name": "Libbie Market",
        "address": {
            "street": "400 Libbie Ave., Richmond, VA 23226",
            "lat": "37.5746309",
            "lon": "-77.5183971"
        },
        "locations": "Retail",
        "wines": [
            "Eluvium",
            "Petit Manseng",
            "Rosé"
        ]
    },
    {
        "id": "HVsrdDMs456h08mv17kn2",
        "name": "Kings County Wines",
        "address": {
            "street": "1420 Cortelyou Rd, Brooklyn, NY 11226",
            "lat": "40.6409745",
            "lon": "-73.9644848"
        },
        "locations": "Retail",
        "wines": [
            "Foothills"
        ]
    },
    {
        "id": "FHgM1rm6_VpvTzRIfWXjS",
        "name": "Market Street Wine Shop",
        "address": {
            "street": "311 East Market St, Charlottesville, VA 22902",
            "lat": "38.0310663",
            "lon": "-78.4789692"
        },
        "locations": "Retail",
        "wines": [
            "Chardonnay",
            "Foothills",
            "Pétillant Naturel White",
            "Rosé",
            "Pétillant Naturel Red"
        ]
    },
    {
        "id": "sk075siBKXpGHYPWcPq20",
        "name": "Locke Store",
        "address": {
            "street": "2049 Millwood Rd., Millwood, VA 22646",
            "lat": "39.0695452",
            "lon": "-78.0379379"
        },
        "locations": "Retail",
        "wines": [
            "Pétillant Naturel White",
            "Rosé",
            "Quaker Run Chardonnay"
        ]
    },
    {
        "id": "EHcatm8T4LdjaxXQwpcPP",
        "name": "Mona Lisa",
        "address": {
            "street": "921 Preston Ave, Charlottesville, VA 22903",
            "lat": "38.038434",
            "lon": "-78.489901"
        },
        "locations": "Retail",
        "wines": [
            "Young Wine Chambourcin",
            "Petit Manseng",
            "Rosé"
        ]
    },
    {
        "id": "F2NqJ9mOYBD5B_8SUghZl",
        "name": "Mount Airy Winegrowers LLC",
        "address": {
            "street": "1609 Lee Highway, Fort Defiance, VA 24437",
            "lat": "38.2353215",
            "lon": "-78.976582"
        },
        "locations": "Retail",
        "wines": [
            "Pétillant Naturel White"
        ]
    },
    {
        "id": "lTpdWzbMYQKg7NXsfkxSM",
        "name": "Newtown Baking",
        "address": {
            "street": "960 W Beverlely Street, Staunton, VA 244001",
            "lat": "38.1496916",
            "lon": "-79.0738108"
        },
        "locations": "Retail",
        "wines": [
            "Foothills",
            "Five Forks"
        ]
    },
    {
        "id": "MgC1mGgBKkDMorH8Iqpoz",
        "name": "Norm's Beer & Wine",
        "address": {
            "street": "136 Branch Rd SE, Vienna, VA 22180",
            "lat": "38.9062317",
            "lon": "-77.257151"
        },
        "locations": "Retail",
        "wines": [
            "Rosé",
            "Quaker Run Chardonnay",
            "Five Forks",
            "Chardonnay",
            "Foothills"
        ]
    },
    {
        "id": "TbWyT8hNWDyNkVijn12R-",
        "name": "Odd Provisions",
        "address": {
            "street": "3301 11th Street NW, Washington, DC 20010",
            "lat": "38.9309006",
            "lon": "-77.0278015"
        },
        "locations": "Retail",
        "wines": [
            "Rosé",
            "Pétillant Naturel White"
        ]
    },
    {
        "id": "FUCQ42wg-AZrkX09aMG0p",
        "name": "Organic Butcher of McLean",
        "address": {
            "street": "6712 Old Dominion Drive, McLean, VA 22101-3806",
            "lat": "38.9335412",
            "lon": "-77.1758584"
        },
        "locations": "Retail",
        "wines": [
            "Rosé",
            "Young Wine",
            "Five Forks",
            "Pétillant Naturel Red",
            "RISE"
        ]
    },
    {
        "id": "DOqmlJYcq3TJ1pLgA_44d",
        "name": "Rio Hill Wine & Beer",
        "address": {
            "street": "1908 Rio Hill Center, Charlottesville, VA 22901",
            "lat": "38.0877905",
            "lon": "-78.4749043"
        },
        "locations": "Retail",
        "wines": [
            "Eluvium",
            "Foothills",
            "Quaker Run Chardonnay",
            "Shenandoah Valley Cabernet Franc",
            "Rosé"
        ]
    },
    {
        "id": "9OF0tOBkeI-D4fMPz5pRz",
        "name": "Planet Wine",
        "address": {
            "street": "2000-2004 Mount Vernon Ave, Alexandria, VA 22301",
            "lat": "38.8239944",
            "lon": "-77.0585361"
        },
        "locations": "Retail",
        "wines": [
            "Rosé",
            "Young Wine"
        ]
    },
    {
        "id": "J0qtAS5T8o8iZe054B0_p",
        "name": "Roanoke Natural Foods Co-op",
        "address": {
            "street": "1319 Grandin Rd SW, Roanoke, VA 24015-231",
            "lat": "37.2652232",
            "lon": "-79.9776246"
        },
        "locations": "Retail",
        "wines": [
            "Foothills",
            "Rosé",
            "Young Wine"
        ]
    },
    {
        "id": "VBfCKPSoCNX3b8vjXW7Sl",
        "name": "Salisbury Country Club",
        "address": {
            "street": "13620 W. Salisbury Rd, Midlothian, VA 23113",
            "lat": "37.5278854",
            "lon": "-77.6533788"
        },
        "locations": "Restaurant",
        "wines": [
            "Rosé",
            "Shenandoah Valley Cabernet Franc"
        ]
    },
    {
        "id": "pKm-dzwFYMOC0nWjFYXsZ",
        "name": "Screwtop",
        "address": {
            "street": "1025 Fillmore St. N, Arlington, VA 22201",
            "lat": "38.8859072",
            "lon": "-77.0926894"
        },
        "locations": "Restaurant/Retail",
        "wines": [
            "Rosé",
            "Eluvium"
        ]
    },
    {
        "id": "3i9NOLGjjP3UpUFQz8pSA",
        "name": "Unwined Belle View",
        "address": {
            "street": "1600 Belle View Blvd., Alexandria, VA 22307",
            "lat": "38.7761672",
            "lon": "-77.0597746"
        },
        "locations": "Retail",
        "wines": [
            "Rosé",
            "Shenandoah Valley Cabernet Franc"
        ]
    },
    {
        "id": "bwqBMh5S7AyejdWbf0-nR",
        "name": "Unwined Bradlee Shopping Center",
        "address": {
            "street": "3690-J King St, Alexandria, VA 22302",
            "lat": "38.8296628",
            "lon": "-77.0921948"
        },
        "locations": "Retail",
        "wines": [
            "Rosé",
            "Eluvium"
        ]
    },
    {
        "id": "8WiWFJxFyv2WKqKJL3Ky2",
        "name": "Savannah Wine Cellar",
        "address": {
            "street": "5500 Abercorn St, Savannah, GA 31405",
            "lat": "32.0229174",
            "lon": "-81.109395"
        },
        "locations": "Restaurant/Retail",
        "wines": [
            "Foothills",
            "RISE"
        ]
    },
    {
        "id": "q8wypUgLsONx6oCzrH2hm",
        "name": "Vino Market",
        "address": {
            "street": "3730 Winterfield Rd., Midlothian, VA 23113",
            "lat": "37.5535346",
            "lon": "-77.6685934"
        },
        "locations": "Retail",
        "wines": [
            "Foothills",
            "Rosé",
            "Five Forks",
            "Eluvium"
        ]
    },
    {
        "id": "c7Q6w5fIbQbyZlS_Kyvc6",
        "name": "Vintage Cellar",
        "address": {
            "street": "1338 South Main St., Blacksburg, VA 24060",
            "lat": "37.215963",
            "lon": "-80.402101"
        },
        "locations": "Retail",
        "wines": [
            "Eluvium",
            "Foothills"
        ]
    },
    {
        "id": "xq-mCbek0VO1Q_0-8WDnM",
        "name": "Urban Hang Suite",
        "address": {
            "street": "304 E. Broad Street, Richmond, VA 23219",
            "lat": "37.5441901",
            "lon": "-77.4388111"
        },
        "locations": "Restaurant/Retail",
        "wines": [
            "Foothills"
        ]
    },
    {
        "id": "X-0iOZxBycnqJzc6wkn6O",
        "name": "Vyne Yard",
        "address": {
            "street": "594 Rogers Ave, Brooklyn, NY 11225",
            "lat": "40.6571942",
            "lon": "-73.9534567"
        },
        "locations": "Retail",
        "wines": [
            "Rosé"
        ]
    },
    {
        "id": "JxafE8tECTiYrLQ_eInt3",
        "name": "Whole Foods - Charlottesville",
        "address": {
            "street": "1797 Hydraulic Road, Charlottesville, VA 22901",
            "lat": "38.059773",
            "lon": "-78.4891351"
        },
        "locations": "Restaurant/Retail",
        "wines": [
            "Foothills",
            "Rosé"
        ]
    },
    {
        "id": "Mp-7SVXjtnkL19qVunmOB",
        "name": "Whole Foods - Virginia Beach",
        "address": {
            "street": "1800 Laskin Road, Virginia Beach, VA 23454",
            "lat": "36.8509319",
            "lon": "-76.0281576"
        },
        "locations": "Restaurant/Retail",
        "wines": [
            "Foothills",
            "Five Forks",
            "Rosé"
        ]
    },
    {
        "id": "_9a_mKaEH4uIwBg7CrubJ",
        "name": "Wine Seller - Williamsburg",
        "address": {
            "street": "4680 Monticello Ave Suite 15, Williamsburg, VA 23188",
            "lat": "37.2719211",
            "lon": "-76.7595155"
        },
        "locations": "Retail",
        "wines": [
            "Foothills",
            "Rosé"
        ]
    },
    {
        "id": "C2Z9Ss__BETKU5UG7Upt0",
        "name": "Whole Foods - West Broad",
        "address": {
            "street": "2024 W Broad Street, Richmond, VA 23220",
            "lat": "37.5581958",
            "lon": "-77.4612166"
        },
        "locations": "Restaurant/Retail",
        "wines": [
            "Rosé"
        ]
    },
    {
        "id": "yDZCuQgjTrPpjG8Ye6oVH",
        "name": "Amber Ox Kitchen & Brewery",
        "address": {
            "street": "521 Prince George St., Williamsburg, VA 23185",
            "lat": "37.272864",
            "lon": "-76.708414"
        },
        "locations": "Restaurant",
        "wines": [
            "Five Forks",
            "Foothills"
        ]
    },
    {
        "id": "mThYgS-oH_HuOJs9MCkNn",
        "name": "Barrel Chest",
        "address": {
            "street": "4035 Electric Rd. #B, Roanoke, VA 24018",
            "lat": "37.2235279",
            "lon": "-79.982868"
        },
        "locations": "Retail",
        "wines": [
            "Foothills",
            "Five Forks",
            "Pétillant Naturel White",
            "Young Wine",
            "Petit Manseng",
            "Eluvium"
        ]
    },
    {
        "id": "jRy2uEuyulIg8DjZrIjrH",
        "name": "Zocalo",
        "address": {
            "street": "201 E Main St Suite E, Charlottesville, VA 22902",
            "lat": "38.0307918",
            "lon": "-78.4803003"
        },
        "locations": "Restaurant",
        "wines": [
            "Pétillant Naturel White",
            "Rosé"
        ]
    },
    {
        "id": "B_7PSPQJsmMsPDnQSec_a",
        "name": "Barrel Thief",
        "address": {
            "street": "5805 Patterson Ave, Richmond, VA 23226",
            "lat": "37.5794435",
            "lon": "-77.5149812"
        },
        "locations": "Restaurant/Retail",
        "wines": [
            "Pétillant Naturel White",
            "Rosé"
        ]
    },
    {
        "id": "kRan_mMxd2z8SpNB7xYyj",
        "name": "Beer Run",
        "address": {
            "street": "156 Carlton Rd Ste 203, Charlottesville, VA 22902",
            "lat": "38.0246361",
            "lon": "-78.468401"
        },
        "locations": "Restaurant/Retail",
        "wines": [
            "Young Wine"
        ]
    },
    {
        "id": "U12VhYdRPJaROvJk8jg4w",
        "name": "Caboose",
        "address": {
            "street": "108 S. Railroad Ave., Ashland, VA 23005",
            "lat": "37.758286",
            "lon": "-77.4816338"
        },
        "locations": "Restaurant/Retail",
        "wines": [
            "Chardonnay",
            "Foothills"
        ]
    },
    {
        "id": "P6iFYWWHJzbk5eg_GO_4G",
        "name": "City Vino",
        "address": {
            "street": "810 Caroline St Suite 101, Fredericksburg, VA 22401",
            "lat": "38.3019961",
            "lon": "-77.4590376"
        },
        "locations": "Retail",
        "wines": [
            "Rosé",
            "Eluvium",
            "Young Wine",
            "Five Forks"
        ]
    },
    {
        "id": "2wHczC4oOaizLuSfMon86",
        "name": "Blanca",
        "address": {
            "street": "4117 Granby St Ste A, Norfolk, VA 23504",
            "lat": "36.8846514",
            "lon": "-76.2818304"
        },
        "locations": "Restaurant",
        "wines": [
            "Petit Manseng"
        ]
    },
    {
        "id": "XlHWBCQAGnqus11DiW_o8",
        "name": "Common House",
        "address": {
            "street": "206 West Market Street, Charlottesville, VA 22902",
            "lat": "38.0317194",
            "lon": "-78.4822538"
        },
        "locations": "Restaurant",
        "wines": [
            "Rosé"
        ]
    },
    {
        "id": "w_JY6vLdCg7-IK8zS5uRW",
        "name": "Commune - Virginia Beach",
        "address": {
            "street": "501 Virginia Beach Blvd. Ste. B, Virginia Beach, VA 23451",
            "lat": "36.8441296",
            "lon": "-75.9793877"
        },
        "locations": "Restaurant",
        "wines": [
            "Foothills"
        ]
    },
    {
        "id": "qqE98dSUXcraONNyq0GIc",
        "name": "Crystal City Wine Shop",
        "address": {
            "street": "220 20th St. South, Arlington, VA 22202",
            "lat": "38.85597",
            "lon": "-77.0500304"
        },
        "locations": "Retail",
        "wines": [
            "Rosé"
        ]
    },
    {
        "id": "0xC_4RHLCia55tqjLzHvN",
        "name": "Department of Beer & Wine",
        "address": {
            "street": "2724 Richmond Hwy, Alexandria, VA 22301",
            "lat": "38.830645",
            "lon": "-77.051175"
        },
        "locations": "Retail",
        "wines": [
            "Pétillant Naturel White",
            "Rosé"
        ]
    },
    {
        "id": "mQghX8MmLZqFBKnzo6kaz",
        "name": "Fat Canary",
        "address": {
            "street": "The Cheese Shop of VA, Inc., Williamsburg, VA 23185",
            "lat": "37.2706994",
            "lon": "-76.7061859"
        },
        "locations": "Restaurant",
        "wines": [
            "Shenandoah Valley Cabernet Franc",
            "Five Forks",
            "Foothills",
            "Rosé"
        ]
    },
    {
        "id": "JJP-YlfbtybwqZr-P6d3I",
        "name": "Field & Main",
        "address": {
            "street": "8369 W. Main St., Marshall, VA 20115",
            "lat": "38.8647631",
            "lon": "-77.8574303"
        },
        "locations": "Restaurant/Retail",
        "wines": [
            "Shenandoah Valley Cabernet Franc",
            "Red Vine",
            "Rosé",
            "F & M Red",
            "RISE"
        ]
    },
    {
        "id": "m2fJC4ohwO_Be_1UncJ1Q",
        "name": "Ellwood Thompson",
        "address": {
            "street": "4 N Thompson St, Richmond, VA 23221",
            "lat": "37.5574421",
            "lon": "-77.4886194"
        },
        "locations": "Retail",
        "wines": [
            "Rosé"
        ]
    },
    {
        "id": "MGfUSsCgKDY4qNZRHWg_j",
        "name": "Foods of All Nations",
        "address": {
            "street": "2121 Ivy Rd, Charlottesville, VA 22903",
            "lat": "38.0432978",
            "lon": "-78.5119067"
        },
        "locations": "Retail",
        "wines": [
            "Foothills",
            "Shenandoah Valley Cabernet Franc",
            "Rosé"
        ]
    },
    {
        "id": "kgPG1-vhaIJK64lRfXwuF",
        "name": "Founding Farmers - DC",
        "address": {
            "street": "1924 Pennsylvania Ave. NW, Washington, DC 20006",
            "lat": "38.9002854",
            "lon": "-77.0445269"
        },
        "locations": "Restaurant",
        "wines": [
            "Rosé"
        ]
    },
    {
        "id": "LtSMQRVLfZOG7b1t9kKa2",
        "name": "Fort Lewis Lodge",
        "address": {
            "street": "603 Old Plantation Way, Millboro, VA 24460",
            "lat": "38.114054",
            "lon": "-79.6110139"
        },
        "locations": "Retail",
        "wines": [
            "Foothills",
            "Young Wine"
        ]
    },
    {
        "id": "Hp7FHgZNuzCSPzS5-cYqW",
        "name": "Founding Farmers - Tyson's Corner",
        "address": {
            "street": "1800 Tyson's Blvd., McLean, VA 22102",
            "lat": "38.9223637",
            "lon": "-77.2224625"
        },
        "locations": "Restaurant",
        "wines": [
            "Rosé"
        ]
    },
    {
        "id": "-fZGaoOENfgsV9SXKUU2Z",
        "name": "Frankly Wines",
        "address": {
            "street": "66 West Broadway, New York, NY 10007",
            "lat": "40.7146846",
            "lon": "-74.0101186"
        },
        "locations": "Retail",
        "wines": [
            "Rosé"
        ]
    },
    {
        "id": "DiAGELYLQj4g9UjGgtJ7y",
        "name": "Friendly City Food Co-op",
        "address": {
            "street": "150 E Wolfe St, Harrisonburg, VA 22802",
            "lat": "38.4516609",
            "lon": "-78.8665291"
        },
        "locations": "Retail",
        "wines": [
            "Pétillant Naturel White",
            "Rosé"
        ]
    },
    {
        "id": "yMHv8gymY31LOYdro0rQI",
        "name": "Glen's Garden Market",
        "address": {
            "street": "2001 S St. NW, Washington, DC 20009",
            "lat": "38.9143274",
            "lon": "-77.0451575"
        },
        "locations": "Restaurant/Retail",
        "wines": [
            "Shenandoah Valley Cabernet Franc",
            "Rosé"
        ]
    },
    {
        "id": "XpGf3BWZfdvDyRwtEIrQa",
        "name": "Good Wine",
        "address": {
            "street": "327 5th Avenue, Brooklyn, NY 11215",
            "lat": "40.6724091",
            "lon": "-73.9833358"
        },
        "locations": "Retail",
        "wines": [
            "Rosé"
        ]
    },
    {
        "id": "xI2Zko_uSXmT9XwT-YvIi",
        "name": "Jackson River Cellars",
        "address": {
            "street": "180 Oakley Farm Ln, Warm Springs, VA 24484",
            "lat": "38.0425248",
            "lon": "-79.7906726"
        },
        "locations": "Retail",
        "wines": [
            "Young Wine",
            "Pétillant Naturel White"
        ]
    },
    {
        "id": "mo-isPoAEKi1qMjSmze0K",
        "name": "J Emerson",
        "address": {
            "street": "5716 Grove Ave, Richmond, VA 23226",
            "lat": "37.5733362",
            "lon": "-77.5180274"
        },
        "locations": "Retail",
        "wines": [
            "Rosé",
            "Foothills"
        ]
    },
    {
        "id": "BFC0_gJo5cdmgPLKRKFlC",
        "name": "Libbie Market",
        "address": {
            "street": "400 Libbie Ave., Richmond, VA 23226",
            "lat": "37.5746309",
            "lon": "-77.5183971"
        },
        "locations": "Retail",
        "wines": [
            "Eluvium"
        ]
    },
    {
        "id": "6IaX_PxrMSxqzJqfN0iDK",
        "name": "Little Red Fox",
        "address": {
            "street": "5035 Connecticut Ave. NW, Washington, DC 20008",
            "lat": "38.9558822",
            "lon": "-77.0699601"
        },
        "locations": "Restaurant/Retail",
        "wines": [
            "Pétillant Naturel White"
        ]
    },
    {
        "id": "6q7_nixLT_fN1JKLRAHFN",
        "name": "La Fromagerie",
        "address": {
            "street": "1222 King St, Alexandria, VA 22314",
            "lat": "38.805648",
            "lon": "-77.053429"
        },
        "locations": "Restaurant/Retail",
        "wines": [
            "Rosé",
            "Pétillant Naturel White",
            "Eluvium",
            "Young Wine"
        ]
    },
    {
        "id": "XrOpgXC0Ox77maNYNtCZ5",
        "name": "Market Street Wine Shop",
        "address": {
            "street": "311 East Market St, Charlottesville, VA 22902",
            "lat": "38.0310663",
            "lon": "-78.4789692"
        },
        "locations": "Retail",
        "wines": [
            "Rosé",
            "Pétillant Naturel Red"
        ]
    },
    {
        "id": "OFLe2UE2Vinr-JFa-Nfy-",
        "name": "Norm's Beer & Wine",
        "address": {
            "street": "136 Branch Rd SE, Vienna, VA 22180",
            "lat": "38.9062317",
            "lon": "-77.257151"
        },
        "locations": "Retail",
        "wines": [
            "Rosé",
            "Five Forks",
            "Shenandoah Valley Cabernet Franc"
        ]
    },
    {
        "id": "01e2f2wjwEEuhHi6hQhv1",
        "name": "Nota Bene",
        "address": {
            "street": "2110 E Main St., Richmond, VA 23223",
            "lat": "37.5311605",
            "lon": "-77.4243981"
        },
        "locations": "Restaurant",
        "wines": [
            "Five Forks"
        ]
    },
    {
        "id": "VvGwGq3CJGCXuoP14IkUZ",
        "name": "Organic Butcher of McLean",
        "address": {
            "street": "6712 Old Dominion Drive, McLean, VA 22101",
            "lat": "38.9335412",
            "lon": "-77.1758584"
        },
        "locations": "Retail",
        "wines": [
            "Five Forks",
            "Rosé",
            "Young Wine"
        ]
    },
    {
        "id": "c16V_oegpD7ifAqLwangj",
        "name": "Outpost",
        "address": {
            "street": "4813 Forest Hill Ave., Richmond, VA 23225",
            "lat": "37.5211852",
            "lon": "-77.4878087"
        },
        "locations": "Retail",
        "wines": [
            "Young Wine"
        ]
    },
    {
        "id": "m87kykYYgYOKKN0JCnHfa",
        "name": "Pendulum Fine Meats",
        "address": {
            "street": "820 Shirley Avenue, Norfolk, VA 23517",
            "lat": "36.8683635",
            "lon": "-76.2987524"
        },
        "locations": "Retail",
        "wines": [
            "Rosé",
            "Young Wine",
            "Five Forks"
        ]
    },
    {
        "id": "xByORLX8_zBGYehfxOOLK",
        "name": "Red Hen-DC",
        "address": {
            "street": "1822 1st St. NW, Washington, DC 20001",
            "lat": "38.9149738",
            "lon": "-77.0124095"
        },
        "locations": "Restaurant",
        "wines": [
            "Rosé",
            "Petit Manseng"
        ]
    },
    {
        "id": "vPxxmZ4H9MjeLmDOK0Roy",
        "name": "Prosperity Kitchen & Pantry",
        "address": {
            "street": "532 Virginia Beach Blvd Ste B, Virginia Beach, VA 23451",
            "lat": "36.8444829",
            "lon": "-75.9806406"
        },
        "locations": "Restaurant",
        "wines": [
            "Foothills"
        ]
    },
    {
        "id": "Tw0TRM-eLSxjMs9mjADHG",
        "name": "Screwtop",
        "address": {
            "street": "1025 Fillmore St. N, Arlington, VA 22201",
            "lat": "38.8859072",
            "lon": "-77.0926894"
        },
        "locations": "Restaurant/Retail",
        "wines": [
            "Eluvium"
        ]
    },
    {
        "id": "FC3Bm6zf57ub_ZLsSS7ho",
        "name": "Succotash",
        "address": {
            "street": "915 F St. NW, Washington, DC 20004",
            "lat": "38.897644",
            "lon": "-77.02474"
        },
        "locations": "Restaurant",
        "wines": [
            "Five Forks"
        ]
    },
    {
        "id": "uZ_GdhuCGwkkVOJuYZxH_",
        "name": "Ten Sushi",
        "address": {
            "street": "120B East Main St, Charlottesville, VA 22902",
            "lat": "38.0303542",
            "lon": "-78.4810329"
        },
        "locations": "Restaurant",
        "wines": [
            "Rosé"
        ]
    },
    {
        "id": "d_rHl0gsvbnR8dv0_Aq3V",
        "name": "The Inn at Meander Plantation",
        "address": {
            "street": "2333 N James Madison Hwy, Locust Dale, VA 22948",
            "lat": "38.3494656",
            "lon": "-78.118313"
        },
        "locations": "Restaurant",
        "wines": [
            "Rosé",
            "Petit Manseng",
            "Foothills",
            "Shenandoah Valley Cabernet Franc"
        ]
    },
    {
        "id": "f6IAydUw2sxZ3lNQWYi0d",
        "name": "The Market at Grelen",
        "address": {
            "street": "15091 Yager Rd, Somerset, VA 22972",
            "lat": "38.199417",
            "lon": "-78.194607"
        },
        "locations": "Restaurant/Retail",
        "wines": [
            "Rosé",
            "Chardonnay"
        ]
    },
    {
        "id": "WHiKPyefLXugQ6HNpguqI",
        "name": "Thamee",
        "address": {
            "street": "1320 H St NE, Washington, DC 20002",
            "lat": "38.9004226",
            "lon": "-76.9874602"
        },
        "locations": "Restaurant",
        "wines": [
            "Young Wine"
        ]
    },
    {
        "id": "OhGWnnYMDMy8pbmzul_ET",
        "name": "Town Duck",
        "address": {
            "street": "100 Main St, Warrenton, VA 20186",
            "lat": "38.7122701",
            "lon": "-77.7930779"
        },
        "locations": "Retail",
        "wines": [
            "Rosé",
            "Foothills",
            "Eluvium",
            "Five Forks"
        ]
    },
    {
        "id": "mhzfjci0Ha7IVGMMYtUdL",
        "name": "Thornton River Grille",
        "address": {
            "street": "Thornton River Grille, Sperryville, VA 22740",
            "lat": "38.6525114",
            "lon": "-78.2667447"
        },
        "locations": "Restaurant",
        "wines": [
            "Foothills",
            "Rosé",
            "Young Wine"
        ]
    },
    {
        "id": "RpIwGdGRMvHW5uBS3t8pg",
        "name": "Westside Produce & Provisions",
        "address": {
            "street": "5015 Colley Ave., Norfolk, VA 23508",
            "lat": "36.8890919",
            "lon": "-76.2954496"
        },
        "locations": "Retail",
        "wines": [
            "Five Forks",
            "Chardonnay",
            "Rosé"
        ]
    },
    {
        "id": "kUzk4N1czOcpkATMGSN5G",
        "name": "Unwined Belle View",
        "address": {
            "street": "1600 Belle View Blvd., Alexandria, VA 22307",
            "lat": "38.7761672",
            "lon": "-77.0597746"
        },
        "locations": "Retail",
        "wines": [
            "Eluvium",
            "Shenandoah Valley Cabernet Franc"
        ]
    },
    {
        "id": "2jxl4UFi07huqn6lWNYcd",
        "name": "Whole Foods - Arlington",
        "address": {
            "street": "2700 Wilson Blvd., Arlington, VA 22201",
            "lat": "38.8892254",
            "lon": "-77.0912401"
        },
        "locations": "Restaurant/Retail",
        "wines": [
            "Five Forks",
            "Rosé"
        ]
    },
    {
        "id": "s0QKUMyynKzMjfnYo5Ir3",
        "name": "Whole Foods - Short Pump",
        "address": {
            "street": "11173 West Broad St., Richmond, VA 23060",
            "lat": "37.6475665",
            "lon": "-77.5997292"
        },
        "locations": "Restaurant/Retail",
        "wines": [
            "Rosé",
            "Foothills"
        ]
    },
    {
        "id": "ssuRRAsS2vfuZaPQhGrD1",
        "name": "Whole Foods - Boro Tysons",
        "address": {
            "street": "1635 Boro Place, McLean, VA 22102",
            "lat": "38.9246153",
            "lon": "-77.2335301"
        },
        "locations": "Restaurant/Retail",
        "wines": [
            "Rosé",
            "Five Forks"
        ]
    },
    {
        "id": "Rg9v3x7HjRt5bBN4GBHnT",
        "name": "Whole Foods - South Capitol Hill",
        "address": {
            "street": "101 H St. SE, Washington, DC 20003",
            "lat": "38.8802819",
            "lon": "-77.005121"
        },
        "locations": "Restaurant/Retail",
        "wines": [
            "Rosé",
            "Five Forks"
        ]
    },
    {
        "id": "vOXXVT6NXylWUkTQuBVkp",
        "name": "Wine Guild",
        "address": {
            "street": "221 Carlton Rd, Suite 1, Charlottesville, VA 22902",
            "lat": "38.0236619",
            "lon": "-78.4696887"
        },
        "locations": "Retail",
        "wines": [
            "Young Wine",
            "Rosé",
            "Shenandoah Valley Cabernet Franc"
        ]
    },
    {
        "id": "8CB_15FhJym1YcaspjpWP",
        "name": "Wool Factory, The",
        "address": {
            "street": "1837 Broadway Street, Charlottesville, VA 22902",
            "lat": "38.0201796",
            "lon": "-78.4580027"
        },
        "locations": "Restaurant/Retail",
        "wines": [
            "Foothills",
            "Rosé",
            "Eluvium",
            "Five Forks",
            "Pétillant Naturel White",
            "Young Wine",
            "RISE"
        ]
    },
    {
        "id": "zROkyfeQF5UMsSnc9iEYy",
        "name": "Williamsburg Winery",
        "address": {
            "street": "5800 Wessex Hundred, Williamsburg, VA 23185",
            "lat": "37.2315138",
            "lon": "-76.718275"
        },
        "locations": "Restaurant/Retail",
        "wines": [
            "Rosé",
            "Eluvium"
        ]
    },
    {
        "id": "_DzsIpcUsB8yFdhT_I5Fh",
        "name": "313 Franklin",
        "address": {
            "street": "313 Franklin Street, South Hill, VA 23970",
            "lat": "36.726272",
            "lon": "-78.1245498"
        },
        "locations": "Restaurant/Retail",
        "wines": [
            "Chardonnay",
            "Petit Manseng",
            "Shenandoah Valley Cabernet Franc"
        ]
    },
    {
        "id": "Ijau-uHLZ4u47-Mkirl78",
        "name": "Balducci's - Alexandria",
        "address": {
            "street": "600 Franklin St, Alexandria, VA 22314",
            "lat": "38.7978102",
            "lon": "-77.0479011"
        },
        "locations": "Retail",
        "wines": [
            "Chardonnay",
            "Eluvium",
            "Young Wine",
            "Rosé",
            "RISE"
        ]
    },
    {
        "id": "WDrYfnBaRs2AOT7_Hv7gR",
        "name": "Copake Wine Works",
        "address": {
            "street": "69 Main St, Copake, NY 12516",
            "lat": "42.1040725",
            "lon": "-73.5494551"
        },
        "locations": "Restaurant/Retail",
        "wines": [
            "Chardonnay"
        ]
    },
    {
        "id": "GojpIOLXgsrQvT4dnsPYu",
        "name": "Olivino",
        "address": {
            "street": "905 Fulton Street, Broooklyn, NY 11238",
            "lat": "40.6837237",
            "lon": "-73.9671635"
        },
        "locations": "Retail",
        "wines": [
            "Chardonnay",
            "Rosé"
        ]
    },
    {
        "id": "ImLmq7BY0l1E1eKnRGZnZ",
        "name": "White Moose Inn",
        "address": {
            "street": "291 Main St., Washington, VA 22747",
            "lat": "38.7123391",
            "lon": "-78.16034"
        },
        "locations": "Restaurant",
        "wines": [
            "Chardonnay",
            "Quaker Run Chardonnay",
            "Foothills"
        ]
    },
    {
        "id": "iJXikkV2tSKZrx9NrJvFw",
        "name": "Buckhead's Chop House",
        "address": {
            "street": "8510 Patterson Ave., Richmond, VA 23229",
            "lat": "37.5951667",
            "lon": "-77.5639423"
        },
        "locations": "Restaurant",
        "wines": [
            "Eluvium"
        ]
    },
    {
        "id": "f2ISpMVKHd7B4P3T8aOfk",
        "name": "Lafayette Inn",
        "address": {
            "street": "146 Main St, Stanardsville, VA 22973",
            "lat": "38.2973151",
            "lon": "-78.4385435"
        },
        "locations": "Restaurant",
        "wines": [
            "Eluvium",
            "Five Forks",
            "Shenandoah Valley Cabernet Franc"
        ]
    },
    {
        "id": "TDzT5JC2SV-i29Q1744rj",
        "name": "Mom's Apple Pie",
        "address": {
            "street": "126 A Commerce St, Occoquan Historic Dist., VA 22125",
            "lat": "38.6822873",
            "lon": "-77.2600693"
        },
        "locations": "Retail",
        "wines": [
            "Eluvium",
            "Pétillant Naturel White",
            "Petit Manseng"
        ]
    },
    {
        "id": "zDnsiZR4xOLZC7O08iiC_",
        "name": "Mom's Apple Pie Hill High",
        "address": {
            "street": "35246 Harry Byrd Hwy Ste. 100, Round Hill, VA 20141",
            "lat": "39.1277991",
            "lon": "-77.7873132"
        },
        "locations": "Retail",
        "wines": [
            "Eluvium",
            "Pétillant Naturel White",
            "Shenandoah Valley Cabernet Franc"
        ]
    },
    {
        "id": "rhyiYUyaZUos-7nVPyu6j",
        "name": "Hazel Jane's",
        "address": {
            "street": "670 Dekalb Ave, Atlanta, GA 30307",
            "lat": "33.7535491",
            "lon": "-84.3655673"
        },
        "locations": "Restaurant/Retail",
        "wines": [
            "Five Forks"
        ]
    },
    {
        "id": "9s_9hpp05d9zpow49CVbd",
        "name": "Roosevelt",
        "address": {
            "street": "623 N. 25th St., Richmond, VA 23223",
            "lat": "37.534897",
            "lon": "-77.4154189"
        },
        "locations": "Restaurant",
        "wines": [
            "Five Forks"
        ]
    },
    {
        "id": "1YvVfYY-pr9MwWGfFR50p",
        "name": "Tall Boy Beverage Co.",
        "address": {
            "street": "2095 South Milledge, Athens, GA 30605",
            "lat": "33.9229175",
            "lon": "-83.377894"
        },
        "locations": "Restaurant/Retail",
        "wines": [
            "Five Forks",
            "Rosé"
        ]
    },
    {
        "id": "bazSVB9uGCzAP6h5owvE7",
        "name": "Whole Foods - Florida Ave",
        "address": {
            "street": "FAV - BU# 10651, Washington, DC 20001",
            "lat": "38.912068",
            "lon": "-77.0190228"
        },
        "locations": "Restaurant/Retail",
        "wines": [
            "Five Forks",
            "Rosé"
        ]
    },
    {
        "id": "L63pQsSvq6XvTgp9qr3Qu",
        "name": "Whole Foods - Tenley",
        "address": {
            "street": "4530 40th Street NW, Washington, DC 20016",
            "lat": "38.9490789",
            "lon": "-77.0792007"
        },
        "locations": "Restaurant/Retail",
        "wines": [
            "Five Forks",
            "Rosé"
        ]
    },
    {
        "id": "QQqblNvgAHsBlZAy__zOJ",
        "name": "Wool Factory, The",
        "address": {
            "street": "1837 Broadway Street, Charlottesville, VA 22902",
            "lat": "38.0195964",
            "lon": "-78.4553634"
        },
        "locations": "Restaurant/Retail",
        "wines": [
            "Five Forks",
            "Foothills",
            "Rosé",
            "Young Wine",
            "Pétillant Naturel White"
        ]
    },
    {
        "id": "P7so2oE0sfHy0ZokMJkzd",
        "name": "Each Peach Market",
        "address": {
            "street": "3068 Mt Pleasant St NW, Washington, DC 20009",
            "lat": "38.928548",
            "lon": "-77.0375272"
        },
        "locations": "Restaurant/Retail",
        "wines": [
            "Foothills"
        ]
    },
    {
        "id": "4jthab0oF4xhdPM9Sxbyr",
        "name": "Shields Market",
        "address": {
            "street": "206 North Shields Avenue, Richmond, VA 23220",
            "lat": "37.5530887",
            "lon": "-77.4668696"
        },
        "locations": "Restaurant/Retail",
        "wines": [
            "Foothills"
        ]
    },
    {
        "id": "a3cB_TCo6cp_wwoXY2UjQ",
        "name": "Whole Foods - Springfield",
        "address": {
            "street": "8402 Old Keene Mill Road, Springfield, VA 22152",
            "lat": "38.7796348",
            "lon": "-77.2343247"
        },
        "locations": "Restaurant/Retail",
        "wines": [
            "Foothills",
            "Rosé"
        ]
    },
    {
        "id": "bzGCvoDnHjOkNPr_doty5",
        "name": "Irving Bottle",
        "address": {
            "street": "155 Irving Ave, Brooklyn, NY 11237",
            "lat": "40.7026833",
            "lon": "-73.9205791"
        },
        "locations": "Retail",
        "wines": [
            "Pétillant Naturel White",
            "Young Wine"
        ]
    },
    {
        "id": "CSmqJjwAuSUBkDDVdPm4A",
        "name": "Little Red Fox",
        "address": {
            "street": "5035 Connecticut Ave. NW, Washington, DC 20008",
            "lat": "38.9558822",
            "lon": "-77.0699601"
        },
        "locations": "Restaurant/Retail",
        "wines": [
            "Pétillant Naturel White"
        ]
    },
    {
        "id": "HMK90s9fRYhQIctaD9q16",
        "name": "Mom's Apple Pie Hill High",
        "address": {
            "street": "35246 Harry Byrd Hwy Ste. 100, Round Hill, VA 20141",
            "lat": "39.1277991",
            "lon": "-77.7873132"
        },
        "locations": "Retail",
        "wines": [
            "Petit Manseng",
            "Shenandoah Valley Cabernet Franc"
        ]
    },
    {
        "id": "pitGIxs2kGDCJ5qYN_xat",
        "name": "Slope Cellars",
        "address": {
            "street": "436 7th Ave, Brooklyn, NY 11215",
            "lat": "40.6635697",
            "lon": "-73.9846443"
        },
        "locations": "Restaurant/Retail",
        "wines": [
            "Quaker Run Chardonnay",
            "Young Wine"
        ]
    },
    {
        "id": "iaFKWwcCT3wJ7kip7XN5F",
        "name": "All Purpose Pizzeria - Waterfront",
        "address": {
            "street": "79 Potomac Ave SE, Washington, DC 20003",
            "lat": "38.871234",
            "lon": "-77.0072947"
        },
        "locations": "Restaurant",
        "wines": [
            "Rosé"
        ]
    },
    {
        "id": "9DiDlq6aiaRslAL8KGSSI",
        "name": "Barcelona Wine Store",
        "address": {
            "street": "280 Elizabeth Street, Atlanta, GA 30307",
            "lat": "33.7620933",
            "lon": "-84.3583112"
        },
        "locations": "Restaurant/Retail",
        "wines": [
            "Rosé"
        ]
    },
    {
        "id": "EUfZxx7t0u8lorHYGEvJv",
        "name": "Glen Manor Vineyards LLC",
        "address": {
            "street": "2244 Browntown Road, Front Royal, VA 22630",
            "lat": "38.840197",
            "lon": "-78.228299"
        },
        "locations": "Restaurant",
        "wines": [
            "Rosé"
        ]
    },
    {
        "id": "dt-Vw_EH9voKm59hnrQCg",
        "name": "Kinship",
        "address": {
            "street": "1015 7th St NW, Washington, DC 20001",
            "lat": "38.9035135",
            "lon": "-77.0216296"
        },
        "locations": "Restaurant",
        "wines": [
            "Rosé"
        ]
    },
    {
        "id": "kK8BxaJHzyp3Clnt2o0o_",
        "name": "Red Hen-DC",
        "address": {
            "street": "1822 1st St. NW, Washington, DC 20001",
            "lat": "38.9149738",
            "lon": "-77.0124095"
        },
        "locations": "Restaurant",
        "wines": [
            "Rosé"
        ]
    },
    {
        "id": "I2Kyh_Lte892HRXVBKN5Y",
        "name": "Sorso Wine Boutique",
        "address": {
            "street": "1069 Bedford Ave, Brooklyn, NY 11216",
            "lat": "40.6874318",
            "lon": "-73.954402"
        },
        "locations": "Retail",
        "wines": [
            "Rosé",
            "RISE"
        ]
    },
    {
        "id": "PDgXTv-mWUz5wj5mAmp22",
        "name": "My Friends Bottle Shop",
        "address": {
            "street": "275 Memorial Drive SE, Atlanta, GA 30312",
            "lat": "33.7464701",
            "lon": "-84.3784358"
        },
        "locations": "Restaurant/Retail",
        "wines": [
            "Rosé"
        ]
    },
    {
        "id": "F0PuQMe2PsVFV0bD6G48g",
        "name": "Unwined Bradlee Shopping Center",
        "address": {
            "street": "3690-J King St, Alexandria, VA 22302",
            "lat": "38.8296628",
            "lon": "-77.0921948"
        },
        "locations": "Retail",
        "wines": [
            "Rosé"
        ]
    },
    {
        "id": "Ruli9gnttjbfJJhyj9T-M",
        "name": "Whole Foods - Charlottesville",
        "address": {
            "street": "1797 Hydraulic Road, Charlottesville, VA 22901",
            "lat": "38.059773",
            "lon": "-78.4891351"
        },
        "locations": "Restaurant/Retail",
        "wines": [
            "Rosé"
        ]
    },
    {
        "id": "x_TippCANQbqyN6Jy3Ukz",
        "name": "Whole Foods - Old Town",
        "address": {
            "street": "1700 Duke Street, Alexandria, VA 22314",
            "lat": "38.8041416",
            "lon": "-77.0600615"
        },
        "locations": "Restaurant/Retail",
        "wines": [
            "Rosé",
            "Foothills"
        ]
    },
    {
        "id": "1R_hdFix_X71vOPq5C-Ap",
        "name": "Whole Foods - Florida Ave",
        "address": {
            "street": "FAV - BU# 10651, Washington, DC 20001",
            "lat": "38.912068",
            "lon": "-77.0190228"
        },
        "locations": "Restaurant/Retail",
        "wines": [
            "Rosé",
            "Five Forks"
        ]
    },
    {
        "id": "Lx3HHHpB70T2jhMQzZggo",
        "name": "Whole Foods - South Capitol Hill",
        "address": {
            "street": "101 H St. SE, Washington, DC 20003",
            "lat": "38.8802819",
            "lon": "-77.005121"
        },
        "locations": "Restaurant/Retail",
        "wines": [
            "Rosé"
        ]
    },
    {
        "id": "9s_wydvkbQdeMg9enybI0",
        "name": "Primland Resort",
        "address": {
            "street": "2000 Busted Rock Road, Meadows of Dan, VA 24120",
            "lat": "36.6617827",
            "lon": "-80.4318697"
        },
        "locations": "Restaurant",
        "wines": [
            "Shenandoah Valley Cabernet Franc"
        ]
    },
    {
        "id": "8MZ0YKtCxkeV4zrJueTBV",
        "name": "Green Room, The",
        "address": {
            "street": "130 W Beverly St, Staunton, VA 24401",
            "lat": "38.15216",
            "lon": "-79.1136552"
        },
        "locations": "Restaurant",
        "wines": [
            "Young Wine"
        ]
    },
    {
        "id": "pngc1AF4aa_l-Ll6YMlm5",
        "name": "Rosemont of Virginia (Farm Winery)",
        "address": {
            "street": "1050 Blackridge Rd., La Crosse, VA 23950",
            "lat": "36.5883045",
            "lon": "-78.0661485"
        },
        "locations": "Restaurant",
        "wines": [
            "Young Wine"
        ]
    },
    {
        "id": "js3y40jYXHsV0ZJ3Ki4_g",
        "name": "Oyster Oyster",
        "address": {
            "street": "1440 8th Street NW, Washington, DC 20001",
            "lat": "38.9092538",
            "lon": "-77.0231184"
        },
        "locations": "Restaurant",
        "wines": [
            "Young Wine"
        ]
    },
    {
        "id": "wvNBOipPqvn7ndKF2LOKc",
        "name": "Shack, The",
        "address": {
            "street": "105 S. Coalter St., Staunton, VA 24401",
            "lat": "38.148151",
            "lon": "-79.0681357"
        },
        "locations": "Restaurant",
        "wines": [
            "Young Wine"
        ]
    },
    {
        "id": "puDwUqXIWNIUvT07FvODY",
        "name": "Vanderbilt Wine Merchants",
        "address": {
            "street": "573 Vanderbilt Ave, Broooklyn, NY 11238",
            "lat": "40.6805749",
            "lon": "-73.9674951"
        },
        "locations": "Restaurant/Retail",
        "wines": [
            "Young Wine",
            "Eluvium"
        ]
    },
    {
        "id": "hTSzRwmDUR0kWUHlFhCOx",
        "name": "Wine Guild",
        "address": {
            "street": "221 Carlton Rd, Suite 1, Charlottesville, VA 22902",
            "lat": "38.0236619",
            "lon": "-78.4696887"
        },
        "locations": "Retail",
        "wines": [
            "Young Wine"
        ]
    },
    {
        "id": "Ah58c4aumhK3TbdnxtHao",
        "name": "Wine Warehouse",
        "address": {
            "street": "1804 Hydraulic Rd, Charlottesville, VA 22902",
            "lat": "38.0607943",
            "lon": "-78.4914214"
        },
        "locations": "Retail",
        "wines": [
            "Young Wine",
            "Foothills",
            "Shenandoah Valley Cabernet Franc",
            "RISE"
        ]
    },
    {
        "id": "hpYiQlfMFuHCN7u4tzyVt",
        "name": "Wool Factory, The",
        "address": {
            "street": "1837 Broadway Street, Charlottesville, VA 22902",
            "lat": "38.0195964",
            "lon": "-78.4553634"
        },
        "locations": "Restaurant/Retail",
        "wines": [
            "Young Wine",
            "Pétillant Naturel White"
        ]
    },
    {
        "id": "LZeirJRGyRfHQuzR_qcf1",
        "name": "2941 Restaurant",
        "address": {
            "street": "2941 Fairview Park Dr, Falls Church, VA 22042",
            "lat": "38.8689164",
            "lon": "-77.2148275"
        },
        "locations": "Restaurant",
        "wines": [
            "Shenandoah Valley Cabernet Franc",
            "Foothills"
        ]
    },
    {
        "id": "_ZggA4OETkU_vT1Eyd3Ea",
        "name": "Amber Ox Kitchen & Brewery",
        "address": {
            "street": "521 Prince George St., Williamsburg, VA 23185",
            "lat": "37.272864",
            "lon": "-76.708414"
        },
        "locations": "Restaurant",
        "wines": [
            "Foothills",
            "Five Forks"
        ]
    },
    {
        "id": "tpJXxkXXNfUPWoNhc4OkJ",
        "name": "Arrowine",
        "address": {
            "street": "4508 Lee Hwy, Arlington, VA 22207",
            "lat": "38.8983733",
            "lon": "-77.1183586"
        },
        "locations": "Retail",
        "wines": [
            "Shenandoah Valley Cabernet Franc"
        ]
    },
    {
        "id": "_qrG4VxGwmPZmuOWTVxOC",
        "name": "Astor Wines & Spirits",
        "address": {
            "street": "399 Lafayette St, New York, NY 10003",
            "lat": "40.7279823",
            "lon": "-73.9926938"
        },
        "locations": "Retail",
        "wines": [
            "Chardonnay"
        ]
    },
    {
        "id": "zJ0qzHEUJuHA5Q_bDgSUT",
        "name": "Caboose",
        "address": {
            "street": "108 S. Railroad Ave., Ashland, VA 23005",
            "lat": "37.758286",
            "lon": "-77.4816338"
        },
        "locations": "Restaurant/Retail",
        "wines": [
            "Rosé"
        ]
    },
    {
        "id": "WHy2H63FYJyKe0wqLaKdB",
        "name": "Chat's Liquor",
        "address": {
            "street": "503 8th St SE, Washington, DC 20003",
            "lat": "38.8825132",
            "lon": "-76.9952785"
        },
        "locations": "Retail",
        "wines": [
            "Young Wine"
        ]
    },
    {
        "id": "Q64m9QkYQFlScCKmTzl2a",
        "name": "Field & Main",
        "address": {
            "street": "8369 W. Main St., Marshall, VA 20115",
            "lat": "38.8647631",
            "lon": "-77.8574303"
        },
        "locations": "Restaurant/Retail",
        "wines": [
            "F & M Red",
            "Rosé"
        ]
    },
    {
        "id": "uBIpSlPpruUTFKSQRDb4A",
        "name": "Clay Restaurant",
        "address": {
            "street": "553 Manhattan Ave , Manhattan, NY 10027",
            "lat": "40.809486",
            "lon": "-73.9538229"
        },
        "locations": "Restaurant",
        "wines": [
            "Rosé"
        ]
    },
    {
        "id": "ieq5g1JGALZsG4eHwQNeC",
        "name": "Founding Farmers - Reston",
        "address": {
            "street": "1904 Reston Metro Plaza, Suite 100, Reston, VA 20190",
            "lat": "38.9488917",
            "lon": "-77.3383807"
        },
        "locations": "Restaurant",
        "wines": [
            "Rosé"
        ]
    },
    {
        "id": "f4N31srmR-9usqmoPVnmz",
        "name": "Henry's",
        "address": {
            "street": "69 Central Ave., Brooklyn, NY 11206",
            "lat": "40.701166",
            "lon": "-73.9302185"
        },
        "locations": "Retail",
        "wines": [
            "Young Wine"
        ]
    },
    {
        "id": "nS8tZtZsLIx2RilFB55H_",
        "name": "Irving Bottle",
        "address": {
            "street": "157 Irving Ave, Brooklyn, NY 10013",
            "lat": "40.7027192",
            "lon": "-73.920458"
        },
        "locations": "Retail",
        "wines": [
            "Young Wine"
        ]
    },
    {
        "id": "FqO8djj7ABwN7_HJpjz4w",
        "name": "La Fromagerie",
        "address": {
            "street": "1222 King St, Alexandria, VA 22314",
            "lat": "38.805648",
            "lon": "-77.053429"
        },
        "locations": "Restaurant/Retail",
        "wines": [
            "Young Wine"
        ]
    },
    {
        "id": "Ia5Du2f-HmncNJDD7CFMs",
        "name": "Lafayette Inn",
        "address": {
            "street": "146 Main St, Stanardsville, VA 22973",
            "lat": "38.2973151",
            "lon": "-78.4385435"
        },
        "locations": "Restaurant",
        "wines": [
            "Five Forks"
        ]
    },
    {
        "id": "ddrU8hb6Y4RmD6jM0aao7",
        "name": "Newtown Baking",
        "address": {
            "street": "960 W Beverlely Street, Staunton, VA 24400",
            "lat": "38.1498989",
            "lon": "-79.0827541"
        },
        "locations": "Retail",
        "wines": [
            "Foothills"
        ]
    },
    {
        "id": "X7qT7kKWeZ4083ZBSXWu7",
        "name": "Pendulum Fine Meats",
        "address": {
            "street": "820 Shirley Avenue, Norfolk, VA 23517",
            "lat": "36.8683635",
            "lon": "-76.2987524"
        },
        "locations": "Retail",
        "wines": [
            "Young Wine",
            "Foothills"
        ]
    },
    {
        "id": "9gjvwjRDf_xVA5PRZl0FX",
        "name": "River and Rail",
        "address": {
            "street": "2201 Crystal Spring Ave. SW, Roanoke, VA 24014",
            "lat": "37.2487077",
            "lon": "-79.9468159"
        },
        "locations": "Restaurant",
        "wines": [
            "Foothills"
        ]
    },
    {
        "id": "dnIPNENjuChaQXKnqVoF1",
        "name": "Swirl & Sip",
        "address": {
            "street": "2905 District Ave. Ste. 112, Fairfax, VA 22031",
            "lat": "38.8733231",
            "lon": "-77.229401"
        },
        "locations": "Retail",
        "wines": [
            "Rosé"
        ]
    },
    {
        "id": "gvFFaVg-8FLQ4HR3XdamO",
        "name": "Taste - Headquarters",
        "address": {
            "street": "1391 Air Rail Avenue, Virginia Beach, VA 23455",
            "lat": "36.8929573",
            "lon": "-76.1918905"
        },
        "locations": "Restaurant/Retail",
        "wines": [
            "Rosé"
        ]
    },
    {
        "id": "asZM_1SrmZLj6o9fHcc46",
        "name": "Virginia Cheese Company",
        "address": {
            "street": "501 Botetourt Street, Norfolk, VA 23510",
            "lat": "36.8528816",
            "lon": "-76.2961736"
        },
        "locations": "Retail",
        "wines": [
            "Petit Manseng",
            "Rosé"
        ]
    },
    {
        "id": "QIQE2XZw9E2j7QxylGe1i",
        "name": "Thornton River Grille",
        "address": {
            "street": "Thornton River Grille, Sperryville, VA 22740",
            "lat": "38.6573169",
            "lon": "-78.2267817"
        },
        "locations": "Restaurant",
        "wines": [
            "Rosé"
        ]
    },
    {
        "id": "DmTA7tWGZNXr_WPkOPX3Z",
        "name": "Westside Produce & Provisions",
        "address": {
            "street": "5015 Colley Ave., Norfolk, VA 23508",
            "lat": "36.8890972",
            "lon": "-76.2954949"
        },
        "locations": "Retail",
        "wines": [
            "Young Wine",
            "Pétillant Naturel White"
        ]
    },
    {
        "id": "Tu8pPM07MMlmBsVv4QK0Z",
        "name": "Whole Foods - Arlington",
        "address": {
            "street": "2700 Wilson Blvd., Arlington, VA 22201",
            "lat": "38.8892254",
            "lon": "-77.0912401"
        },
        "locations": "Restaurant/Retail",
        "wines": [
            "Rosé"
        ]
    },
    {
        "id": "CVjqKT_E58dDnyd3DMX_-",
        "name": "Whole Foods - Boro Tysons",
        "address": {
            "street": "1635 Boro Place, McLean, VA 22102",
            "lat": "38.9246164",
            "lon": "-77.2334974"
        },
        "locations": "Restaurant/Retail",
        "wines": [
            "Rosé"
        ]
    },
    {
        "id": "Gu5ULPw7-NXuMPvsBr0ln",
        "name": "Whole Foods - Old Town",
        "address": {
            "street": "1700 Duke Street, Alexandria, VA 22314",
            "lat": "38.8041416",
            "lon": "-77.0600615"
        },
        "locations": "Restaurant/Retail",
        "wines": [
            "Rosé"
        ]
    },
    {
        "id": "zES4GCuA3nGCuEZS2J_3k",
        "name": "Whole Foods - Short Pump",
        "address": {
            "street": "11173 West Broad St., Richmond, VA 23060",
            "lat": "37.6475665",
            "lon": "-77.5997292"
        },
        "locations": "Restaurant/Retail",
        "wines": [
            "Rosé"
        ]
    },
    {
        "id": "u74znjzWI7vR-uhLwnl7u",
        "name": "Whole Foods - Tysons",
        "address": {
            "street": "7511 Leesburg Pike, Falls Church, VA 22043",
            "lat": "38.903442",
            "lon": "-77.2044823"
        },
        "locations": "Restaurant/Retail",
        "wines": [
            "Foothills"
        ]
    },
    {
        "id": "OiJXS_zy9rSLX3XlqCc09",
        "name": "Wine Warehouse",
        "address": {
            "street": "1804 Hydraulic Rd, Charlottesville, VA 22902",
            "lat": "38.0607943",
            "lon": "-78.4914214"
        },
        "locations": "Retail",
        "wines": [
            "Chardonnay",
            "Shenandoah Valley Cabernet Franc",
            "RISE"
        ]
    },
    {
        "id": "NOHgGExMSQTOms-NMVcbn",
        "name": "Wool Factory, The",
        "address": {
            "street": "1837 Broadway Street, Charlottesville, VA 22902",
            "lat": "38.0195964",
            "lon": "-78.4553634"
        },
        "locations": "Restaurant/Retail",
        "wines": [
            "Young Wine"
        ]
    },
    {
        "id": "TuHeNIBgoRPcwfFlA51GL",
        "name": "Zynodoa",
        "address": {
            "street": "115 E Beverly St, Staunton, VA 24401",
            "lat": "38.149814",
            "lon": "-79.0709713"
        },
        "locations": "Restaurant",
        "wines": [
            "Petit Manseng",
            "Eluvium"
        ]
    },
    {
        "id": "KBCOpkqmmiJVwZ6QTu73o",
        "name": "313 Franklin",
        "address": {
            "street": "313 Franklin Street, South Hill, VA 23970",
            "lat": "36.726272",
            "lon": "-78.1245498"
        },
        "locations": "Restaurant/Retail",
        "wines": [
            "Foothills"
        ]
    },
    {
        "id": "U1_KohO1Bu_dB1yfc5oep",
        "name": "Alley Light",
        "address": {
            "street": "108 2nd St. SW, Charlottesville, VA 22902",
            "lat": "38.0305995",
            "lon": "-78.482276"
        },
        "locations": "Restaurant",
        "wines": [
            "Shenandoah Valley Cabernet Franc",
            "RISE"
        ]
    },
    {
        "id": "I94OnTaACEm-RGFlWN0X8",
        "name": "Amber Ox Kitchen & Brewery",
        "address": {
            "street": "521 Prince George St., Williamsburg, VA 23185",
            "lat": "37.272864",
            "lon": "-76.708414"
        },
        "locations": "Restaurant",
        "wines": [
            "Foothills"
        ]
    },
    {
        "id": "aPeFgEzoeYEP9rDfahk29",
        "name": "Bottleworks",
        "address": {
            "street": "3078 Stony Point Rd., Richmond, VA 23235",
            "lat": "37.537796",
            "lon": "-77.5651916"
        },
        "locations": "Retail",
        "wines": [
            "Foothills"
        ]
    },
    {
        "id": "ovSnYb3HfPxBUj5mPyodv",
        "name": "Calvert Woodley",
        "address": {
            "street": "4339 Connecticut Ave NW, Washington, DC 20008",
            "lat": "38.945234",
            "lon": "-77.063612"
        },
        "locations": "Retail",
        "wines": [
            "Chardonnay",
            "Eluvium"
        ]
    },
    {
        "id": "Zy68WkkAfChqzTR692j9G",
        "name": "Broad Branch Market",
        "address": {
            "street": "5608 Broad Branch Rd NW, Washington, DC 20015",
            "lat": "38.9655874",
            "lon": "-77.0687234"
        },
        "locations": "Retail",
        "wines": [
            "Chardonnay"
        ]
    },
    {
        "id": "KFJk43qqS-tDpL4Y6ymzE",
        "name": "Commune - Norfolk",
        "address": {
            "street": "759 Granby St., Norfolk, VA 23510",
            "lat": "36.8562717",
            "lon": "-76.2885787"
        },
        "locations": "Restaurant",
        "wines": [
            "Chardonnay",
            "Foothills"
        ]
    },
    {
        "id": "MsAUsphK-OeXqmeQ-X0l4",
        "name": "Cellar d'Or",
        "address": {
            "street": "136 E State St, Ithaca, NY 14850",
            "lat": "42.4397353",
            "lon": "-76.4977365"
        },
        "locations": "Restaurant/Retail",
        "wines": [
            "Rosé"
        ]
    },
    {
        "id": "6XEXQSd0r4TNZoiDHpojk",
        "name": "Crystal Palate",
        "address": {
            "street": "4500 Pretty Lake Avenue, Norfolk, VA 23518",
            "lat": "36.925493",
            "lon": "-76.1880817"
        },
        "locations": "Retail",
        "wines": [
            "Chardonnay"
        ]
    },
    {
        "id": "Pp8dSV7gkej3JFeeWid4g",
        "name": "Dandelion Wine",
        "address": {
            "street": "153 Franklin Street, Brooklyn, NY 11222",
            "lat": "40.731666",
            "lon": "-73.9580947"
        },
        "locations": "Restaurant/Retail",
        "wines": [
            "Five Forks"
        ]
    },
    {
        "id": "K-2JfLyJpi-gTZ38lTjTv",
        "name": "Farmers & Distillers",
        "address": {
            "street": "600 Massachusetts Ave. NW, Washington, DC 20001",
            "lat": "38.9012307",
            "lon": "-77.0207401"
        },
        "locations": "Restaurant",
        "wines": [
            "Rosé"
        ]
    },
    {
        "id": "GJPPEYcldowVat357mvV7",
        "name": "Fat Canary",
        "address": {
            "street": "The Cheese Shop of VA, Inc., Williamsburg, VA 23185",
            "lat": "37.2706994",
            "lon": "-76.7061859"
        },
        "locations": "Restaurant",
        "wines": [
            "Foothills",
            "Shenandoah Valley Cabernet Franc"
        ]
    },
    {
        "id": "mU0MjP5tMWxEGu1upGbx6",
        "name": "Farmers Fishers Bakers",
        "address": {
            "street": "3000 K Street NW, Washington, DC 20007",
            "lat": "38.9025537",
            "lon": "-77.0601033"
        },
        "locations": "Restaurant",
        "wines": [
            "Rosé"
        ]
    },
    {
        "id": "_tXxRJCwN8HlN9TpcJirJ",
        "name": "Flight Wine Bar",
        "address": {
            "street": "777 6th Street NW, Washington, DC 20001",
            "lat": "38.89937",
            "lon": "-77.01959"
        },
        "locations": "Restaurant",
        "wines": [
            "Rosé"
        ]
    },
    {
        "id": "jfOf0waed6Ku-txsgfkOO",
        "name": "Fort Lewis Lodge",
        "address": {
            "street": "603 Old Plantation Way, Millboro, VA 24460",
            "lat": "38.114054",
            "lon": "-79.6110139"
        },
        "locations": "Retail",
        "wines": [
            "Young Wine"
        ]
    },
    {
        "id": "Up9n_J5NWe57xJlSeqYe4",
        "name": "Hot Cakes",
        "address": {
            "street": "Barracks Road Shopping Center, Charlottesville, VA 22903",
            "lat": "38.0528154",
            "lon": "-78.5012568"
        },
        "locations": "Restaurant/Retail",
        "wines": [
            "Foothills",
            "Pétillant Naturel White",
            "Young Wine"
        ]
    },
    {
        "id": "RxvOQnmaFUm90wiURGS_m",
        "name": "Friendly City Food Co-op",
        "address": {
            "street": "150 E Wolfe St, Harrisonburg, VA 22802",
            "lat": "38.4516609",
            "lon": "-78.8665291"
        },
        "locations": "Retail",
        "wines": [
            "Rosé"
        ]
    },
    {
        "id": "MrJ5jYzqoKChgdV5RPesd",
        "name": "Inn at Little Washington",
        "address": {
            "street": "438 Main St., Washington, VA 22747",
            "lat": "38.7141037",
            "lon": "-78.1596423"
        },
        "locations": "Restaurant",
        "wines": [
            "Pétillant Naturel Red"
        ]
    },
    {
        "id": "cywDSB8_Z3knQBtuNpT5v",
        "name": "J Emerson",
        "address": {
            "street": "5716 Grove Ave, Richmond, VA 23226",
            "lat": "37.5733362",
            "lon": "-77.5180274"
        },
        "locations": "Retail",
        "wines": [
            "Young Wine"
        ]
    },
    {
        "id": "NlbMS9sz3sBVa_UyO1eH2",
        "name": "Mr. Bill's Wine Cellar",
        "address": {
            "street": "2825 B Brambleton Ave., Roanoke, VA 24015",
            "lat": "37.2438511",
            "lon": "-79.9909487"
        },
        "locations": "Retail",
        "wines": [
            "Young Wine"
        ]
    },
    {
        "id": "AHXwNrUDZhvh9ZzSDPHwK",
        "name": "Locke Store",
        "address": {
            "street": "2049 Millwood Rd., Millwood, VA 22646",
            "lat": "39.0695734",
            "lon": "-78.0379555"
        },
        "locations": "Retail",
        "wines": [
            "Rosé"
        ]
    },
    {
        "id": "81QYr1ICkjcehTiEz-F37",
        "name": "Reveler's Hour",
        "address": {
            "street": "1775 Columbia Road NW, Washington, DC 20009",
            "lat": "38.9235097",
            "lon": "-77.0420765"
        },
        "locations": "Restaurant",
        "wines": [
            "Pétillant Naturel White",
            "Petit Manseng"
        ]
    },
    {
        "id": "orF9s67PrXXrouT9NPj40",
        "name": "RichWine",
        "address": {
            "street": "2601 Maury Street, Richmond, VA 23224",
            "lat": "37.5095",
            "lon": "-77.4565725"
        },
        "locations": "Retail",
        "wines": [
            "Foothills",
            "Pétillant Naturel Red",
            "Rosé"
        ]
    },
    {
        "id": "26uZ-HoroosOKChexelDz",
        "name": "Olmstead",
        "address": {
            "street": "659 Vanderbilt Avenue, Brooklyn, NY 11238",
            "lat": "40.677064",
            "lon": "-73.9687578"
        },
        "locations": "Restaurant/Retail",
        "wines": [
            "Petit Manseng"
        ]
    },
    {
        "id": "MqXKa1n6zD8YFQA7bZFWr",
        "name": "Saison",
        "address": {
            "street": "23 W Marshall St. Suite A, Richmond, VA 23220",
            "lat": "37.546819",
            "lon": "-77.4420934"
        },
        "locations": "Restaurant",
        "wines": [
            "Pétillant Naturel Red"
        ]
    },
    {
        "id": "xjTI47zcabgQOsvFfaz7K",
        "name": "Southbound",
        "address": {
            "street": "3036 Stony Point Rd., Richmond, VA 23235",
            "lat": "37.537796",
            "lon": "-77.5651916"
        },
        "locations": "Restaurant",
        "wines": [
            "Chardonnay",
            "Five Forks"
        ]
    },
    {
        "id": "avdsymqAyCUbUasyTqi1w",
        "name": "Salt Line, The",
        "address": {
            "street": "79 Potomac Ave SE, Washington, DC 20003",
            "lat": "38.871234",
            "lon": "-77.0072947"
        },
        "locations": "Restaurant",
        "wines": [
            "Petit Manseng"
        ]
    },
    {
        "id": "_knWzLoyLjSGuc4jUNYnv",
        "name": "St. Anselm",
        "address": {
            "street": "1250 5th St. NE, Washington, DC 20002",
            "lat": "38.9077745",
            "lon": "-76.9990918"
        },
        "locations": "Restaurant",
        "wines": [
            "Shenandoah Valley Cabernet Franc"
        ]
    },
    {
        "id": "5u3Qkl3NMmgOMvkInc4Fn",
        "name": "The Roost",
        "address": {
            "street": "1401 Pennsylvania Ave SE, Washington, DC 20003",
            "lat": "38.8798036",
            "lon": "-76.9852327"
        },
        "locations": "Restaurant",
        "wines": [
            "Young Wine"
        ]
    },
    {
        "id": "UBt331c94pUmpbqQC1URZ",
        "name": "Tipsy",
        "address": {
            "street": "584 Myrtle Ave, Brooklyn, NY 11205",
            "lat": "40.6938285",
            "lon": "-73.9612496"
        },
        "locations": "Restaurant/Retail",
        "wines": [
            "Quaker Run Chardonnay"
        ]
    },
    {
        "id": "XE1iGeC2CblBU7TVfz7eK",
        "name": "Toast - Norfolk",
        "address": {
            "street": "2406 Colonial Ave, Norfolk, VA 23517",
            "lat": "36.8717646",
            "lon": "-76.2903709"
        },
        "locations": "Restaurant",
        "wines": [
            "Pétillant Naturel White"
        ]
    },
    {
        "id": "LF35sCi3afGQrgOPiVuXn",
        "name": "Vino Market",
        "address": {
            "street": "3730 Winterfield Rd., Midlothian, VA 23113",
            "lat": "37.5535346",
            "lon": "-77.6685934"
        },
        "locations": "Retail",
        "wines": [
            "Five Forks",
            "Rosé"
        ]
    },
    {
        "id": "IUrtcbElpQ9Z9KS1jlTLk",
        "name": "Vanderbilt Wine Merchants",
        "address": {
            "street": "573 Vanderbilt Ave, New York, NY 11238",
            "lat": "40.6805749",
            "lon": "-73.9674951"
        },
        "locations": "Restaurant/Retail",
        "wines": [
            "Eluvium"
        ]
    },
    {
        "id": "ALtaiYTKkPW0qfV2XIHOG",
        "name": "Virginia Cheese Company",
        "address": {
            "street": "501 Botetourt Street, Norfolk, VA 23510",
            "lat": "36.8528816",
            "lon": "-76.2961736"
        },
        "locations": "Retail",
        "wines": [
            "Rosé"
        ]
    },
    {
        "id": "AVvDlneOPlHtaDshtY4oI",
        "name": "Whole Foods - Ashburn",
        "address": {
            "street": "19800 Belmont Chase Dr, Ashburn, VA 20147",
            "lat": "39.0684834",
            "lon": "-77.4843963"
        },
        "locations": "Restaurant/Retail",
        "wines": [
            "Foothills",
            "Rosé"
        ]
    },
    {
        "id": "RTiMJe4T1LU9iynIS9Hny",
        "name": "White Moose Inn",
        "address": {
            "street": "291 Main St., Washington, VA 22747",
            "lat": "38.7123391",
            "lon": "-78.16034"
        },
        "locations": "Restaurant",
        "wines": [
            "Eluvium"
        ]
    },
    {
        "id": "XYeDayLFrS_sD7NL-U443",
        "name": "Whole Foods - Florida Ave",
        "address": {
            "street": "FAV - BU# 10651, Washington, DC 20001",
            "lat": "38.9071923",
            "lon": "-77.0368707"
        },
        "locations": "Restaurant/Retail",
        "wines": [
            "Rosé"
        ]
    },
    {
        "id": "5NU2o4bP48FDX4xdDCu9E",
        "name": "Whole Foods - Springfield",
        "address": {
            "street": "8402 Old Keene Mill Road, Springfield, VA 22152",
            "lat": "38.7796348",
            "lon": "-77.2343247"
        },
        "locations": "Restaurant/Retail",
        "wines": [
            "Rosé"
        ]
    },