[
    {
        "id": "MrIxYqpXcNOJ7dYvCXS2y",
        "name": "Barrel Chest",
        "address": {
            "street": "2601 Franklin Rd. Suite A, Roanoke, VA 24014",
            "lat": "37.2489661",
            "lon": "-79.9590297"
        },
        "locations": "Restaurant/Retail",
        "wines": [
            "Cabernet Franc",
            "Chardonnay",
            "Eluvium",
            "Five Forks",
            "Foothills",
            "Petit Manseng",
            "Quaker Run Cabernet Franc",
            "Rosé",
            "Shenandoah Valley Cabernet Franc",
            "Young Wine White"
        ]
    },
    {
        "id": "vhcsL6tPzV0vynKZwn_D9",
        "name": "Heirloom",
        "address": {
            "street": "2484 N Landing Rd #113, Virginia Beach, VA 23456",
            "lat": "36.7493507",
            "lon": "-76.0582579"
        },
        "locations": "Restaurant",
        "wines": [
            "Cabernet Franc",
            "Quaker Run Cabernet Franc",
            "Shenandoah Valley Cabernet Franc"
        ]
    },
    {
        "id": "peANPyMjOn_mGPbQKB9K-",
        "name": "Organic Butcher of McLean",
        "address": {
            "street": "6712 Old Dominion Drive, McLean, VA 22101",
            "lat": "38.9335412",
            "lon": "-77.1758584"
        },
        "locations": "Retail",
        "wines": [
            "Cabernet Franc",
            "Five Forks",
            "Foothills",
            "Petit Manseng",
            "Quaker Run Cabernet Franc",
            "RISE",
            "Rosé",
            "Shenandoah Valley Cabernet Franc",
            "Young Wine Red"
        ]
    },
    {
        "id": "BV97SbIMYSDtrjUEf-4Vn",
        "name": "Wine Guild",
        "address": {
            "street": "221 Carlton Rd, Suite 1, Charlottesville, VA 22902",
            "lat": "38.0239329",
            "lon": "-78.4698251"
        },
        "locations": "Retail",
        "wines": [
            "Cabernet Franc",
            "Chardonnay",
            "Eluvium",
            "Rosé",
            "Shenandoah Valley Cabernet Franc",
            "Young Wine White"
        ]
    },
    {
        "id": "-oGPCYcVisrDAGLwqh2ov",
        "name": "Salisbury Country Club",
        "address": {
            "street": "13620 W. Salisbury Rd, Midlothian, VA 23113",
            "lat": "37.527933",
            "lon": "-77.653554"
        },
        "locations": "Restaurant",
        "wines": [
            "Cabernet Franc",
            "Chardonnay",
            "Foothills",
            "Petit Manseng"
        ]
    },
    {
        "id": "xauPnyLPsslmJajWg9AYr",
        "name": "Balducci's - Alexandria",
        "address": {
            "street": "600 Franklin St, Alexandria, VA 22314",
            "lat": "38.7978102",
            "lon": "-77.0479011"
        },
        "locations": "Restaurant/Retail",
        "wines": [
            "Chardonnay",
            "Eluvium",
            "RISE",
            "Shenandoah Valley Cabernet Franc",
            "Young Wine Red"
        ]
    },
    {
        "id": "-IX2e0V8mGllcdG9OFapL",
        "name": "Barrel Thief",
        "address": {
            "street": "5805 Patterson Ave, Richmond, VA 23226",
            "lat": "37.5794435",
            "lon": "-77.5149812"
        },
        "locations": "Restaurant/Retail",
        "wines": [
            "Chardonnay",
            "Foothills",
            "Pétillant Naturel White",
            "Rosé"
        ]
    },
    {
        "id": "TU1LECrqhTjUW_140mgH-",
        "name": "Bottleworks",
        "address": {
            "street": "3078 Stony Point Rd., Richmond, VA 23235",
            "lat": "37.537796",
            "lon": "-77.5651916"
        },
        "locations": "Retail",
        "wines": [
            "Chardonnay",
            "Foothills"
        ]
    },
    {
        "id": "47PEH_Fxwpc7eYye6sfgD",
        "name": "Caboose",
        "address": {
            "street": "108 S. Railroad Ave., Ashland, VA 23005",
            "lat": "37.758286",
            "lon": "-77.4816338"
        },
        "locations": "Restaurant",
        "wines": [
            "Chardonnay",
            "Foothills",
            "Rosé"
        ]
    },
    {
        "id": "3yoX_b-5xc1_lFGvx9lBf",
        "name": "Mae's Market",
        "address": {
            "street": "Virginia's Darling LLC, Alexandria, VA 22314",
            "lat": "38.7999723",
            "lon": "-77.0506896"
        },
        "locations": "Retail",
        "wines": [
            "Chardonnay",
            "Rosé",
            "Young Wine Red",
            "Young Wine White"
        ]
    },
    {
        "id": "mQUaE6Y3fR4nFwr3IHgoH",
        "name": "Thornton River Grille",
        "address": {
            "street": "Thornton River Grille, Sperryville, VA 22740",
            "lat": "38.657256",
            "lon": "-78.22669"
        },
        "locations": "Restaurant",
        "wines": [
            "Chardonnay",
            "Eluvium",
            "Foothills",
            "Petit Manseng",
            "Rosé",
            "Young Wine White"
        ]
    },
    {
        "id": "LivIl0iz7-bW_kGJdWegX",
        "name": "Mona Lisa",
        "address": {
            "street": "921 Preston Ave, Charlottesville, VA 22903",
            "lat": "38.038434",
            "lon": "-78.489901"
        },
        "locations": "Retail",
        "wines": [
            "Chardonnay",
            "Eluvium",
            "Foothills",
            "Petit Manseng",
            "Rosé",
            "Young Wine Red",
            "Young Wine White"
        ]
    },
    {
        "id": "3c-H9vkC_Unxvq2bLEYap",
        "name": "Tinto Wine & Cheese - Chesapeake",
        "address": {
            "street": "236 Carmichael Way #308, Chesapeake, VA 23322",
            "lat": "36.660423",
            "lon": "-76.233525"
        },
        "locations": "Restaurant",
        "wines": [
            "Chardonnay",
            "Shenandoah Valley Cabernet Franc"
        ]
    },
    {
        "id": "CpFpZD390ui6KK622Wagq",
        "name": "Tinto Wine & Cheese - Hilltop",
        "address": {
            "street": "640 Hilltop West Shopping Ctr, Virginia Beach, VA 23451",
            "lat": "36.8524094",
            "lon": "-76.0208537"
        },
        "locations": "Restaurant",
        "wines": [
            "Chardonnay",
            "Shenandoah Valley Cabernet Franc"
        ]
    },
    {
        "id": "m4r6u7fRaafqGEthGeakv",
        "name": "Town Duck",
        "address": {
            "street": "100 Main St, Warrenton, VA 20186",
            "lat": "38.7122701",
            "lon": "-77.7930779"
        },
        "locations": "Restaurant",
        "wines": [
            "Chardonnay",
            "Eluvium",
            "Five Forks",
            "Foothills",
            "Petit Manseng",
            "Rosé"
        ]
    },
    {
        "id": "DGtylr9vxc0XcPdCC6YlJ",
        "name": "Clementine Cafe",
        "address": {
            "street": "153 S Main St, Harrisonburg, VA 22801",
            "lat": "38.4478062",
            "lon": "-78.8692932"
        },
        "locations": "Restaurant",
        "wines": [
            "Chardonnay",
            "Rosé"
        ]
    },
    {
        "id": "yPDs7A5yy619s2n0RzkFI",
        "name": "Corks & Kegs",
        "address": {
            "street": "7110 Patterson Ave, Suite A, Richmond, VA 23229",
            "lat": "37.5924087",
            "lon": "-77.5329934"
        },
        "locations": "Retail",
        "wines": [
            "Chardonnay",
            "Eluvium",
            "Foothills",
            "Rosé",
            "Shenandoah Valley Cabernet Franc",
            "Young Wine White"
        ]
    },
    {
        "id": "Y5LLyoblswOl-ngL_TAxB",
        "name": "Crystal Palate",
        "address": {
            "street": "4500 Pretty Lake Avenue, Norfolk, VA 23518",
            "lat": "36.925493",
            "lon": "-76.1880817"
        },
        "locations": "Retail",
        "wines": [
            "Chardonnay",
            "RISE"
        ]
    },
    {
        "id": "ehQBtdktq3Xhiy3x1lFVb",
        "name": "Dominion Wine and Beer",
        "address": {
            "street": "107 Rowell Ct., Falls Church, VA 22046",
            "lat": "38.889851",
            "lon": "-77.1836308"
        },
        "locations": "Restaurant/Retail",
        "wines": [
            "Chardonnay",
            "Foothills",
            "Rosé",
            "Young Wine White"
        ]
    },
    {
        "id": "R2WBnSA_m-yKYovXhdfSP",
        "name": "Fat Canary",
        "address": {
            "street": "The Cheese Shop of VA, Inc., Williamsburg, VA 23185",
            "lat": "37.2706994",
            "lon": "-76.7061859"
        },
        "locations": "Restaurant",
        "wines": [
            "Chardonnay",
            "Eluvium",
            "Foothills",
            "Petit Manseng",
            "RISE",
            "Rosé",
            "Shenandoah Valley Cabernet Franc",
            "Young Wine Red",
            "Young Wine White"
        ]
    },
    {
        "id": "YbPHJplvLJqRHL5TBFWMs",
        "name": "Green Hill Kitchen",
        "address": {
            "street": "48 Front Street, Greenport, NY 11944",
            "lat": "41.1024434",
            "lon": "-72.3602946"
        },
        "locations": "Restaurant",
        "wines": [
            "Chardonnay"
        ]
    },
    {
        "id": "5YV4wHt8RYHk4FP3IaDm0",
        "name": "Lafayette Inn",
        "address": {
            "street": "146 Main St, Stanardsville, VA 22973",
            "lat": "38.2973026",
            "lon": "-78.4385356"
        },
        "locations": "Restaurant",
        "wines": [
            "Chardonnay",
            "Shenandoah Valley Cabernet Franc"
        ]
    },
    {
        "id": "eNSLmTen6i0N78bJdlrW6",
        "name": "Lucky",
        "address": {
            "street": "18 Kirk Ave SW, Roanoke, VA 24011",
            "lat": "37.2709987",
            "lon": "-79.9414035"
        },
        "locations": "Restaurant",
        "wines": [
            "Chardonnay",
            "Young Wine Red"
        ]
    },
    {
        "id": "EG-MiJp4nzdcTtVgrtbhv",
        "name": "Market Street Wine Shop",
        "address": {
            "street": "311 East Market St, Charlottesville, VA 22902",
            "lat": "38.0310819",
            "lon": "-78.4790515"
        },
        "locations": "Retail",
        "wines": [
            "Chardonnay",
            "Eluvium",
            "Five Forks",
            "Foothills",
            "Petit Manseng",
            "Rosé"
        ]
    },
    {
        "id": "sYwXlD3DBnT-qaTm58dPN",
        "name": "Primland Resort",
        "address": {
            "street": "2000 Busted Rock Road, Meadows of Dan, VA 24120",
            "lat": "36.6881805",
            "lon": "-80.3543771"
        },
        "locations": "Restaurant",
        "wines": [
            "Chardonnay",
            "Eluvium",
            "Shenandoah Valley Cabernet Franc"
        ]
    },
    {
        "id": "1RwWlGO2ANmNUB29gHJJj",
        "name": "Metro Liquors",
        "address": {
            "street": "1726 Columbia Rd NW, Washington, DC 20009",
            "lat": "38.9243637",
            "lon": "-77.0397196"
        },
        "locations": "Retail",
        "wines": [
            "Chardonnay",
            "Quaker Run Chardonnay",
            "Shenandoah Valley Cabernet Franc"
        ]
    },
    {
        "id": "zTIvFWDbdFZsZHqqvPwgf",
        "name": "Thornton River Grille",
        "address": {
            "street": "Thornton River Grille, Sperryville, VA 22740",
            "lat": "38.657256",
            "lon": "-78.22669"
        },
        "locations": "Restaurant",
        "wines": [
            "Chardonnay",
            "Eluvium",
            "Foothills",
            "Petit Manseng"
        ]
    },
    {
        "id": "2CdTXosaXprpJHw1a8FnA",
        "name": "Walsh Family Wines",
        "address": {
            "street": "16031 Hillsboro Road, Purcellville, VA 20132",
            "lat": "39.1739045",
            "lon": "-77.7251377"
        },
        "locations": "Restaurant",
        "wines": [
            "Chardonnay",
            "Petit Manseng"
        ]
    },
    {
        "id": "p0aLLC041-eIhrodShIzs",
        "name": "Westside Produce & Provisions",
        "address": {
            "street": "5015 Colley Ave., Norfolk, VA 23508",
            "lat": "36.8890972",
            "lon": "-76.2954949"
        },
        "locations": "Retail",
        "wines": [
            "Chardonnay",
            "Eluvium",
            "Five Forks",
            "Foothills",
            "Petit Manseng",
            "Rosé",
            "Shenandoah Valley Cabernet Franc"
        ]
    },
    {
        "id": "KPhZ9AFaeZWF5lYhZb_bn",
        "name": "Blacksburg Wine Lab",
        "address": {
            "street": "223 Gilbert Street, Blacksburg, VA 24060",
            "lat": "37.2331803",
            "lon": "-80.4212379"
        },
        "locations": "Restaurant",
        "wines": [
            "Chardonnay",
            "Rosé",
            "Shenandoah Valley Cabernet Franc"
        ]
    },
    {
        "id": "KaRi8Dk0tU6tR7c8Vz4D9",
        "name": "Ellwood Thompson",
        "address": {
            "street": "4 N Thompson St, Richmond, VA 23221",
            "lat": "37.5574138",
            "lon": "-77.4884332"
        },
        "locations": "Retail",
        "wines": [
            "Chardonnay",
            "Eluvium",
            "Five Forks",
            "Foothills",
            "Pétillant Naturel White",
            "Petit Manseng",
            "Quaker Run Chardonnay",
            "RISE",
            "Rosé",
            "Shenandoah Valley Cabernet Franc",
            "Young Wine Red",
            "Young Wine White"
        ]
    },
    {
        "id": "TYluSE-1fMZjCkSUptrIN",
        "name": "Crystal Spring Grocery",
        "address": {
            "street": "2205 Crystal Spring Ave SW, Roanoke, VA 24014",
            "lat": "37.2485824",
            "lon": "-79.9468989"
        },
        "locations": "Restaurant/Retail",
        "wines": [
            "Chardonnay"
        ]
    },
    {
        "id": "Nnmm356ot_Jfw1iFfBKY8",
        "name": "Fat Canary",
        "address": {
            "street": "The Cheese Shop of VA, Inc., Williamsburg, VA 23185",
            "lat": "37.2706994",
            "lon": "-76.7061859"
        },
        "locations": "Restaurant",
        "wines": [
            "Chardonnay",
            "Eluvium",
            "Foothills",
            "Rosé",
            "Shenandoah Valley Cabernet Franc"
        ]
    },
    {
        "id": "_7yQ3tZ_o--n-t6yjDYkj",
        "name": "Foods of All Nations",
        "address": {
            "street": "2121 Ivy Rd, Charlottesville, VA 22903",
            "lat": "38.0432978",
            "lon": "-78.5119067"
        },
        "locations": "Retail",
        "wines": [
            "Chardonnay",
            "Eluvium",
            "Foothills",
            "Petit Manseng",
            "Rosé",
            "Shenandoah Valley Cabernet Franc",
            "Young Wine Red",
            "Young Wine White"
        ]
    },
    {
        "id": "cVb7Ihidwk7YEJNuKYGGp",
        "name": "Greenwood",
        "address": {
            "street": "6701 Rockfish Gap TPK, Crozet, VA 22932",
            "lat": "38.0413202",
            "lon": "-78.732343"
        },
        "locations": "Retail",
        "wines": [
            "Chardonnay",
            "Eluvium",
            "Five Forks",
            "Foothills",
            "Pétillant Naturel White",
            "Petit Manseng",
            "Rosé",
            "Shenandoah Valley Cabernet Franc",
            "Young Wine",
            "Young Wine Red",
            "Young Wine White"
        ]
    },
    {
        "id": "lerjfWGLhYMr-cbjD1An_",
        "name": "Marigold by Jean Georges",
        "address": {
            "street": "Keswick Hall & Golf Club, Keswick, VA 22947",
            "lat": "38.0167803",
            "lon": "-78.3666045"
        },
        "locations": "Restaurant",
        "wines": [
            "Chardonnay"
        ]
    },
    {
        "id": "e-z0YSjmuCwLfbseK8W1M",
        "name": "Old Lex Mercantile",
        "address": {
            "street": "113 W Nelson St., Lexington, VA 24450",
            "lat": "37.7851009",
            "lon": "-79.4439846"
        },
        "locations": "Restaurant/Retail",
        "wines": [
            "Chardonnay",
            "Eluvium"
        ]
    },
    {
        "id": "laQT_BZXm8QbMI7yRc9ph",
        "name": "Whole Ox",
        "address": {
            "street": "8357 West Main Street, Marshall, VA 20115",
            "lat": "38.8651661",
            "lon": "-77.856671"
        },
        "locations": "Restaurant/Retail",
        "wines": [
            "Chardonnay",
            "Eluvium"
        ]
    },
    {
        "id": "qxXgFG10Nb2r43tL2UUuf",
        "name": "Williamsburg Winery",
        "address": {
            "street": "5800 Wessex Hundred, Williamsburg, VA 23185",
            "lat": "37.2315138",
            "lon": "-76.718275"
        },
        "locations": "Restaurant",
        "wines": [
            "Chardonnay",
            "Eluvium"
        ]
    },
    {
        "id": "nV-VD48oCSD1UTdAKyfBv",
        "name": "Wine Guild",
        "address": {
            "street": "221 Carlton Rd, Suite 1, Charlottesville, VA 22902",
            "lat": "38.0239329",
            "lon": "-78.4698251"
        },
        "locations": "Retail",
        "wines": [
            "Chardonnay",
            "Eluvium",
            "Shenandoah Valley Cabernet Franc",
            "Young Wine White"
        ]
    },
    {
        "id": "vtb0nkLJfz8zKo8v2ZI8Z",
        "name": "Wine Warehouse",
        "address": {
            "street": "1804 Hydraulic Rd, Charlottesville, VA 22902",
            "lat": "38.0607943",
            "lon": "-78.4914214"
        },
        "locations": "Retail",
        "wines": [
            "Chardonnay",
            "Foothills",
            "Quaker Run Chardonnay",
            "Rosé",
            "Shenandoah Valley Cabernet Franc",
            "Young Wine Red"
        ]
    },
    {
        "id": "ZJMlMCkYz-64SSez0zm4q",
        "name": "Arrowine",
        "address": {
            "street": "4508 Lee Hwy, Arlington, VA 22207",
            "lat": "38.8983733",
            "lon": "-77.1183586"
        },
        "locations": "Restaurant/Retail",
        "wines": [
            "Chardonnay",
            "Eluvium",
            "Foothills",
            "Pétillant Naturel White",
            "RISE",
            "Rosé",
            "Young Wine Red"
        ]
    },
    {
        "id": "RFi0y9Ray73VltfghDml0",
        "name": "Basic Necessities",
        "address": {
            "street": "2226 Rockfish Valley Hwy, Nellysford, VA 22958",
            "lat": "37.8864588",
            "lon": "-78.8838422"
        },
        "locations": "Restaurant/Retail",
        "wines": [
            "Chardonnay",
            "Foothills"
        ]
    },
    {
        "id": "aCC9o4Ns3AhWsM2JuVZZn",
        "name": "Norm's Beer & Wine",
        "address": {
            "street": "136 Branch Rd SE, Vienna, VA 22180",
            "lat": "38.9062317",
            "lon": "-77.257151"
        },
        "locations": "Retail",
        "wines": [
            "Chardonnay",
            "Eluvium",
            "Five Forks",
            "Foothills",
            "Pétillant Naturel White",
            "Quaker Run Chardonnay",
            "Rosé",
            "Shenandoah Valley Cabernet Franc",
            "Young Wine",
            "Young Wine Red"
        ]
    },
    {
        "id": "aMAIyDljcBmaZJnBBQH6i",
        "name": "Locke Store",
        "address": {
            "street": "2049 Millwood Rd., Millwood, VA 22646",
            "lat": "39.0695654",
            "lon": "-78.0379321"
        },
        "locations": "Retail",
        "wines": [
            "Chardonnay",
            "Eluvium",
            "RISE",
            "Rosé"
        ]
    },
    {
        "id": "sdey9B4ooEqwk_s4rYymS",
        "name": "J Emerson",
        "address": {
            "street": "5716 Grove Ave, Richmond, VA 23226",
            "lat": "37.5733362",
            "lon": "-77.5180274"
        },
        "locations": "Retail",
        "wines": [
            "Chardonnay",
            "Five Forks",
            "Foothills",
            "Rosé",
            "Shenandoah Valley Cabernet Franc"
        ]
    },
    {
        "id": "pO8mJIP6VWUldy3B-6hHj",
        "name": "Lydia Mountain Lodge",
        "address": {
            "street": "426 Mountain Laurel Pass, Stanardsville, VA 22973",
            "lat": "38.3359273",
            "lon": "-78.4848288"
        },
        "locations": "Restaurant",
        "wines": [
            "Chardonnay",
            "Foothills",
            "Petit Manseng",
            "Rosé"
        ]
    },
    {
        "id": "NA4BaZXHTjNZZdpy34SIf",
        "name": "Mom's Apple Pie - Hill High",
        "address": {
            "street": "35246 Harry Byrd Hwy Ste. 100, Round Hill, VA 20141",
            "lat": "39.1277991",
            "lon": "-77.7873132"
        },
        "locations": "Retail",
        "wines": [
            "Chardonnay",
            "Eluvium",
            "Pétillant Naturel White",
            "Petit Manseng",
            "Rosé",
            "Shenandoah Valley Cabernet Franc",
            "Young Wine White"
        ]
    },
    {
        "id": "NgsM_bj1Ye2KMm5-HfHcB",
        "name": "Mom's Apple Pie - Occoquan",
        "address": {
            "street": "126 A Commerce St, Occoquan Historic Dist., VA 22125",
            "lat": "38.6823226",
            "lon": "-77.260111"
        },
        "locations": "Retail",
        "wines": [
            "Chardonnay",
            "Rosé",
            "Shenandoah Valley Cabernet Franc",
            "Young Wine Red",
            "Young Wine White"
        ]
    },
    {
        "id": "eXO76JmkeKlOZgqDpA5Pv",
        "name": "Omni - Homestead Resort",
        "address": {
            "street": "7696 Sam Snead Highway, Hot Springs, VA 24445",
            "lat": "37.9970692",
            "lon": "-79.8305868"
        },
        "locations": "Restaurant",
        "wines": [
            "Chardonnay",
            "Eluvium",
            "Foothills",
            "Petit Manseng",
            "Shenandoah Valley Cabernet Franc",
            "Young Wine Red"
        ]
    },
    {
        "id": "mnmOvi9ZaFQi_OfbY9uP8",
        "name": "Salt Line, The- Ballston",
        "address": {
            "street": "4040 Wilson Blvd., Arlington, VA 22203",
            "lat": "38.8796459",
            "lon": "-77.1086715"
        },
        "locations": "Restaurant",
        "wines": [
            "Chardonnay"
        ]
    },
    {
        "id": "xecs23OOYW37Vh-g8-loG",
        "name": "Valley Pike Farm Market",
        "address": {
            "street": "3494 Lee Highway, Weyers Cave, VA 24486",
            "lat": "38.2934427",
            "lon": "-78.9356747"
        },
        "locations": "Retail",
        "wines": [
            "Chardonnay",
            "Foothills",
            "Petit Manseng",
            "RISE",
            "Rosé",
            "Shenandoah Valley Cabernet Franc"
        ]
    },
    {
        "id": "KWIqA8Khc8mcYejkdcysv",
        "name": "White Moose Inn",
        "address": {
            "street": "291 Main St., Washington, VA 22747",
            "lat": "38.7123391",
            "lon": "-78.16034"
        },
        "locations": "Restaurant",
        "wines": [
            "Chardonnay",
            "Foothills"
        ]
    },
    {
        "id": "srrHSAhYP4Oow0BAmBt1w",
        "name": "Wool Factory",
        "address": {
            "street": "1837 Broadway Street, Charlottesville, VA 22902",
            "lat": "38.0197143",
            "lon": "-78.4557898"
        },
        "locations": "Restaurant/Retail",
        "wines": [
            "Chardonnay",
            "Eluvium",
            "Foothills",
            "Quaker Run Chardonnay",
            "Rosé",
            "Shenandoah Valley Cabernet Franc",
            "Young Wine Red",
            "Young Wine White"
        ]
    },
    {
        "id": "_YkyV5xsz6wQIwFtXm9lz",
        "name": "Von",
        "address": {
            "street": "3 Bleeker Street, New York, NY 10012",
            "lat": "40.7254829",
            "lon": "-73.9926215"
        },
        "locations": "Restaurant",
        "wines": [
            "Chardonnay"
        ]
    },
    {
        "id": "fBdaue5oGKSfxMax5iIKM",
        "name": "Bluejacket",
        "address": {
            "street": "300 Tingey St. SE, Washington, DC 20374",
            "lat": "38.8751743",
            "lon": "-77.0014763"
        },
        "locations": "Restaurant",
        "wines": [
            "Eluvium",
            "Rosé"
        ]
    },
    {
        "id": "Ie93Qn9u09nvmQjDg4_fz",
        "name": "City Vino",
        "address": {
            "street": "810 Caroline St Ste 101, Fredericksburg, VA 22407",
            "lat": "38.3020808",
            "lon": "-77.4587685"
        },
        "locations": "Retail",
        "wines": [
            "Chardonnay",
            "Eluvium",
            "Five Forks",
            "Foothills",
            "Shenandoah Valley Cabernet Franc"
        ]
    },
    {
        "id": "jyh8wi6RNfqpr3sMPFAju",
        "name": "Knead Wine",
        "address": {
            "street": "5 W Washington Street, Middleburg, VA 20117",
            "lat": "38.9687122",
            "lon": "-77.7358083"
        },
        "locations": "Restaurant",
        "wines": [
            "Eluvium"
        ]
    },
    {
        "id": "Ey_LBAdB0Sxv6D4IGbQFf",
        "name": "Local Chop & Grill House",
        "address": {
            "street": "56 W Gay St #107, Harrisonburg, VA 22802",
            "lat": "38.4539237",
            "lon": "-78.8684235"
        },
        "locations": "Restaurant",
        "wines": [
            "Eluvium",
            "Rosé",
            "Shenandoah Valley Cabernet Franc"
        ]
    },
    {
        "id": "_2zcBqjuoa_MF-O2uC_dO",
        "name": "Olmsted",
        "address": {
            "street": "659 Vanderbilt Ave, Brooklyn, NY 11238",
            "lat": "40.677064",
            "lon": "-73.9687578"
        },
        "locations": "Restaurant/Retail",
        "wines": [
            "Eluvium"
        ]
    },
    {
        "id": "cSAMksnDugRBbTsj0BpuQ",
        "name": "Aberdeen Barn",
        "address": {
            "street": "2018 Holiday Drive, Charlottesville, VA 22901",
            "lat": "38.0587447",
            "lon": "-78.4931749"
        },
        "locations": "Restaurant",
        "wines": [
            "Eluvium",
            "Foothills"
        ]
    },
    {
        "id": "PlLWn6uuFep2O9qPB6eF_",
        "name": "Cochon d'Or",
        "address": {
            "street": "2829 Main St, Hot Springs, VA 24445",
            "lat": "37.9998484",
            "lon": "-79.8317533"
        },
        "locations": "Restaurant",
        "wines": [
            "Eluvium"
        ]
    },
    {
        "id": "Dv9UWsBERuLl25-AjwlAd",
        "name": "Everyday Sommelier",
        "address": {
            "street": "514 B 5th St, Lynchburg, VA 24504",
            "lat": "37.4160576",
            "lon": "-79.1485347"
        },
        "locations": "Restaurant",
        "wines": [
            "Eluvium",
            "RISE"
        ]
    },
    {
        "id": "l2G8yw6fmFXjNPhhNc6C0",
        "name": "Knead Wine",
        "address": {
            "street": "5 W Washington Street, Middleburg, VA 20117",
            "lat": "38.9687122",
            "lon": "-77.7358083"
        },
        "locations": "Restaurant",
        "wines": [
            "Eluvium"
        ]
    },
    {
        "id": "GscbqCr-h9mvvXmcWw8Mu",
        "name": "La Fromagerie",
        "address": {
            "street": "1222 King St, Alexandria, VA 22314",
            "lat": "38.805648",
            "lon": "-77.053429"
        },
        "locations": "Restaurant/Retail",
        "wines": [
            "Eluvium",
            "Pétillant Naturel White"
        ]
    },
    {
        "id": "5UhhBGCEpdiK2lYH58Wp1",
        "name": "Unwined - Belle View",
        "address": {
            "street": "1600 Belle View Blvd., Alexandria, VA 22307",
            "lat": "38.7761672",
            "lon": "-77.0597746"
        },
        "locations": "Retail",
        "wines": [
            "Eluvium",
            "Petit Manseng",
            "Rosé",
            "Shenandoah Valley Cabernet Franc"
        ]
    },
    {
        "id": "iueNQQpUO-ORnvXfHuj90",
        "name": "Tuscatora Mill",
        "address": {
            "street": "203 Harrison St SE, Leesburg, VA 20175",
            "lat": "39.1126676",
            "lon": "-77.5629852"
        },
        "locations": "Restaurant",
        "wines": [
            "Eluvium",
            "Shenandoah Valley Cabernet Franc"
        ]
    },
    {
        "id": "baDi_DHyLbMBSK8Z0fNPU",
        "name": "Zynodoa",
        "address": {
            "street": "115 E Beverly St, Staunton, VA 24401",
            "lat": "38.149814",
            "lon": "-79.0709713"
        },
        "locations": "Restaurant",
        "wines": [
            "Eluvium",
            "Petit Manseng"
        ]
    },
    {
        "id": "7QWDxomG2vIqbkuaHvgym",
        "name": "C&O Restaurant",
        "address": {
            "street": "515 E Water St, Charlottesville, VA 22902",
            "lat": "38.0290618",
            "lon": "-78.4782802"
        },
        "locations": "Restaurant/Retail",
        "wines": [
            "Eluvium",
            "Rosé"
        ]
    },
    {
        "id": "kSbs2kys5dIknvDgbbI3X",
        "name": "Cork & Fork - DC",
        "address": {
            "street": "1522 14th St NW, Washington, DC 20005",
            "lat": "38.9104777",
            "lon": "-77.0321531"
        },
        "locations": "Retail",
        "wines": [
            "Eluvium",
            "Foothills",
            "Shenandoah Valley Cabernet Franc"
        ]
    },
    {
        "id": "umXLX0JbdNbpgukbvQ9zr",
        "name": "Ellwood Thompson",
        "address": {
            "street": "4 N Thompson St, Richmond, VA 23221",
            "lat": "37.5574138",
            "lon": "-77.4884332"
        },
        "locations": "Retail",
        "wines": [
            "Eluvium",
            "Five Forks",
            "Foothills"
        ]
    },
    {
        "id": "wPs4HnjRmdKkn36a4dmIX",
        "name": "Fahrenheit 132",
        "address": {
            "street": "328 William Street, Fredericksburg, VA 22401",
            "lat": "38.3028665",
            "lon": "-77.4612967"
        },
        "locations": "Restaurant",
        "wines": [
            "Eluvium",
            "RISE"
        ]
    },
    {
        "id": "L04e7WQYFjdZeiPne4I0a",
        "name": "Libbie Market",
        "address": {
            "street": "400 Libbie Ave., Richmond, VA 23226",
            "lat": "37.5746309",
            "lon": "-77.5183971"
        },
        "locations": "Retail",
        "wines": [
            "Eluvium",
            "Foothills",
            "Petit Manseng",
            "Rosé",
            "Young Wine Red"
        ]
    },
    {
        "id": "6Xyqp8Cl-7lj0sDUQahSR",
        "name": "Market Street Wine Shop",
        "address": {
            "street": "311 East Market St, Charlottesville, VA 22902",
            "lat": "38.0310819",
            "lon": "-78.4790515"
        },
        "locations": "Retail",
        "wines": [
            "Eluvium",
            "Five Forks",
            "Foothills"
        ]
    },
    {
        "id": "ZGATaQD23gCMSufY1Jw1w",
        "name": "Norm's Beer & Wine",
        "address": {
            "street": "136 Branch Rd SE, Vienna, VA 22180",
            "lat": "38.9062317",
            "lon": "-77.257151"
        },
        "locations": "Retail",
        "wines": [
            "Eluvium",
            "Five Forks",
            "Shenandoah Valley Cabernet Franc"
        ]
    },
    {
        "id": "A0frnhMqDxoeomR56sJCY",
        "name": "Taste - Bayville Farms",
        "address": {
            "street": "4097 Shore Drive, Virginia Beach, VA 23455",
            "lat": "36.9059328",
            "lon": "-76.1160943"
        },
        "locations": "Restaurant/Retail",
        "wines": [
            "Eluvium",
            "Five Forks",
            "Foothills",
            "Rosé"
        ]
    },
    {
        "id": "POpKeZaTAAg6k05c-FaB9",
        "name": "Taste - Hilltop",
        "address": {
            "street": "1554 Laskin Road, Suite 110, Virginia Beach, VA 23451",
            "lat": "36.853651",
            "lon": "-76.0153597"
        },
        "locations": "Restaurant/Retail",
        "wines": [
            "Eluvium",
            "Foothills",
            "Rosé"
        ]
    },
    {
        "id": "eTa98eeaFjd_eXFm4e7XI",
        "name": "Unwined - King St",
        "address": {
            "street": "Bradlee Shopping Center, Alexandria, VA 22302",
            "lat": "38.8286279",
            "lon": "-77.091689"
        },
        "locations": "Retail",
        "wines": [
            "Eluvium",
            "Foothills",
            "Rosé",
            "Shenandoah Valley Cabernet Franc"
        ]
    },
    {
        "id": "nBReK6i571ulqmXr0t_Xi",
        "name": "Jefferson Hotel",
        "address": {
            "street": "101 W Franklin St, Richmond, VA 23220",
            "lat": "37.5442549",
            "lon": "-77.4454117"
        },
        "locations": "Restaurant",
        "wines": [
            "Eluvium",
            "Foothills"
        ]
    },
    {
        "id": "C_Y4riv6laUBLxSSiMTgE",
        "name": "Taste - Oceanfront",
        "address": {
            "street": "3603 Pacific Avenue, Virginia Beach, VA 23451",
            "lat": "36.8641917",
            "lon": "-75.9803595"
        },
        "locations": "Retail",
        "wines": [
            "Eluvium",
            "Five Forks",
            "Foothills",
            "Rosé"
        ]
    },
    {
        "id": "MIJUhXwzoovytwVFS3lnR",
        "name": "Duner's",
        "address": {
            "street": "4372 Ivy Rd., Charlottesville, VA 22903",
            "lat": "38.0576978",
            "lon": "-78.5980417"
        },
        "locations": "Restaurant",
        "wines": [
            "Eluvium"
        ]
    },
    {
        "id": "i-1I2pT79LKZYc_8m3fvK",
        "name": "Le Vintage",
        "address": {
            "street": "1218 King Street, Alexandria, VA 22314",
            "lat": "38.8057139",
            "lon": "-77.0533207"
        },
        "locations": "Retail",
        "wines": [
            "Eluvium",
            "Pétillant Naturel White",
            "Rosé",
            "Shenandoah Valley Cabernet Franc"
        ]
    },
    {
        "id": "HW6JhoEv5wh3-_Sj-uyR_",
        "name": "Farmington",
        "address": {
            "street": "1625 Country Club Circle, Charlottesville, VA 22901",
            "lat": "38.0616369",
            "lon": "-78.5419503"
        },
        "locations": "Restaurant",
        "wines": [
            "Eluvium",
            "Petit Manseng"
        ]
    },
    {
        "id": "0omPRaAkiDa8hffKJdV4n",
        "name": "Taste - Town Center",
        "address": {
            "street": "4513 Commerce Street, Virgina Beach, VA 23462",
            "lat": "36.8416311",
            "lon": "-76.1345806"
        },
        "locations": "Retail",
        "wines": [
            "Eluvium",
            "Five Forks",
            "Foothills"
        ]
    },
    {
        "id": "HcyHV5purGt6Wvm9TfWyt",
        "name": "Tastings of Charlottesville",
        "address": {
            "street": "502 East Market St, Charlottesville, VA 22902",
            "lat": "38.0303427",
            "lon": "-78.4779714"
        },
        "locations": "Retail",
        "wines": [
            "Eluvium",
            "Quaker Run Chardonnay"
        ]
    },
    {
        "id": "8MCZrJ6JKnbWeawjDjIsm",
        "name": "Local, The",
        "address": {
            "street": "824 Hinton Ave, Charlottesville, VA 22901",
            "lat": "38.0244641",
            "lon": "-78.4755275"
        },
        "locations": "Restaurant",
        "wines": [
            "Eluvium"
        ]
    },
    {
        "id": "qm07QrfhhvTyVJO-VoFwd",
        "name": "Taste - Westhampton",
        "address": {
            "street": "5706 Grove Ave Ste 100, Richmond, VA 23226",
            "lat": "37.5732828",
            "lon": "-77.5173888"
        },
        "locations": "Retail",
        "wines": [
            "Eluvium",
            "Foothills",
            "Rosé"
        ]
    },
    {
        "id": "NOvE931t3-wa7imCNnsdi",
        "name": "Taste - Greenbrier",
        "address": {
            "street": "717 Eden Way, Unit 600, Chesapeake, VA 23320",
            "lat": "36.7722661",
            "lon": "-76.2369631"
        },
        "locations": "Retail",
        "wines": [
            "Eluvium",
            "Foothills",
            "Rosé"
        ]
    },
    {
        "id": "ZAmH9ocNa3WqlYFyU_9vS",
        "name": "Cork & Table",
        "address": {
            "street": "909 Caroline St., Fredericksburg, VA 22401",
            "lat": "38.3030513",
            "lon": "-77.4590764"
        },
        "locations": "Restaurant",
        "wines": [
            "Eluvium"
        ]
    },
    {
        "id": "iWCM5_1mJlSZa8nfFBcAh",
        "name": "Calvert Woodley",
        "address": {
            "street": "4339 Connecticut Ave NW, Washington, DC 20008",
            "lat": "38.9450626",
            "lon": "-77.06377"
        },
        "locations": "Retail",
        "wines": [
            "Eluvium"
        ]
    },
    {
        "id": "a1RQZrK5AMAJ5lwNXUDON",
        "name": "Rio Hill Wine & Beer",
        "address": {
            "street": "1908 Rio Hill Center, Charlottesville, VA 22901",
            "lat": "38.0877905",
            "lon": "-78.4749043"
        },
        "locations": "Retail",
        "wines": [
            "Eluvium",
            "Foothills",
            "Rosé",
            "Shenandoah Valley Cabernet Franc"
        ]
    },
    {
        "id": "RkfdDfjfIH6fPvAWB_jPi",
        "name": "Tuscarora Mill",
        "address": {
            "street": "203 Harrison St SE, Leesburg, VA 20175",
            "lat": "39.1126676",
            "lon": "-77.5629852"
        },
        "locations": "Restaurant",
        "wines": [
            "Eluvium",
            "Shenandoah Valley Cabernet Franc"
        ]
    },
    {
        "id": "FTHiDgAWVqehoahDNRvPv",
        "name": "Alewife",
        "address": {
            "street": "3120 E Marshall St., Richmond, VA 23223",
            "lat": "37.5288308",
            "lon": "-77.4116311"
        },
        "locations": "Restaurant/Retail",
        "wines": [
            "Five Forks",
            "Foothills",
            "Pétillant Naturel White",
            "Young Wine",
            "Young Wine Red",
            "Young Wine White"
        ]
    },
    {
        "id": "TlhcCsiTu5Kafv4vmlu3I",
        "name": "Basic City Beer Co.",
        "address": {
            "street": "1010 E Main St, Waynesboro, VA 22980",
            "lat": "38.0634845",
            "lon": "-78.873384"
        },
        "locations": "Restaurant/Retail",
        "wines": [
            "Five Forks"
        ]
    },
    {
        "id": "0mpOidsH2zbipWGq2xGax",
        "name": "Capital Ale House - Fairfax",
        "address": {
            "street": "4069 Chain Bridge Rd, Fairfax, VA 22030",
            "lat": "38.8442986",
            "lon": "-77.3073582"
        },
        "locations": "Restaurant",
        "wines": [
            "Five Forks",
            "Foothills"
        ]
    },
    {
        "id": "CKIFKXtQH7HLiZ585oeAS",
        "name": "Capital One Hall",
        "address": {
            "street": "7750 Capital One Tower Rd, Tysons, VA 22102",
            "lat": "38.9254757",
            "lon": "-77.2112568"
        },
        "locations": "Restaurant",
        "wines": [
            "Five Forks",
            "Foothills",
            "Rosé"
        ]
    },
    {
        "id": "ynA2mBXHrBYh3jppxj1fN",
        "name": "In Vino Veritas",
        "address": {
            "street": "3015 Louisa Rd, Keswick, VA 22947",
            "lat": "38.0134664",
            "lon": "-78.3951928"
        },
        "locations": "Retail",
        "wines": [
            "Five Forks",
            "Foothills"
        ]
    },
    {
        "id": "dpEyNPdL3OfWUO3UEZ05U",
        "name": "Live Arts",
        "address": {
            "street": "123 East Water St, Charlottesville, VA 22902",
            "lat": "38.0300169",
            "lon": "-78.4812638"
        },
        "locations": "Restaurant",
        "wines": [
            "Five Forks",
            "Foothills",
            "Rosé",
            "Young Wine White"
        ]
    },
    {
        "id": "fWJu-5IcgTUG2Rdfvd5SY",
        "name": "Red Fox Inn",
        "address": {
            "street": "2 E. Washington St., Middleburg, VA 20117",
            "lat": "38.9692453",
            "lon": "-77.7354394"
        },
        "locations": "Restaurant",
        "wines": [
            "Five Forks",
            "RISE",
            "Shenandoah Valley Cabernet Franc"
        ]
    },
    {
        "id": "D45iLA_oeL_mrOFmPaIhR",
        "name": "Roosevelt",
        "address": {
            "street": "623 N. 25th St., Richmond, VA 23223",
            "lat": "37.534897",
            "lon": "-77.4154189"
        },
        "locations": "Restaurant",
        "wines": [
            "Five Forks",
            "Foothills"
        ]
    },
    {
        "id": "iE8qom_chYQC1AOdFigGY",
        "name": "Screwtop",
        "address": {
            "street": "1025 Fillmore St. N, Arlington, VA 22201",
            "lat": "38.8859072",
            "lon": "-77.0926894"
        },
        "locations": "Restaurant",
        "wines": [
            "Five Forks",
            "Rosé",
            "Shenandoah Valley Cabernet Franc"
        ]
    },
    {
        "id": "1yHQj47nz-5CzJVQz7s7-",
        "name": "Succotash",
        "address": {
            "street": "915 F St. NW, Washington, DC 20004",
            "lat": "38.897644",
            "lon": "-77.02474"
        },
        "locations": "Restaurant",
        "wines": [
            "Five Forks"
        ]
    },
    {
        "id": "qtTvbsK_AuPxciNTvfD31",
        "name": "Vino Market",
        "address": {
            "street": "3730 Winterfield Rd., Midlothian, VA 23113",
            "lat": "37.5535346",
            "lon": "-77.6685934"
        },
        "locations": "Retail",
        "wines": [
            "Five Forks",
            "Foothills",
            "Rosé"
        ]
    },
    {
        "id": "Rc0RS9cjZV4-Xvga0hj3N",
        "name": "Whole Foods - Arlington",
        "address": {
            "street": "2700 Wilson Blvd., Arlington, VA 22201",
            "lat": "38.8890982",
            "lon": "-77.0910708"
        },
        "locations": "Restaurant/Retail",
        "wines": [
            "Five Forks",
            "Rosé"
        ]
    },
    {
        "id": "LeYooB8e2EG8UrEFNJuXu",
        "name": "Whole Foods - Fair Lakes",
        "address": {
            "street": "4501 Market Commons Drive, Fairfax, VA 22033",
            "lat": "38.8578497",
            "lon": "-77.377751"
        },
        "locations": "Restaurant/Retail",
        "wines": [
            "Five Forks",
            "Foothills",
            "Rosé"
        ]
    },
    {
        "id": "GBBLgDw_PXI1_YYiae-sh",
        "name": "Whole Foods - Glover Park",
        "address": {
            "street": "2323 Wisconsin Ave NW, Washington, DC 20007",
            "lat": "38.9208932",
            "lon": "-77.0711068"
        },
        "locations": "Restaurant/Retail",
        "wines": [
            "Five Forks",
            "Foothills",
            "Rosé"
        ]
    },
    {
        "id": "wE4wss06cyPC_Tvdp16se",
        "name": "Whole Foods - Old Town",
        "address": {
            "street": "1700 Duke Street, Alexandria, VA 22314",
            "lat": "38.8041416",
            "lon": "-77.0600615"
        },
        "locations": "Restaurant/Retail",
        "wines": [
            "Five Forks",
            "Foothills",
            "Rosé",
            "Young Wine Red"
        ]
    },
    {
        "id": "dBVi_GXB13cYbrSS-GQOK",
        "name": "Whole Foods - P Street",
        "address": {
            "street": "1440 P Street NW, Washington, DC 20005",
            "lat": "38.9092854",
            "lon": "-77.0335078"
        },
        "locations": "Restaurant/Retail",
        "wines": [
            "Five Forks",
            "Foothills",
            "Rosé",
            "Young Wine Red"
        ]
    },
    {
        "id": "CYenUGt_u-vwqHTE9x3ek",
        "name": "Whole Foods - Short Pump",
        "address": {
            "street": "11173 West Broad St., Richmond, VA 23060",
            "lat": "37.6475262",
            "lon": "-77.5994359"
        },
        "locations": "Restaurant/Retail",
        "wines": [
            "Five Forks",
            "Foothills",
            "Rosé",
            "Young Wine Red"
        ]
    },
    {
        "id": "gwGEXeUTh8oX71ns1ZUBL",
        "name": "Whole Foods - South Capitol Hill",
        "address": {
            "street": "101 H St. SE, Washington, DC 20003",
            "lat": "38.8802819",
            "lon": "-77.005121"
        },
        "locations": "Restaurant/Retail",
        "wines": [
            "Five Forks",
            "Foothills",
            "Rosé"
        ]
    },
    {
        "id": "3SX3Q4V0KuIg_9Q4gcU1F",
        "name": "Whole Foods - Tenley",
        "address": {
            "street": "4530 40th Street NW, Washington, DC 20016",
            "lat": "38.9490789",
            "lon": "-77.0792007"
        },
        "locations": "Restaurant/Retail",
        "wines": [
            "Five Forks",
            "Foothills",
            "Rosé"
        ]
    },
    {
        "id": "qvatDmSYoh27LI6DtkLSa",
        "name": "Whole Foods - Vienna",
        "address": {
            "street": "143 Maple Ave East, Vienna, VA 22180",
            "lat": "38.9022469",
            "lon": "-77.2626957"
        },
        "locations": "Restaurant/Retail",
        "wines": [
            "Five Forks",
            "Rosé"
        ]
    },
    {
        "id": "kA29GosPl3JXkKEg-J_ur",
        "name": "Department of Beer & Wine",
        "address": {
            "street": "2724 Richmond Hwy, Alexandria, VA 22301",
            "lat": "38.8306436",
            "lon": "-77.0511929"
        },
        "locations": "Retail",
        "wines": [
            "Five Forks",
            "Foothills",
            "Pétillant Naturel White",
            "Petit Manseng",
            "Rosé",
            "Shenandoah Valley Cabernet Franc",
            "Young Wine White"
        ]
    },
    {
        "id": "tuAs3PMZCtyfFkiwzdn25",
        "name": "Ivy Inn",
        "address": {
            "street": "2244 Old Ivy Rd., Charlottesville, VA 22903",
            "lat": "38.0459524",
            "lon": "-78.5162784"
        },
        "locations": "Restaurant",
        "wines": [
            "Five Forks",
            "Rosé"
        ]
    },
    {
        "id": "ByFThMm2XUiL7VbNQZF_0",
        "name": "Pendulum Fine Meats",
        "address": {
            "street": "820 Shirley Avenue, Norfolk, VA 23517",
            "lat": "36.8683635",
            "lon": "-76.2987524"
        },
        "locations": "Retail",
        "wines": [
            "Five Forks",
            "Foothills"
        ]
    },
    {
        "id": "1bZRsipjhsBdow0Nxw8Oa",
        "name": "Second Bottle Wine",
        "address": {
            "street": "324 N 27th St Apt. A, Richmond, VA 23223",
            "lat": "37.5314274",
            "lon": "-77.4164175"
        },
        "locations": "Retail",
        "wines": [
            "Five Forks",
            "Foothills",
            "Petit Manseng",
            "Rosé",
            "Shenandoah Valley Cabernet Franc"
        ]
    },
    {
        "id": "ywhaSzvjdD7cTzhgc56L_",
        "name": "Whole Foods - Charlottesville",
        "address": {
            "street": "1797 Hydraulic Road, Charlottesville, VA 22901",
            "lat": "38.059773",
            "lon": "-78.4891351"
        },
        "locations": "Restaurant/Retail",
        "wines": [
            "Five Forks",
            "Rosé",
            "Young Wine",
            "Young Wine Red"
        ]
    },
    {
        "id": "NqwO-6Hfr7lx0KW3KMjEs",
        "name": "Whole Foods - Florida Ave",
        "address": {
            "street": "FAV - BU# 10651, Washington, DC 20001",
            "lat": "38.912068",
            "lon": "-77.0190228"
        },
        "locations": "Restaurant/Retail",
        "wines": [
            "Five Forks",
            "Foothills",
            "Young Wine Red"
        ]
    },
    {
        "id": "xtLv3nufeBZ8gXsdGOGVX",
        "name": "Whole Foods - Foggy Bottom",
        "address": {
            "street": "2201 I Street NW, Washington, DC 20037",
            "lat": "38.9010776",
            "lon": "-77.0490824"
        },
        "locations": "Restaurant/Retail",
        "wines": [
            "Five Forks",
            "Foothills",
            "Rosé"
        ]
    },
    {
        "id": "-zNBPQst4h5GtFJ8wka6f",
        "name": "Whole Foods - H Street",
        "address": {
            "street": "600-A H Street, NE, Washington, DC 20002",
            "lat": "38.8995727",
            "lon": "-77.0201171"
        },
        "locations": "Restaurant/Retail",
        "wines": [
            "Five Forks",
            "Foothills"
        ]
    },
    {
        "id": "M-XKABmmQunc5Mjf5p_uw",
        "name": "Whole Foods - South Capitol Hill",
        "address": {
            "street": "101 H St. SE, Washington, DC 20003",
            "lat": "38.8802819",
            "lon": "-77.005121"
        },
        "locations": "Restaurant/Retail",
        "wines": [
            "Five Forks",
            "Foothills"
        ]
    },
    {
        "id": "0mL7Ut0p2T9aFHYHxg5rM",
        "name": "Whole Foods - Springfield",
        "address": {
            "street": "8402 Old Keene Mill Road, Springfield, VA 22152",
            "lat": "38.7796321",
            "lon": "-77.2342061"
        },
        "locations": "Restaurant/Retail",
        "wines": [
            "Five Forks"
        ]
    },
    {
        "id": "mfGtl_nBv1W1tfDbbwyeS",
        "name": "Wine Seller - Williamsburg",
        "address": {
            "street": "4680 Monticello Ave Suite 15, Williamsburg, VA 23188",
            "lat": "37.2722283",
            "lon": "-76.7577749"
        },
        "locations": "Retail",
        "wines": [
            "Five Forks",
            "Foothills",
            "Pétillant Naturel White",
            "Rosé"
        ]
    },
    {
        "id": "sKCgmjgU52Nk5lvZIRC3A",
        "name": "Second Bottle Wine",
        "address": {
            "street": "324 N 27th St Apt. A, Richmond, VA 23223",
            "lat": "37.5314274",
            "lon": "-77.4164175"
        },
        "locations": "Retail",
        "wines": [
            "Five Forks",
            "Foothills",
            "Rosé",
            "Shenandoah Valley Cabernet Franc"
        ]
    },
    {
        "id": "4Lu4KsQ343_ucTE9biz5W",
        "name": "Whole Foods - Ashburn",
        "address": {
            "street": "19800 Belmont Chase Dr, Ashburn, VA 20147",
            "lat": "39.0686101",
            "lon": "-77.4843579"
        },
        "locations": "Restaurant/Retail",
        "wines": [
            "Five Forks",
            "Foothills",
            "Rosé"
        ]
    },
    {
        "id": "xXNR2ksXmMYf5axIFqgnm",
        "name": "Whole Foods - Charlottesville",
        "address": {
            "street": "1797 Hydraulic Road, Charlottesville, VA 22901",
            "lat": "38.059773",
            "lon": "-78.4891351"
        },
        "locations": "Restaurant/Retail",
        "wines": [
            "Five Forks",
            "Rosé"
        ]
    },
    {
        "id": "nZj0Eik8ZitAmCARXAACC",
        "name": "Whole Foods - Tysons",
        "address": {
            "street": "7511 Leesburg Pike, Falls Church, VA 22043",
            "lat": "38.9026076",
            "lon": "-77.2050359"
        },
        "locations": "Restaurant/Retail",
        "wines": [
            "Five Forks",
            "Foothills",
            "Rosé"
        ]
    },
    {
        "id": "IBdY5K_EZ0SgXSQ882k9z",
        "name": "Whole Foods - West Broad",
        "address": {
            "street": "2024 W Broad Street, Richmond, VA 23220",
            "lat": "37.5581958",
            "lon": "-77.4612166"
        },
        "locations": "Restaurant/Retail",
        "wines": [
            "Five Forks",
            "Foothills",
            "Rosé",
            "Young Wine Red"
        ]
    },
    {
        "id": "DR_M3W6ZaIvM98IcXGzUM",
        "name": "Wine Gourmet",
        "address": {
            "street": "3524 Electric Road, Roanoke, VA 24014",
            "lat": "37.2265303",
            "lon": "-79.9974824"
        },
        "locations": "Retail",
        "wines": [
            "Five Forks",
            "Foothills",
            "Rosé"
        ]
    },
    {
        "id": "XWjReOIt00o3kCS1acPBS",
        "name": "Kindred Fare",
        "address": {
            "street": "512 Hamilton St, Geneva, NY 14456",
            "lat": "42.857025",
            "lon": "-77.0069766"
        },
        "locations": "Restaurant",
        "wines": [
            "Five Forks",
            "Foothills"
        ]
    },
    {
        "id": "tQLsRx5ZuA1qHJQnn2p1u",
        "name": "Taste - Ghent",
        "address": {
            "street": "407 W 21st Street, Norfolk, VA 23517",
            "lat": "36.8703185",
            "lon": "-76.2944544"
        },
        "locations": "Retail",
        "wines": [
            "Five Forks",
            "Foothills",
            "Rosé"
        ]
    },
    {
        "id": "Z9HRbgw1r40aJV9nCN7YM",
        "name": "Taste - Harbour View",
        "address": {
            "street": "5911 Harbour View Blvd Suite 100, Suffolk, VA 23435",
            "lat": "36.8775444",
            "lon": "-76.4384889"
        },
        "locations": "Retail",
        "wines": [
            "Five Forks",
            "Foothills",
            "Rosé"
        ]
    },
    {
        "id": "TstpNT5ETABOGfKZCVIis",
        "name": "Bingo Beer Co.",
        "address": {
            "street": "2900 W Broad Street, Richmond, VA 23230",
            "lat": "37.5637961",
            "lon": "-77.4716025"
        },
        "locations": "Restaurant",
        "wines": [
            "Foothills",
            "Rosé",
            "Young Wine White"
        ]
    },
    {
        "id": "e6YvC8i9R4zRahsC0pLMP",
        "name": "Friendly City Food Co-op",
        "address": {
            "street": "150 E Wolfe St, Harrisonburg, VA 22802",
            "lat": "38.4516609",
            "lon": "-78.8665291"
        },
        "locations": "Retail",
        "wines": [
            "Foothills",
            "Pétillant Naturel White",
            "Petit Manseng",
            "Rosé"
        ]
    },
    {
        "id": "PkHuhmrM8yY0ta_c5o1EN",
        "name": "Chain Bridge Cellars",
        "address": {
            "street": "1351 Chain Bridge Rd, McLean, VA 22101",
            "lat": "38.9385421",
            "lon": "-77.1746454"
        },
        "locations": "Retail",
        "wines": [
            "Foothills"
        ]
    },
    {
        "id": "bML_fTNUWkCHERZzN5PiZ",
        "name": "Middleburg Tennis Club",
        "address": {
            "street": "1777 Zulla Road, Middleburg, VA 20117",
            "lat": "38.9580633",
            "lon": "-77.7638489"
        },
        "locations": "Restaurant",
        "wines": [
            "Foothills",
            "Quaker Run Cabernet Franc",
            "Rosé",
            "Shenandoah Valley Cabernet Franc"
        ]
    },
    {
        "id": "xe5y4a93cClQxDk6zfC0g",
        "name": "NRG - Rustico - Alexandria",
        "address": {
            "street": "827 Slaters Lane, Alexandria, VA 22314",
            "lat": "38.8216366",
            "lon": "-77.0471365"
        },
        "locations": "Restaurant",
        "wines": [
            "Foothills"
        ]
    },
    {
        "id": "XUoH4rtLJu-iChILeSR-T",
        "name": "Organic Butcher of McLean",
        "address": {
            "street": "6712 Old Dominion Drive, McLean, VA 22101",
            "lat": "38.9335412",
            "lon": "-77.1758584"
        },
        "locations": "Retail",
        "wines": [
            "Foothills",
            "Quaker Run Cabernet Franc",
            "Rosé",
            "Shenandoah Valley Cabernet Franc",
            "Young Wine Red"
        ]
    },
    {
        "id": "3crx_jmQx-9d5bdT4TE2Q",
        "name": "Outpost",
        "address": {
            "street": "4813 Forest Hill Ave., Richmond, VA 23225",
            "lat": "37.5211852",
            "lon": "-77.4878087"
        },
        "locations": "Retail",
        "wines": [
            "Foothills",
            "Rosé",
            "Shenandoah Valley Cabernet Franc",
            "Young Wine Red",
            "Young Wine White"
        ]
    },
    {
        "id": "THhNW-Py1YOnLroToix5V",
        "name": "Prosperity Kitchen & Pantry",
        "address": {
            "street": "532 Virginia Beach Blvd Ste B, Virginia Beach, VA 23451",
            "lat": "36.8444829",
            "lon": "-75.9806406"
        },
        "locations": "Restaurant",
        "wines": [
            "Foothills"
        ]
    },
    {
        "id": "AJo1JimcJ6Hv9LBcztWp4",
        "name": "Roanoke Natural Foods Co-op",
        "address": {
            "street": "1319 Grandin Rd SW, Roanoke, VA 24015",
            "lat": "37.2652232",
            "lon": "-79.9776246"
        },
        "locations": "Retail",
        "wines": [
            "Foothills",
            "Rosé",
            "Young Wine Red",
            "Young Wine White"
        ]
    },
    {
        "id": "YrZVZo47KDjA8tXpRnopA",
        "name": "Whole Foods - Tenley",
        "address": {
            "street": "4530 40th Street NW, Washington, DC 20016",
            "lat": "38.9490789",
            "lon": "-77.0792007"
        },
        "locations": "Restaurant/Retail",
        "wines": [
            "Foothills"
        ]
    },
    {
        "id": "V0x5hMB6IE_Q-exzttRqx",
        "name": "Amber Ox Kitchen & Brewery",
        "address": {
            "street": "521 Prince George St., Williamsburg, VA 23185",
            "lat": "37.272864",
            "lon": "-76.708414"
        },
        "locations": "Restaurant",
        "wines": [
            "Foothills"
        ]
    },
    {
        "id": "XNni3SYt10ZRC68vb1UXW",
        "name": "Wool Factory",
        "address": {
            "street": "1837 Broadway Street, Charlottesville, VA 22902",
            "lat": "38.0197143",
            "lon": "-78.4557898"
        },
        "locations": "Restaurant/Retail",
        "wines": [
            "Foothills",
            "Quaker Run Chardonnay"
        ]
    },
    {
        "id": "dAmZwqJCT5ulx39ag4ea6",
        "name": "Barrel Thief",
        "address": {
            "street": "5805 Patterson Ave, Richmond, VA 23226",
            "lat": "37.5794435",
            "lon": "-77.5149812"
        },
        "locations": "Restaurant/Retail",
        "wines": [
            "Foothills",
            "Pétillant Naturel White",
            "Rosé"
        ]
    },
    {
        "id": "H1Am888yCFxYYrFP3DR_L",
        "name": "Bassin's MacArthur Beverages",
        "address": {
            "street": "Shop: 4877 MacArthur Blvd NW, Washington, DC 20007",
            "lat": "38.9178153",
            "lon": "-77.0963369"
        },
        "locations": "Retail",
        "wines": [
            "Foothills",
            "Petit Manseng"
        ]
    },
    {
        "id": "J_AFoVouOQTawsjwM1eL7",
        "name": "Corks & Kegs",
        "address": {
            "street": "7110 Patterson Ave, Suite A, Richmond, VA 23229",
            "lat": "37.5924087",
            "lon": "-77.5329934"
        },
        "locations": "Retail",
        "wines": [
            "Foothills",
            "Shenandoah Valley Cabernet Franc",
            "Young Wine White"
        ]
    },
    {
        "id": "OWErMl8CiwkcwkpWqQjQn",
        "name": "Department of Beer & Wine",
        "address": {
            "street": "2724 Richmond Hwy, Alexandria, VA 22301",
            "lat": "38.8306436",
            "lon": "-77.0511929"
        },
        "locations": "Retail",
        "wines": [
            "Foothills",
            "Rosé"
        ]
    },
    {
        "id": "1_HbZ7ehmUpPB31HxqKR6",
        "name": "Foods of All Nations",
        "address": {
            "street": "2121 Ivy Rd, Charlottesville, VA 22903",
            "lat": "38.0432978",
            "lon": "-78.5119067"
        },
        "locations": "Retail",
        "wines": [
            "Foothills",
            "Shenandoah Valley Cabernet Franc"
        ]
    },
    {
        "id": "3SBxfeSkcrxJcJPTlbdrL",
        "name": "J Emerson",
        "address": {
            "street": "5716 Grove Ave, Richmond, VA 23226",
            "lat": "37.5733362",
            "lon": "-77.5180274"
        },
        "locations": "Retail",
        "wines": [
            "Foothills"
        ]
    },
    {
        "id": "PMOPsV8pKrbNbPFfGd8CQ",
        "name": "Jefferson Hotel",
        "address": {
            "street": "101 W Franklin St, Richmond, VA 23220",
            "lat": "37.5442549",
            "lon": "-77.4454117"
        },
        "locations": "Restaurant",
        "wines": [
            "Foothills"
        ]
    },
    {
        "id": "oSOjfluxiN9tzmF6AD4ll",
        "name": "NRG - Red Apron Mosaic",
        "address": {
            "street": "8298 Glass Alley Ste 110, Fairfax, VA 22031",
            "lat": "38.8735482",
            "lon": "-77.2308105"
        },
        "locations": "Restaurant",
        "wines": [
            "Foothills"
        ]
    },
    {
        "id": "0lMFlFJ-VNgdyDBU8K7Nz",
        "name": "NRG - Planet Wine",
        "address": {
            "street": "2000-2004 Mount Vernon Ave, Alexandria, VA 22301",
            "lat": "38.8239957",
            "lon": "-77.0584135"
        },
        "locations": "Retail",
        "wines": [
            "Foothills",
            "RISE",
            "Rosé",
            "Shenandoah Valley Cabernet Franc",
            "Young Wine Red"
        ]
    },
    {
        "id": "wgU9OJdv4o8qtQD9x2MJT",
        "name": "NRG - Rustico - Ballston",
        "address": {
            "street": "4075 Wilson Blvd., Arlington, VA 22203",
            "lat": "38.8803079",
            "lon": "-77.1085112"
        },
        "locations": "Restaurant",
        "wines": [
            "Foothills"
        ]
    },
    {
        "id": "x8Uy9c07Gd2Hs1pWSuo5R",
        "name": "NRG - Rustico - Alexandria",
        "address": {
            "street": "827 Slaters Lane, Alexandria, VA 22314",
            "lat": "38.8216366",
            "lon": "-77.0471365"
        },
        "locations": "Restaurant",
        "wines": [
            "Foothills"
        ]
    },
    {
        "id": "8inVhRnLkIO5iLEP2OY18",
        "name": "Patty O's Cafe",
        "address": {
            "street": "Inn at Little Washington, Washington, VA 22747",
            "lat": "38.7138077",
            "lon": "-78.1595479"
        },
        "locations": "Restaurant",
        "wines": [
            "Foothills"
        ]
    },
    {
        "id": "PL8QboaDQhnUhDZHh8ly6",
        "name": "Quirk Hotel - Charlottesville",
        "address": {
            "street": "499 W Main Street, Charlottesville, VA 22902",
            "lat": "38.03121",
            "lon": "-78.48776"
        },
        "locations": "Restaurant/Retail",
        "wines": [
            "Foothills"
        ]
    },
    {
        "id": "0k5DcT6pOwZJUCBL_0lF2",
        "name": "Rhett's Bar and Grill",
        "address": {
            "street": "134 Wood Ridge Terrace Ste.100, Zion Crossroads, VA 22942",
            "lat": "37.9804992",
            "lon": "-78.2134246"
        },
        "locations": "Restaurant",
        "wines": [
            "Foothills"
        ]
    },
    {
        "id": "k065SRnTHcjjVtPL6eKn8",
        "name": "Roanoke Natural Foods Co-op",
        "address": {
            "street": "1319 Grandin Rd SW, Roanoke, VA 24015",
            "lat": "37.2652232",
            "lon": "-79.9776246"
        },
        "locations": "Retail",
        "wines": [
            "Foothills"
        ]
    },
    {
        "id": "cjg_Ws8dfdPwOLZuQ_vjk",
        "name": "Roosevelt",
        "address": {
            "street": "623 N. 25th St., Richmond, VA 23223",
            "lat": "37.534897",
            "lon": "-77.4154189"
        },
        "locations": "Restaurant",
        "wines": [
            "Foothills"
        ]
    },
    {
        "id": "hOc-4kF-Odrepevxt4rOi",
        "name": "Tail Up Goat",
        "address": {
            "street": "1827 Adams Mill Rd. NW, Washington, DC 20009",
            "lat": "38.923447",
            "lon": "-77.043176"
        },
        "locations": "Restaurant",
        "wines": [
            "Foothills"
        ]
    },
    {
        "id": "5kG81c1KmzVjTFVGgWDtv",
        "name": "Whole Foods - H Street",
        "address": {
            "street": "600-A H Street, NE, Washington, DC 20002",
            "lat": "38.8995727",
            "lon": "-77.0201171"
        },
        "locations": "Restaurant/Retail",
        "wines": [
            "Foothills"
        ]
    },
    {
        "id": "iAktcpEXCYdQ7MqpuVDoX",
        "name": "Whole Foods - Old Town",
        "address": {
            "street": "1700 Duke Street, Alexandria, VA 22314",
            "lat": "38.8041416",
            "lon": "-77.0600615"
        },
        "locations": "Restaurant/Retail",
        "wines": [
            "Foothills",
            "Rosé"
        ]
    },
    {
        "id": "gDv4Z_b_jlibQboBikWwY",
        "name": "Whole Foods - Pentagon City",
        "address": {
            "street": "520 12th St S Ste 100, Arlington, VA 22202",
            "lat": "38.8628102",
            "lon": "-77.0545096"
        },
        "locations": "Restaurant/Retail",
        "wines": [
            "Foothills",
            "Rosé"
        ]
    },
    {
        "id": "zd9Wqbw91RWaUw_OIIM0H",
        "name": "Whole Foods - Short Pump",
        "address": {
            "street": "11173 West Broad St., Richmond, VA 23060",
            "lat": "37.6475262",
            "lon": "-77.5994359"
        },
        "locations": "Restaurant/Retail",
        "wines": [
            "Foothills"
        ]
    },
    {
        "id": "bsqCnI70pn2dlBzl5sZG9",
        "name": "Amber Ox Kitchen & Brewery",
        "address": {
            "street": "521 Prince George St., Williamsburg, VA 23185",
            "lat": "37.272864",
            "lon": "-76.708414"
        },
        "locations": "Restaurant",
        "wines": [
            "Foothills"
        ]
    },
    {
        "id": "6u-viQEsWbQvMle6VzzNG",
        "name": "Crystal City Wine Shop",
        "address": {
            "street": "220 20th St. South, Arlington, VA 22202",
            "lat": "38.85597",
            "lon": "-77.0500304"
        },
        "locations": "Retail",
        "wines": [
            "Foothills",
            "Petit Manseng",
            "RISE",
            "Rosé"
        ]
    },
    {
        "id": "75TitMg6rZs1OJb78SwaK",
        "name": "Dawson's Market Dupont Circle",
        "address": {
            "street": "2001 S St. NW, Washington, DC 20009",
            "lat": "38.9143274",
            "lon": "-77.0451575"
        },
        "locations": "Restaurant/Retail",
        "wines": [
            "Foothills",
            "Rosé",
            "Young Wine Red"
        ]
    },
    {
        "id": "GMvwHBhgUu81wFXnEDVJ0",
        "name": "Ellwood Thompson",
        "address": {
            "street": "4 N Thompson St, Richmond, VA 23221",
            "lat": "37.5574138",
            "lon": "-77.4884332"
        },
        "locations": "Retail",
        "wines": [
            "Foothills"
        ]
    },
    {
        "id": "NXt8bPiehKT1Oo5Uh1qOB",
        "name": "Fat Canary",
        "address": {
            "street": "The Cheese Shop of VA, Inc., Williamsburg, VA 23185",
            "lat": "37.2706994",
            "lon": "-76.7061859"
        },
        "locations": "Restaurant",
        "wines": [
            "Foothills",
            "Rosé"
        ]
    },
    {
        "id": "oyR1ZuVUF8TB6B8Dwd2rN",
        "name": "Friendly City Food Co-op",
        "address": {
            "street": "150 E Wolfe St, Harrisonburg, VA 22802",
            "lat": "38.4516609",
            "lon": "-78.8665291"
        },
        "locations": "Retail",
        "wines": [
            "Foothills",
            "Rosé"
        ]
    },
    {
        "id": "KqvAICWPMQwcHPIWiWGaK",
        "name": "NRG - Rustico - Ballston",
        "address": {
            "street": "4075 Wilson Blvd., Arlington, VA 22203",
            "lat": "38.8803079",
            "lon": "-77.1085112"
        },
        "locations": "Restaurant",
        "wines": [
            "Foothills"
        ]
    },
    {
        "id": "rGgF9tDlTad2NED7zy8B1",
        "name": "Press 626",
        "address": {
            "street": "626 West Olney Rd., Norfolk, VA 23507",
            "lat": "36.8605378",
            "lon": "-76.2996588"
        },
        "locations": "Restaurant",
        "wines": [
            "Foothills",
            "Petit Manseng",
            "Shenandoah Valley Cabernet Franc",
            "Young Wine Red"
        ]
    },
    {
        "id": "7xWxwrcH0a2LxmWSndFa_",
        "name": "Prosperity Kitchen & Pantry",
        "address": {
            "street": "532 Virginia Beach Blvd Ste B, Virginia Beach, VA 23451",
            "lat": "36.8444829",
            "lon": "-75.9806406"
        },
        "locations": "Restaurant",
        "wines": [
            "Foothills"
        ]
    },
    {
        "id": "xYd1wN33mBvT3S1spjQEI",
        "name": "Veil - Forest Hill",
        "address": {
            "street": "4910 Forest Hill Ave, Richmond, VA 23225",
            "lat": "37.5218053",
            "lon": "-77.4900606"
        },
        "locations": "Restaurant",
        "wines": [
            "Foothills"
        ]
    },
    {
        "id": "zFbxERSoc5XZzi2H53v9X",
        "name": "Whole Foods - Fair Lakes",
        "address": {
            "street": "4501 Market Commons Drive, Fairfax, VA 22033",
            "lat": "38.8578497",
            "lon": "-77.377751"
        },
        "locations": "Restaurant/Retail",
        "wines": [
            "Foothills"
        ]
    },
    {
        "id": "Tmf-IIeTvU14w9N0CxQIE",
        "name": "Whole Foods - Short Pump",
        "address": {
            "street": "11173 West Broad St., Richmond, VA 23060",
            "lat": "37.6475262",
            "lon": "-77.5994359"
        },
        "locations": "Restaurant/Retail",
        "wines": [
            "Foothills"
        ]
    },
    {
        "id": "1B_CSis4UBo7JE9hov_n9",
        "name": "Whole Foods - Tysons",
        "address": {
            "street": "7511 Leesburg Pike, Falls Church, VA 22043",
            "lat": "38.9026076",
            "lon": "-77.2050359"
        },
        "locations": "Restaurant/Retail",
        "wines": [
            "Foothills"
        ]
    },
    {
        "id": "3vE5k9_hvfp4gmCVEpT1S",
        "name": "Whole Foods - Virginia Beach",
        "address": {
            "street": "1800 Laskin Road, Virginia Beach, VA 23454",
            "lat": "36.8509319",
            "lon": "-76.0281576"
        },
        "locations": "Restaurant/Retail",
        "wines": [
            "Foothills",
            "Rosé"
        ]
    },
    {
        "id": "UgC2ymiwezWmqTo7fEm1b",
        "name": "Whole Foods - West Broad",
        "address": {
            "street": "2024 W Broad Street, Richmond, VA 23220",
            "lat": "37.5581958",
            "lon": "-77.4612166"
        },
        "locations": "Restaurant/Retail",
        "wines": [
            "Foothills"
        ]
    },
    {
        "id": "6Rm2yt8gMKwduU4Er8VN6",
        "name": "Jardin",
        "address": {
            "street": "1520 West Main Street, Richmond, VA 23220",
            "lat": "37.5476874",
            "lon": "-77.4605615"
        },
        "locations": "Restaurant",
        "wines": [
            "Foothills"
        ]
    },
    {
        "id": "mvdoWJGTRpF97aW-_JdYr",
        "name": "Wine Warehouse",
        "address": {
            "street": "1804 Hydraulic Rd, Charlottesville, VA 22902",
            "lat": "38.0607943",
            "lon": "-78.4914214"
        },
        "locations": "Retail",
        "wines": [
            "Foothills"
        ]
    },
    {
        "id": "mBbXlsHvrh8l1RlTaJNny",
        "name": "King's Ransom",
        "address": {
            "street": "728 King St, Alexandria, VA 22314",
            "lat": "38.8050097",
            "lon": "-77.0479903"
        },
        "locations": "Restaurant",
        "wines": [
            "Foothills"
        ]
    },
    {
        "id": "6HO8wOGq3l5iyEvBLGMSp",
        "name": "Kings County Wines",
        "address": {
            "street": "1420 Cortelyou Road, Brooklyn, NY 11226",
            "lat": "40.6409309",
            "lon": "-73.9645048"
        },
        "locations": "Retail",
        "wines": [
            "Foothills"
        ]
    },
    {
        "id": "g656eOrL0MpwbteVHr4ma",
        "name": "NRG - Red Apron Mosaic",
        "address": {
            "street": "8298 Glass Alley Ste 110, Fairfax, VA 22031",
            "lat": "38.8735482",
            "lon": "-77.2308105"
        },
        "locations": "Restaurant",
        "wines": [
            "Foothills"
        ]
    },
    {
        "id": "tIMM31HjAs2FC0iCy7Blh",
        "name": "Taste - City Center",
        "address": {
            "street": "Karla Zappatelli, Newport News, VA 23606",
            "lat": "37.0672839",
            "lon": "-76.514138"
        },
        "locations": "Retail",
        "wines": [
            "Foothills"
        ]
    },
    {
        "id": "2lapS2yaeciFYglL1ZiCI",
        "name": "Union Market",
        "address": {
            "street": "2306 Jefferson Avenue, Richmond, VA 23223",
            "lat": "37.5351655",
            "lon": "-77.4180834"
        },
        "locations": "Restaurant",
        "wines": [
            "Foothills"
        ]
    },
    {
        "id": "Ws8J8IGMjl4HWDll71VVT",
        "name": "Whole Foods - Ashburn",
        "address": {
            "street": "19800 Belmont Chase Dr, Ashburn, VA 20147",
            "lat": "39.0686101",
            "lon": "-77.4843579"
        },
        "locations": "Restaurant/Retail",
        "wines": [
            "Foothills"
        ]
    },
    {
        "id": "UH7RTjYHyIoxNe7tRyQrR",
        "name": "Whole Foods - Boro Tysons",
        "address": {
            "street": "1635 Boro Place, McLean, VA 22102",
            "lat": "38.9246913",
            "lon": "-77.2333798"
        },
        "locations": "Restaurant/Retail",
        "wines": [
            "Foothills",
            "Rosé"
        ]
    },
    {
        "id": "O57Q1oYxvXLOf9NpiPjJ5",
        "name": "Whole Foods - Pentagon City",
        "address": {
            "street": "520 12th St S Ste 100, Arlington, VA 22202",
            "lat": "38.8628102",
            "lon": "-77.0545096"
        },
        "locations": "Restaurant/Retail",
        "wines": [
            "Foothills"
        ]
    },
    {
        "id": "LPaNW9dRIy2PcCrYd3jK4",
        "name": "Wine Seller - Williamsburg",
        "address": {
            "street": "4680 Monticello Ave Suite 15, Williamsburg, VA 23188",
            "lat": "37.2722283",
            "lon": "-76.7577749"
        },
        "locations": "Retail",
        "wines": [
            "Foothills"
        ]
    },
    {
        "id": "EZEfTj6oxVrFMlIfOI0Ma",
        "name": "Jardin",
        "address": {
            "street": "1520 West Main Street, Richmond, VA 23220",
            "lat": "37.5476874",
            "lon": "-77.4605615"
        },
        "locations": "Restaurant",
        "wines": [
            "Foothills"
        ]
    },
    {
        "id": "hz2U5mNqK4RtJGG1KllHi",
        "name": "Live Arts",
        "address": {
            "street": "123 East Water St, Charlottesville, VA 22902",
            "lat": "38.0300169",
            "lon": "-78.4812638"
        },
        "locations": "Restaurant",
        "wines": [
            "Foothills",
            "Rosé"
        ]
    },
    {
        "id": "eLgDkHzWvam-bCRPdzj19",
        "name": "NRG - Iron Gate",
        "address": {
            "street": "1734 N St. NW, Washington, DC 20036",
            "lat": "38.9070697",
            "lon": "-77.0398501"
        },
        "locations": "Restaurant",
        "wines": [
            "Foothills",
            "Petit Manseng"
        ]
    },
    {
        "id": "aAJxnKU-IfKQzTi3ufxKb",
        "name": "Vinosity",
        "address": {
            "street": "174 E Davis St, Culpeper, VA 22701",
            "lat": "38.4731199",
            "lon": "-77.9948819"
        },
        "locations": "Retail",
        "wines": [
            "Foothills",
            "Rosé",
            "Young Wine Red"
        ]
    },
    {
        "id": "ouHUXRk4PPEE6DBPmksS1",
        "name": "Whole Foods - Newport News",
        "address": {
            "street": "12080 Jefferson Ave, Newport News, VA 23606",
            "lat": "37.1028877",
            "lon": "-76.4907572"
        },
        "locations": "Restaurant/Retail",
        "wines": [
            "Foothills",
            "Rosé"
        ]
    },
    {
        "id": "Sp4xBashFHxrhTwGKU79L",
        "name": "Wool Factory",
        "address": {
            "street": "1837 Broadway Street, Charlottesville, VA 22902",
            "lat": "38.0197143",
            "lon": "-78.4557898"
        },
        "locations": "Restaurant/Retail",
        "wines": [
            "Foothills"
        ]
    },
    {
        "id": "6t_-mPp0k9VLLGI7tH1dh",
        "name": "Fort Lewis Lodge",
        "address": {
            "street": "603 Old Plantation Way, Millboro, VA 24460",
            "lat": "38.114054",
            "lon": "-79.6110139"
        },
        "locations": "Restaurant",
        "wines": [
            "Foothills"
        ]
    },
    {
        "id": "2e5E7h-VwEY2JkktMpq8S",
        "name": "Alley Light",
        "address": {
            "street": "108 2nd St. SW, Charlottesville, VA 22902",
            "lat": "38.0305995",
            "lon": "-78.482276"
        },
        "locations": "Restaurant/Retail",
        "wines": [
            "Foothills",
            "RISE",
            "Shenandoah Valley Cabernet Franc",
            "Young Wine Red"
        ]
    },
    {
        "id": "6eg6mtsy1G8brec9W-65s",
        "name": "Odd Provisions",
        "address": {
            "street": "3301 11th Street NW, Washington, DC 20010",
            "lat": "38.9309006",
            "lon": "-77.0278015"
        },
        "locations": "Retail",
        "wines": [
            "Foothills",
            "Rosé"
        ]
    },
    {
        "id": "THjzOON8tHhktete2mIc3",
        "name": "Farmhouse, The",
        "address": {
            "street": "285 Ridinger St., Christiansburg, VA 24073",
            "lat": "37.1534355",
            "lon": "-80.4219158"
        },
        "locations": "Restaurant",
        "wines": [
            "Foothills",
            "Rosé"
        ]
    },
    {
        "id": "QtTcybX3VAEOeL2Qh8JMb",
        "name": "Heurich House Museum",
        "address": {
            "street": "1307 New Hampshire Ave. NW, Washington, DC 20036",
            "lat": "38.9080119",
            "lon": "-77.0445379"
        },
        "locations": "Restaurant",
        "wines": [
            "Foothills"
        ]
    },
    {
        "id": "cBLL_fjNkSOaxGhXBF6au",
        "name": "Common House- Charlottesville",
        "address": {
            "street": "206 West Market Street, Charlottesville, VA 22902",
            "lat": "38.0317194",
            "lon": "-78.4822538"
        },
        "locations": "Restaurant",
        "wines": [
            "Pétillant Naturel White",
            "RISE"
        ]
    },
    {
        "id": "Gpfr3Gb1qtpGURmZw3ded",
        "name": "Albi",
        "address": {
            "street": "1346 4th St SE, Washington, DC 20003",
            "lat": "38.8741942",
            "lon": "-77.0002617"
        },
        "locations": "Restaurant",
        "wines": [
            "Pétillant Naturel White"
        ]
    },
    {
        "id": "Z9LZlrtaPfEDfCBCw_T_o",
        "name": "Wolf Trap National Park",
        "address": {
            "street": "1551 Trap Road, Vienna, VA 22182",
            "lat": "38.9391309",
            "lon": "-77.2620896"
        },
        "locations": "Restaurant",
        "wines": [
            "Pétillant Naturel White"
        ]
    },
    {
        "id": "26QYFHLypPxPRuPF1782E",
        "name": "Brothers & Sisters",
        "address": {
            "street": "Line Hotel DC 2468 Champlain St NW, Washington, DC 20009",
            "lat": "38.9228986",
            "lon": "-77.0416942"
        },
        "locations": "Restaurant",
        "wines": [
            "Pétillant Naturel White",
            "Young Wine Red",
            "Young Wine White"
        ]
    },
    {
        "id": "9d0sQlDxCmj67LwlBM6y_",
        "name": "Commune - Norfolk",
        "address": {
            "street": "759 Granby St., Norfolk, VA 23510",
            "lat": "36.8562717",
            "lon": "-76.2885787"
        },
        "locations": "Restaurant",
        "wines": [
            "Pétillant Naturel White",
            "RISE",
            "Rosé"
        ]
    },
    {
        "id": "OU_0xFr3N8aCksTyj7JhE",
        "name": "Bloom",
        "address": {
            "street": "1109 Main St. SW, Roanoke, VA 24015",
            "lat": "37.264562",
            "lon": "-79.958762"
        },
        "locations": "Restaurant",
        "wines": [
            "Petit Manseng",
            "Shenandoah Valley Cabernet Franc"
        ]
    },
    {
        "id": "84TVu86f_TDzQLuYf2GZt",
        "name": "Fortunato",
        "address": {
            "street": "301 1st Street SW #300, Roanoke, VA 24011",
            "lat": "37.2710089",
            "lon": "-79.942552"
        },
        "locations": "Restaurant",
        "wines": [
            "Petit Manseng"
        ]
    },
    {
        "id": "ofO3MRpMsxhHnipKi3QL_",
        "name": "Four Eleven York",
        "address": {
            "street": "409 W York St, Norfolk, VA 23510",
            "lat": "36.8532742",
            "lon": "-76.2964346"
        },
        "locations": "Restaurant",
        "wines": [
            "Petit Manseng"
        ]
    },
    {
        "id": "UvUZxaKfjYIKad3oYFY-4",
        "name": "Clay Restaurant",
        "address": {
            "street": "553 Manhattan Ave, Manhattan, NY 10027",
            "lat": "40.809486",
            "lon": "-73.9538229"
        },
        "locations": "Restaurant",
        "wines": [
            "Petit Manseng"
        ]
    },
    {
        "id": "vvMTQkREGJJZI56mK8xPP",
        "name": "Gage & Tollner",
        "address": {
            "street": "372 Fulton Street, Brooklyn, NY 11201",
            "lat": "40.691317",
            "lon": "-73.987861"
        },
        "locations": "Restaurant",
        "wines": [
            "Petit Manseng",
            "Shenandoah Valley Cabernet Franc"
        ]
    },
    {
        "id": "f25bwPjvh1ymp-Wf52rX0",
        "name": "St. Vincent",
        "address": {
            "street": "3212 Georgia Avenue NW, Washington, DC 20010",
            "lat": "38.9304278",
            "lon": "-77.0237425"
        },
        "locations": "Restaurant",
        "wines": [
            "Petit Manseng",
            "Young Wine White"
        ]
    },
    {
        "id": "BJ-enhfRBgyRbjnPXVYAd",
        "name": "Slope Cellars",
        "address": {
            "street": "436 7th Ave, Brooklyn, NY 11215",
            "lat": "40.6635697",
            "lon": "-73.9846443"
        },
        "locations": "Restaurant/Retail",
        "wines": [
            "Petit Manseng",
            "Rosé",
            "Young Wine White"
        ]
    },
    {
        "id": "iulO-Cd2M1MtMo2GNRquB",
        "name": "Vintage Cellar",
        "address": {
            "street": "1338 South Main St., Blacksburg, VA 24060",
            "lat": "37.245549",
            "lon": "-80.4151582"
        },
        "locations": "Retail",
        "wines": [
            "Petit Manseng"
        ]
    },
    {
        "id": "Is_5GGT0alx0ZMaZ3dxL6",
        "name": "Crystal City Wine Shop",
        "address": {
            "street": "220 20th St. South, Arlington, VA 22202",
            "lat": "38.85597",
            "lon": "-77.0500304"
        },
        "locations": "Retail",
        "wines": [
            "Petit Manseng"
        ]
    },
    {
        "id": "c5Sg73g_bidnzDtOYsQP8",
        "name": "Milli Second Coffee and Wine Bar",
        "address": {
            "street": "240 W Main Street, Charlottesville, VA 22902",
            "lat": "38.0309208",
            "lon": "-78.4829813"
        },
        "locations": "Restaurant",
        "wines": [
            "Petit Manseng"
        ]
    },
    {
        "id": "YaXQexBU1iMtmrzxwZLGT",
        "name": "Red Hen-DC",
        "address": {
            "street": "1822 1st St. NW, Washington, DC 20001",
            "lat": "38.9149738",
            "lon": "-77.0124095"
        },
        "locations": "Restaurant",
        "wines": [
            "Petit Manseng",
            "Young Wine White"
        ]
    },
    {
        "id": "F6FjsFZrn9ON5wgm74Rw5",
        "name": "Grisette",
        "address": {
            "street": "3119 East Marshall Street, Richmond, VA 23223",
            "lat": "37.5286571",
            "lon": "-77.4118647"
        },
        "locations": "Restaurant",
        "wines": [
            "Petit Manseng"
        ]
    },
    {
        "id": "yhqJKf2u-5Pa-_Y69pbH_",
        "name": "Blue Rock Inn",
        "address": {
            "street": "12567 Lee Highway, Washington, VA 22747",
            "lat": "38.6883623",
            "lon": "-78.1899961"
        },
        "locations": "Restaurant",
        "wines": [
            "Petit Manseng"
        ]
    },
    {
        "id": "8h_JWmt4m5Vu0U9m3sCtU",
        "name": "Dabney",
        "address": {
            "street": "122 Blagden Alley NW, Washington, DC 20009",
            "lat": "38.9063446",
            "lon": "-77.0245248"
        },
        "locations": "Restaurant",
        "wines": [
            "Petit Manseng",
            "Quaker Run Cabernet Franc"
        ]
    },
    {
        "id": "fKVcMt5lFgQuaFXd3gB__",
        "name": "Domestique",
        "address": {
            "street": "10 Florida Ave NW, Washington, DC 20001",
            "lat": "38.910778",
            "lon": "-77.009462"
        },
        "locations": "Retail",
        "wines": [
            "Petit Manseng",
            "Rosé"
        ]
    },
    {
        "id": "LHOkZ6Hkfvs0_0cpFLC3I",
        "name": "Front Royal Wines",
        "address": {
            "street": "300 E. Main Street, Front Royal, VA 22630",
            "lat": "38.9178983",
            "lon": "-78.1905081"
        },
        "locations": "Retail",
        "wines": [
            "Petit Manseng",
            "Rosé",
            "Young Wine Red"
        ]
    },
    {
        "id": "1aYb-fsY5OS3BE1yHEzWg",
        "name": "Gramercy Wines & Spirits",
        "address": {
            "street": "104 E 23rd St, New York, NY 10010",
            "lat": "40.7398313",
            "lon": "-73.9861406"
        },
        "locations": "Retail",
        "wines": [
            "Petit Manseng"
        ]
    },
    {
        "id": "N6HaXrmxzWfUmRQbzFN9B",
        "name": "Red Hen-DC",
        "address": {
            "street": "1822 1st St. NW, Washington, DC 20001",
            "lat": "38.9149738",
            "lon": "-77.0124095"
        },
        "locations": "Restaurant",
        "wines": [
            "Petit Manseng"
        ]
    },
    {
        "id": "wDjzP4Hn5vI2qHoLrTooU",
        "name": "Springhouse Sundries",
        "address": {
            "street": "Dairy Market, Charlottesville, VA 22903",
            "lat": "38.0377921",
            "lon": "-78.491266"
        },
        "locations": "Retail",
        "wines": [
            "Petit Manseng",
            "Quaker Run Chardonnay"
        ]
    },
    {
        "id": "bokLRu-3cCOabFw5pVEii",
        "name": "RichWine",
        "address": {
            "street": "405 Brook Rd., Richmond, VA 23220",
            "lat": "37.5478606",
            "lon": "-77.4425423"
        },
        "locations": "Retail",
        "wines": [
            "Petit Manseng",
            "Rosé"
        ]
    },
    {
        "id": "ZhpvzXnvBnb1rwzHqkY_6",
        "name": "NRG - Birch & Barley",
        "address": {
            "street": "1337 14th St. NW, Washington, DC 20005",
            "lat": "38.9084834",
            "lon": "-77.0315511"
        },
        "locations": "Restaurant",
        "wines": [
            "Petit Manseng"
        ]
    },
    {
        "id": "7T4_RqkUA_47eM7M-s8gi",
        "name": "1310 Kitchen & Bar",
        "address": {
            "street": "1310 Wisconsin Ave NW, Washington, DC 20007",
            "lat": "38.9071422",
            "lon": "-77.0635294"
        },
        "locations": "Restaurant/Retail",
        "wines": [
            "Petit Manseng"
        ]
    },
    {
        "id": "S-KuQwpPaRqlyS1PiZUqW",
        "name": "The Modern",
        "address": {
            "street": "9 W 53rd St, New York, NY 10019",
            "lat": "40.7609475",
            "lon": "-73.9768318"
        },
        "locations": "Restaurant",
        "wines": [
            "Petit Manseng"
        ]
    },
    {
        "id": "BUavcWu95MjNz94giELZq",
        "name": "Luthun",
        "address": {
            "street": "432 E 13th St, New York, NY 10009",
            "lat": "40.7299405",
            "lon": "-73.9819054"
        },
        "locations": "Restaurant",
        "wines": [
            "Petit Manseng"
        ]
    },
    {
        "id": "Z9a7W4L2Pv5Of6MQKiwYJ",
        "name": "Philip Ehrlich - P",
        "address": {
            "street": ", Charlottesville, VA ",
            "lat": "38.0293059",
            "lon": "-78.4766781"
        },
        "locations": "Restaurant/Retail",
        "wines": [
            "Petit Manseng"
        ]
    },
    {
        "id": "4sOWs0-duKT-onAYi_dYQ",
        "name": "Txikito",
        "address": {
            "street": "240 9th Ave, New York, NY 10001",
            "lat": "40.7473498",
            "lon": "-74.0003413"
        },
        "locations": "Restaurant",
        "wines": [
            "Petit Manseng"
        ]
    },
    {
        "id": "vCVdGkh38szYsNXMiiz_U",
        "name": "Wegmanns",
        "address": {
            "street": "100 Wegmans Wy, Charlottesville, VA 22902",
            "lat": "38.0087589",
            "lon": "-78.5005881"
        },
        "locations": "Restaurant/Retail",
        "wines": [
            "Pur",
            "Soif"
        ]
    },
    {
        "id": "nakdx3KMV_YSdZkUsftVO",
        "name": "Matt Adkins - Samples",
        "address": {
            "street": "1112 E. Market St. 22B, Charlottesville, VA 22902",
            "lat": "38.0271561",
            "lon": "-78.471598"
        },
        "locations": "Retail",
        "wines": [
            "Quaker Run Cabernet Franc",
            "Shenandoah Valley Cabernet Franc"
        ]
    },
    {
        "id": "HGUmGfRFAgk5Ki7gyz4u8",
        "name": "Dabney",
        "address": {
            "street": "122 Blagden Alley NW, Washington, DC 20009",
            "lat": "38.9063446",
            "lon": "-77.0245248"
        },
        "locations": "Restaurant",
        "wines": [
            "Quaker Run Cabernet Franc"
        ]
    },
    {
        "id": "23mtxJKrvn0By2eP0vvAm",
        "name": "Little Star",
        "address": {
            "street": "420 W Main St, Charlottesville, VA 22903",
            "lat": "38.0306322",
            "lon": "-78.4875591"
        },
        "locations": "Restaurant",
        "wines": [
            "Quaker Run Cabernet Franc",
            "RISE"
        ]
    },
    {
        "id": "85Euza5wRbVX9Q1EBn52T",
        "name": "Mena",
        "address": {
            "street": "285 West Broadway #330, New York, NY 10013",
            "lat": "40.7209197",
            "lon": "-74.0046772"
        },
        "locations": "Restaurant",
        "wines": [
            "Quaker Run Chardonnay"
        ]
    },
    {
        "id": "SZujZNIfw59rVRjB9hg5l",
        "name": "Field & Main",
        "address": {
            "street": "8369 W. Main St., Marshall, VA 20115",
            "lat": "38.8647631",
            "lon": "-77.8574303"
        },
        "locations": "Restaurant/Retail",
        "wines": [
            "RISE",
            "Rosé"
        ]
    },
    {
        "id": "lfpo--cOWNnrSUlvDU3_t",
        "name": "Commune - Norfolk",
        "address": {
            "street": "759 Granby St., Norfolk, VA 23510",
            "lat": "36.8562717",
            "lon": "-76.2885787"
        },
        "locations": "Restaurant",
        "wines": [
            "RISE",
            "Rosé"
        ]
    },
    {
        "id": "kgtTVdM8pu8hIT-eCmaiV",
        "name": "Crystal Palate",
        "address": {
            "street": "4500 Pretty Lake Avenue, Norfolk, VA 23518",
            "lat": "36.925493",
            "lon": "-76.1880817"
        },
        "locations": "Retail",
        "wines": [
            "RISE"
        ]
    },
    {
        "id": "LCEmFfZoW5aTnVohTuqoG",
        "name": "NRG - Planet Wine",
        "address": {
            "street": "2000-2004 Mount Vernon Ave, Alexandria, VA 22301",
            "lat": "38.8239957",
            "lon": "-77.0584135"
        },
        "locations": "Retail",
        "wines": [
            "RISE"
        ]
    },
    {
        "id": "3Q_ze-768FiVQ47T9Y5wq",
        "name": "Chase Works - P",
        "address": {
            "street": "1113 E Market Street B22, Charlottesville, VA 22902",
            "lat": "38.0280618",
            "lon": "-78.4715534"
        },
        "locations": "Restaurant",
        "wines": [
            "RISE"
        ]
    },
    {
        "id": "MeEfvyyEPM-2Ykzwl2X08",
        "name": "NRG - Shelter",
        "address": {
            "street": "1401 Pennsylvania Ave SE, Washington, DC 20003",
            "lat": "38.8798036",
            "lon": "-76.9852327"
        },
        "locations": "Retail",
        "wines": [
            "RISE",
            "Rosé",
            "Young Wine White"
        ]
    },
    {
        "id": "qiLkbSe5rGue-jhX8yE_k",
        "name": "Broken Tulip",
        "address": {
            "street": "3129 W. Cary Street, Richmond, VA 23221",
            "lat": "37.5532674",
            "lon": "-77.481503"
        },
        "locations": "Restaurant",
        "wines": [
            "RISE"
        ]
    },
    {
        "id": "uIZAWPDxMqqGSvr1zddj1",
        "name": "Clifton Inn",
        "address": {
            "street": "1296 Clifton Inn Dr, Charlottesville, VA 22911",
            "lat": "38.0068689",
            "lon": "-78.3971538"
        },
        "locations": "Restaurant",
        "wines": [
            "RISE"
        ]
    },
    {
        "id": "9w_wL-EraUirl2wflRYMl",
        "name": "Ecco Adesso",
        "address": {
            "street": "340 Ecco Adesso Lane, Fairfield, VA 24435",
            "lat": "37.8347796",
            "lon": "-79.3106557"
        },
        "locations": "Restaurant",
        "wines": [
            "RISE",
            "Rosé",
            "Shenandoah Valley Cabernet Franc"
        ]
    },
    {
        "id": "GTyS9rCcSvLSdXmKaiUJN",
        "name": "Bourbon Steak - Four Seasons Hotel",
        "address": {
            "street": "2800 Pennsylvania Avenue NW, Washington, DC 20007",
            "lat": "38.9044717",
            "lon": "-77.0577956"
        },
        "locations": "Restaurant",
        "wines": [
            "RISE",
            "Rosé"
        ]
    },
    {
        "id": "HKOqig-mtnccWqIMk-9WE",
        "name": "Founding Farmers - DC",
        "address": {
            "street": "1924 Pennsylvania Ave. NW, Washington, DC 20006",
            "lat": "38.8999959",
            "lon": "-77.0443929"
        },
        "locations": "Restaurant",
        "wines": [
            "Rosé"
        ]
    },
    {
        "id": "XpBx99t7Xm8TQBasP923o",
        "name": "Founding Farmers - Reston",
        "address": {
            "street": "1904 Reston Metro Plaza, Suite 100, Reston, VA 20190",
            "lat": "38.9488917",
            "lon": "-77.3383807"
        },
        "locations": "Restaurant",
        "wines": [
            "Rosé"
        ]
    },
    {
        "id": "xd24LX0QAgFafekog3Wv8",
        "name": "Founding Farmers - Tyson's Corner",
        "address": {
            "street": "1800 Tyson's Blvd., McLean, VA 22102",
            "lat": "38.9223637",
            "lon": "-77.2224625"
        },
        "locations": "Restaurant",
        "wines": [
            "Rosé"
        ]
    },
    {
        "id": "R492Kqlso6dz0wU9WBG6f",
        "name": "Green Room, The",
        "address": {
            "street": "130 W Beverly St, Staunton, VA 24401",
            "lat": "38.1492957",
            "lon": "-79.0744866"
        },
        "locations": "Restaurant",
        "wines": [
            "Rosé",
            "Young Wine Red",
            "Young Wine White"
        ]
    },
    {
        "id": "i5XqCPPaPdD611RRjFlCH",
        "name": "Montgomery Co. Dept. of Liquor Control",
        "address": {
            "street": "Division of Financial, Gaithersburg, MD 20878",
            "lat": "39.1048032",
            "lon": "-77.2520101"
        },
        "locations": "Restaurant",
        "wines": [
            "Rosé"
        ]
    },
    {
        "id": "EhvrSvsdFtJepqZUtQT0J",
        "name": "Farmers & Distillers",
        "address": {
            "street": "600 Massachusetts Ave. NW, Washington, DC 20001",
            "lat": "38.9012458",
            "lon": "-77.0205524"
        },
        "locations": "Restaurant/Retail",
        "wines": [
            "Rosé"
        ]
    },
    {
        "id": "mlJ-T58k-h22gJIoJGCz6",
        "name": "Farmers Fishers Bakers",
        "address": {
            "street": "3000 K Street NW, Washington, DC 20007",
            "lat": "38.9025537",
            "lon": "-77.0601033"
        },
        "locations": "Restaurant/Retail",
        "wines": [
            "Rosé"
        ]
    },
    {
        "id": "FKTSGkgmn_3qp77RJXLxP",
        "name": "Founding Farmers - Reston",
        "address": {
            "street": "1904 Reston Metro Plaza, Suite 100, Reston, VA 20190",
            "lat": "38.9488917",
            "lon": "-77.3383807"
        },
        "locations": "Restaurant",
        "wines": [
            "Rosé"
        ]
    },
    {
        "id": "6RLYAjKSTO6ttmshtLfuD",
        "name": "Founding Farmers - Tyson's Corner",
        "address": {
            "street": "1800 Tyson's Blvd., McLean, VA 22102",
            "lat": "38.9223637",
            "lon": "-77.2224625"
        },