[
    {
        "id": "7uamjZ49zDV0ujjtjwNMl",
        "name": "Barrel Chest",
        "address": {
            "street": "2601 Franklin Rd. Suite A, Roanoke, VA 24014",
            "lat": "37.2489661",
            "lon": "-79.9590297"
        },
        "locations": "Restaurant/Retail",
        "wines": [
            "Cabernet Franc",
            "Chardonnay",
            "Eluvium",
            "Five Forks",
            "Foothills",
            "Petit Manseng",
            "Quaker Run Cabernet Franc",
            "Rosé",
            "Shenandoah Valley Cabernet Franc",
            "Young Wine White"
        ]
    },
    {
        "id": "RHMuzoxHC4duAFAkJsUgE",
        "name": "Heirloom",
        "address": {
            "street": "2484 N Landing Rd #113, Virginia Beach, VA 23456",
            "lat": "36.7493507",
            "lon": "-76.0582579"
        },
        "locations": "Restaurant",
        "wines": [
            "Cabernet Franc",
            "Quaker Run Cabernet Franc",
            "Shenandoah Valley Cabernet Franc"
        ]
    },
    {
        "id": "p0ixMzNXgpOuMLZZHuovH",
        "name": "Organic Butcher of McLean",
        "address": {
            "street": "6712 Old Dominion Drive, McLean, VA 22101",
            "lat": "38.9335412",
            "lon": "-77.1758584"
        },
        "locations": "Retail",
        "wines": [
            "Cabernet Franc",
            "Five Forks",
            "Foothills",
            "Petit Manseng",
            "Quaker Run Cabernet Franc",
            "RISE",
            "Rosé",
            "Shenandoah Valley Cabernet Franc",
            "Young Wine Red"
        ]
    },
    {
        "id": "Cvjf0u_PGMwm3e71hSrSA",
        "name": "Wine Guild",
        "address": {
            "street": "221 Carlton Rd, Suite 1, Charlottesville, VA 22902",
            "lat": "38.0239329",
            "lon": "-78.4698251"
        },
        "locations": "Retail",
        "wines": [
            "Cabernet Franc",
            "Chardonnay",
            "Eluvium",
            "Rosé",
            "Shenandoah Valley Cabernet Franc",
            "Young Wine White"
        ]
    },
    {
        "id": "y9Z16S2tgMFJDZAxDO38_",
        "name": "Salisbury Country Club",
        "address": {
            "street": "13620 W. Salisbury Rd, Midlothian, VA 23113",
            "lat": "37.527933",
            "lon": "-77.653554"
        },
        "locations": "Restaurant",
        "wines": [
            "Cabernet Franc",
            "Chardonnay",
            "Foothills",
            "Petit Manseng"
        ]
    },
    {
        "id": "_rsqmEpDKzR310SxvCsid",
        "name": "Balducci's - Alexandria",
        "address": {
            "street": "600 Franklin St, Alexandria, VA 22314",
            "lat": "38.7978102",
            "lon": "-77.0479011"
        },
        "locations": "Restaurant/Retail",
        "wines": [
            "Chardonnay",
            "Eluvium",
            "RISE",
            "Shenandoah Valley Cabernet Franc",
            "Young Wine Red"
        ]
    },
    {
        "id": "zVBCf3SGd0PhEYUawOuuv",
        "name": "Barrel Thief",
        "address": {
            "street": "5805 Patterson Ave, Richmond, VA 23226",
            "lat": "37.5794435",
            "lon": "-77.5149812"
        },
        "locations": "Restaurant/Retail",
        "wines": [
            "Chardonnay",
            "Foothills",
            "Pétillant Naturel White",
            "Rosé"
        ]
    },
    {
        "id": "_VVntg7UchVpFrA2G_S4V",
        "name": "Bottleworks",
        "address": {
            "street": "3078 Stony Point Rd., Richmond, VA 23235",
            "lat": "37.537796",
            "lon": "-77.5651916"
        },
        "locations": "Retail",
        "wines": [
            "Chardonnay",
            "Foothills"
        ]
    },
    {
        "id": "LfQy0IM2Mhfxnj4jNFxjG",
        "name": "Caboose",
        "address": {
            "street": "108 S. Railroad Ave., Ashland, VA 23005",
            "lat": "37.758286",
            "lon": "-77.4816338"
        },
        "locations": "Restaurant",
        "wines": [
            "Chardonnay",
            "Foothills",
            "Rosé"
        ]
    },
    {
        "id": "iJ9qnY_qCY5bBKaIQom-I",
        "name": "Mae's Market",
        "address": {
            "street": "Virginia's Darling LLC, Alexandria, VA 22314",
            "lat": "38.7999723",
            "lon": "-77.0506896"
        },
        "locations": "Retail",
        "wines": [
            "Chardonnay",
            "Rosé",
            "Young Wine Red",
            "Young Wine White"
        ]
    },
    {
        "id": "abvgWt4xXWFGcN2Py938W",
        "name": "Thornton River Grille",
        "address": {
            "street": "Thornton River Grille, Sperryville, VA 22740",
            "lat": "38.657256",
            "lon": "-78.22669"
        },
        "locations": "Restaurant",
        "wines": [
            "Chardonnay",
            "Eluvium",
            "Foothills",
            "Petit Manseng",
            "Rosé",
            "Young Wine White"
        ]
    },
    {
        "id": "RtJQo5DWg2ZLq94lT0OFw",
        "name": "Mona Lisa",
        "address": {
            "street": "921 Preston Ave, Charlottesville, VA 22903",
            "lat": "38.038434",
            "lon": "-78.489901"
        },
        "locations": "Retail",
        "wines": [
            "Chardonnay",
            "Eluvium",
            "Foothills",
            "Petit Manseng",
            "Rosé",
            "Young Wine Red",
            "Young Wine White"
        ]
    },
    {
        "id": "2lGZBVokjq6YgwNnPJX4H",
        "name": "Tinto Wine & Cheese - Chesapeake",
        "address": {
            "street": "236 Carmichael Way #308, Chesapeake, VA 23322",
            "lat": "36.660423",
            "lon": "-76.233525"
        },
        "locations": "Restaurant",
        "wines": [
            "Chardonnay",
            "Shenandoah Valley Cabernet Franc"
        ]
    },
    {
        "id": "KNJoupktFj_gJvrx-kMMo",
        "name": "Tinto Wine & Cheese - Hilltop",
        "address": {
            "street": "640 Hilltop West Shopping Ctr, Virginia Beach, VA 23451",
            "lat": "36.8524094",
            "lon": "-76.0208537"
        },
        "locations": "Restaurant",
        "wines": [
            "Chardonnay",
            "Shenandoah Valley Cabernet Franc"
        ]
    },
    {
        "id": "JjbcQd4vTD0v-ce1IkjUe",
        "name": "Town Duck",
        "address": {
            "street": "100 Main St, Warrenton, VA 20186",
            "lat": "38.7122701",
            "lon": "-77.7930779"
        },
        "locations": "Restaurant",
        "wines": [
            "Chardonnay",
            "Eluvium",
            "Five Forks",
            "Foothills",
            "Petit Manseng",
            "Rosé"
        ]
    },
    {
        "id": "u9hcXKqNj32l52wGETt8g",
        "name": "Clementine Cafe",
        "address": {
            "street": "153 S Main St, Harrisonburg, VA 22801",
            "lat": "38.4478062",
            "lon": "-78.8692932"
        },
        "locations": "Restaurant",
        "wines": [
            "Chardonnay",
            "Rosé"
        ]
    },
    {
        "id": "LLo4cdrsjYNDcaCwEGv9b",
        "name": "Corks & Kegs",
        "address": {
            "street": "7110 Patterson Ave, Suite A, Richmond, VA 23229",
            "lat": "37.5924087",
            "lon": "-77.5329934"
        },
        "locations": "Retail",
        "wines": [
            "Chardonnay",
            "Eluvium",
            "Foothills",
            "Rosé",
            "Shenandoah Valley Cabernet Franc",
            "Young Wine White"
        ]
    },
    {
        "id": "T7n2_VAOe8tjKP8DqHlBl",
        "name": "Crystal Palate",
        "address": {
            "street": "4500 Pretty Lake Avenue, Norfolk, VA 23518",
            "lat": "36.925493",
            "lon": "-76.1880817"
        },
        "locations": "Retail",
        "wines": [
            "Chardonnay",
            "RISE"
        ]
    },
    {
        "id": "1D4rMnjef1G8gc5Jnkklq",
        "name": "Dominion Wine and Beer",
        "address": {
            "street": "107 Rowell Ct., Falls Church, VA 22046",
            "lat": "38.889851",
            "lon": "-77.1836308"
        },
        "locations": "Restaurant/Retail",
        "wines": [
            "Chardonnay",
            "Foothills",
            "Rosé",
            "Young Wine White"
        ]
    },
    {
        "id": "ZCtqbNO5P3ctGgHDJZ7XX",
        "name": "Fat Canary",
        "address": {
            "street": "The Cheese Shop of VA, Inc., Williamsburg, VA 23185",
            "lat": "37.2706994",
            "lon": "-76.7061859"
        },
        "locations": "Restaurant",
        "wines": [
            "Chardonnay",
            "Eluvium",
            "Foothills",
            "Petit Manseng",
            "RISE",
            "Rosé",
            "Shenandoah Valley Cabernet Franc",
            "Young Wine Red",
            "Young Wine White"
        ]
    },
    {
        "id": "4mz3tV07aF039OdJmFf8G",
        "name": "Green Hill Kitchen",
        "address": {
            "street": "48 Front Street, Greenport, NY 11944",
            "lat": "41.1024434",
            "lon": "-72.3602946"
        },
        "locations": "Restaurant",
        "wines": [
            "Chardonnay"
        ]
    },
    {
        "id": "7vKRLQuA2rBDdX-69AxUL",
        "name": "Lafayette Inn",
        "address": {
            "street": "146 Main St, Stanardsville, VA 22973",
            "lat": "38.2973026",
            "lon": "-78.4385356"
        },
        "locations": "Restaurant",
        "wines": [
            "Chardonnay",
            "Shenandoah Valley Cabernet Franc"
        ]
    },
    {
        "id": "iaqv19oqnv6H5_Mkiemrr",
        "name": "Lucky",
        "address": {
            "street": "18 Kirk Ave SW, Roanoke, VA 24011",
            "lat": "37.2709987",
            "lon": "-79.9414035"
        },
        "locations": "Restaurant",
        "wines": [
            "Chardonnay",
            "Young Wine Red"
        ]
    },
    {
        "id": "IIIaRzyl8rs6o9sTmKheu",
        "name": "Market Street Wine Shop",
        "address": {
            "street": "311 East Market St, Charlottesville, VA 22902",
            "lat": "38.0310819",
            "lon": "-78.4790515"
        },
        "locations": "Retail",
        "wines": [
            "Chardonnay",
            "Eluvium",
            "Five Forks",
            "Foothills",
            "Petit Manseng",
            "Rosé"
        ]
    },
    {
        "id": "fzxXsusBsoJZ-LdAQDyaf",
        "name": "Primland Resort",
        "address": {
            "street": "2000 Busted Rock Road, Meadows of Dan, VA 24120",
            "lat": "36.6881805",
            "lon": "-80.3543771"
        },
        "locations": "Restaurant",
        "wines": [
            "Chardonnay",
            "Eluvium",
            "Shenandoah Valley Cabernet Franc"
        ]
    },
    {
        "id": "9gdKsF1SuqXQK1Rc8xzOc",
        "name": "Metro Liquors",
        "address": {
            "street": "1726 Columbia Rd NW, Washington, DC 20009",
            "lat": "38.9243637",
            "lon": "-77.0397196"
        },
        "locations": "Retail",
        "wines": [
            "Chardonnay",
            "Quaker Run Chardonnay",
            "Shenandoah Valley Cabernet Franc"
        ]
    },
    {
        "id": "cq0L3JT566XC7vltkir1K",
        "name": "Thornton River Grille",
        "address": {
            "street": "Thornton River Grille, Sperryville, VA 22740",
            "lat": "38.657256",
            "lon": "-78.22669"
        },
        "locations": "Restaurant",
        "wines": [
            "Chardonnay",
            "Eluvium",
            "Foothills",
            "Petit Manseng"
        ]
    },
    {
        "id": "ecIEz5YCxgdj1QxamwDqn",
        "name": "Walsh Family Wines",
        "address": {
            "street": "16031 Hillsboro Road, Purcellville, VA 20132",
            "lat": "39.1739045",
            "lon": "-77.7251377"
        },
        "locations": "Restaurant",
        "wines": [
            "Chardonnay",
            "Petit Manseng"
        ]
    },
    {
        "id": "WH7iWh1KnOvIh6Ij3ofUt",
        "name": "Westside Produce & Provisions",
        "address": {
            "street": "5015 Colley Ave., Norfolk, VA 23508",
            "lat": "36.8890972",
            "lon": "-76.2954949"
        },
        "locations": "Retail",
        "wines": [
            "Chardonnay",
            "Eluvium",
            "Five Forks",
            "Foothills",
            "Petit Manseng",
            "Rosé",
            "Shenandoah Valley Cabernet Franc"
        ]
    },
    {
        "id": "27xEDqBHaOlQRb9ajO58g",
        "name": "Blacksburg Wine Lab",
        "address": {
            "street": "223 Gilbert Street, Blacksburg, VA 24060",
            "lat": "37.2331803",
            "lon": "-80.4212379"
        },
        "locations": "Restaurant",
        "wines": [
            "Chardonnay",
            "Rosé",
            "Shenandoah Valley Cabernet Franc"
        ]
    },
    {
        "id": "-suLS_C8VFXQOdLfUdgqU",
        "name": "Ellwood Thompson",
        "address": {
            "street": "4 N Thompson St, Richmond, VA 23221",
            "lat": "37.5574138",
            "lon": "-77.4884332"
        },
        "locations": "Retail",
        "wines": [
            "Chardonnay",
            "Eluvium",
            "Five Forks",
            "Foothills",
            "Pétillant Naturel White",
            "Petit Manseng",
            "Quaker Run Chardonnay",
            "RISE",
            "Rosé",
            "Shenandoah Valley Cabernet Franc",
            "Young Wine Red",
            "Young Wine White"
        ]
    },
    {
        "id": "tXDamtKZCsyawbG2z5VAA",
        "name": "Crystal Spring Grocery",
        "address": {
            "street": "2205 Crystal Spring Ave SW, Roanoke, VA 24014",
            "lat": "37.2485824",
            "lon": "-79.9468989"
        },
        "locations": "Restaurant/Retail",
        "wines": [
            "Chardonnay"
        ]
    },
    {
        "id": "MMiHm7bkgvi_WDIuTIW2T",
        "name": "Fat Canary",
        "address": {
            "street": "The Cheese Shop of VA, Inc., Williamsburg, VA 23185",
            "lat": "37.2706994",
            "lon": "-76.7061859"
        },
        "locations": "Restaurant",
        "wines": [
            "Chardonnay",
            "Eluvium",
            "Foothills",
            "Rosé",
            "Shenandoah Valley Cabernet Franc"
        ]
    },
    {
        "id": "Af0k-Ec3buBXzvXNecF4a",
        "name": "Foods of All Nations",
        "address": {
            "street": "2121 Ivy Rd, Charlottesville, VA 22903",
            "lat": "38.0432978",
            "lon": "-78.5119067"
        },
        "locations": "Retail",
        "wines": [
            "Chardonnay",
            "Eluvium",
            "Foothills",
            "Petit Manseng",
            "Rosé",
            "Shenandoah Valley Cabernet Franc",
            "Young Wine Red",
            "Young Wine White"
        ]
    },
    {
        "id": "SP95R9U0nfaNO749hlJVS",
        "name": "Greenwood",
        "address": {
            "street": "6701 Rockfish Gap TPK, Crozet, VA 22932",
            "lat": "38.0413202",
            "lon": "-78.732343"
        },
        "locations": "Retail",
        "wines": [
            "Chardonnay",
            "Eluvium",
            "Five Forks",
            "Foothills",
            "Pétillant Naturel White",
            "Petit Manseng",
            "Rosé",
            "Shenandoah Valley Cabernet Franc",
            "Young Wine",
            "Young Wine Red",
            "Young Wine White"
        ]
    },
    {
        "id": "w-K2q3lKjhd7XhW6ezbrc",
        "name": "Marigold by Jean Georges",
        "address": {
            "street": "Keswick Hall & Golf Club, Keswick, VA 22947",
            "lat": "38.0167803",
            "lon": "-78.3666045"
        },
        "locations": "Restaurant",
        "wines": [
            "Chardonnay"
        ]
    },
    {
        "id": "F-Rrph-CaugW8EQqxxoda",
        "name": "Old Lex Mercantile",
        "address": {
            "street": "113 W Nelson St., Lexington, VA 24450",
            "lat": "37.7851009",
            "lon": "-79.4439846"
        },
        "locations": "Restaurant/Retail",
        "wines": [
            "Chardonnay",
            "Eluvium"
        ]
    },
    {
        "id": "5w1zzQanVb5cxAYxdnofQ",
        "name": "Whole Ox",
        "address": {
            "street": "8357 West Main Street, Marshall, VA 20115",
            "lat": "38.8651661",
            "lon": "-77.856671"
        },
        "locations": "Restaurant/Retail",
        "wines": [
            "Chardonnay",
            "Eluvium"
        ]
    },
    {
        "id": "cvi6PfAS3MRqJ8VNeMCvr",
        "name": "Williamsburg Winery",
        "address": {
            "street": "5800 Wessex Hundred, Williamsburg, VA 23185",
            "lat": "37.2315138",
            "lon": "-76.718275"
        },
        "locations": "Restaurant",
        "wines": [
            "Chardonnay",
            "Eluvium"
        ]
    },
    {
        "id": "sTAO55nQ8JbkQn-UVzDf-",
        "name": "Wine Guild",
        "address": {
            "street": "221 Carlton Rd, Suite 1, Charlottesville, VA 22902",
            "lat": "38.0239329",
            "lon": "-78.4698251"
        },
        "locations": "Retail",
        "wines": [
            "Chardonnay",
            "Eluvium",
            "Shenandoah Valley Cabernet Franc",
            "Young Wine White"
        ]
    },
    {
        "id": "ita7C8XonCoAAzvW-sV3Q",
        "name": "Wine Warehouse",
        "address": {
            "street": "1804 Hydraulic Rd, Charlottesville, VA 22902",
            "lat": "38.0607943",
            "lon": "-78.4914214"
        },
        "locations": "Retail",
        "wines": [
            "Chardonnay",
            "Foothills",
            "Quaker Run Chardonnay",
            "Rosé",
            "Shenandoah Valley Cabernet Franc",
            "Young Wine Red"
        ]
    },
    {
        "id": "2XEtx6T6MbihdCxJLQRo5",
        "name": "Arrowine",
        "address": {
            "street": "4508 Lee Hwy, Arlington, VA 22207",
            "lat": "38.8983733",
            "lon": "-77.1183586"
        },
        "locations": "Restaurant/Retail",
        "wines": [
            "Chardonnay",
            "Eluvium",
            "Foothills",
            "Pétillant Naturel White",
            "RISE",
            "Rosé",
            "Young Wine Red"
        ]
    },
    {
        "id": "uBPJOyszCgcXcynf4R7lD",
        "name": "Basic Necessities",
        "address": {
            "street": "2226 Rockfish Valley Hwy, Nellysford, VA 22958",
            "lat": "37.8864588",
            "lon": "-78.8838422"
        },
        "locations": "Restaurant/Retail",
        "wines": [
            "Chardonnay",
            "Foothills"
        ]
    },
    {
        "id": "bPB9SCdVi-lTInw2Ehl39",
        "name": "Norm's Beer & Wine",
        "address": {
            "street": "136 Branch Rd SE, Vienna, VA 22180",
            "lat": "38.9062317",
            "lon": "-77.257151"
        },
        "locations": "Retail",
        "wines": [
            "Chardonnay",
            "Eluvium",
            "Five Forks",
            "Foothills",
            "Pétillant Naturel White",
            "Quaker Run Chardonnay",
            "Rosé",
            "Shenandoah Valley Cabernet Franc",
            "Young Wine",
            "Young Wine Red"
        ]
    },
    {
        "id": "tQtrIWc6K-7rr4E6tSnJA",
        "name": "Locke Store",
        "address": {
            "street": "2049 Millwood Rd., Millwood, VA 22646",
            "lat": "39.0695654",
            "lon": "-78.0379321"
        },
        "locations": "Retail",
        "wines": [
            "Chardonnay",
            "Eluvium",
            "RISE",
            "Rosé"
        ]
    },
    {
        "id": "UiVkMcchqnt0Kp_ripmvB",
        "name": "J Emerson",
        "address": {
            "street": "5716 Grove Ave, Richmond, VA 23226",
            "lat": "37.5733362",
            "lon": "-77.5180274"
        },
        "locations": "Retail",
        "wines": [
            "Chardonnay",
            "Five Forks",
            "Foothills",
            "Rosé",
            "Shenandoah Valley Cabernet Franc"
        ]
    },
    {
        "id": "bhyUR3-Fbhkte9ZcugHSL",
        "name": "Lydia Mountain Lodge",
        "address": {
            "street": "426 Mountain Laurel Pass, Stanardsville, VA 22973",
            "lat": "38.3359273",
            "lon": "-78.4848288"
        },
        "locations": "Restaurant",
        "wines": [
            "Chardonnay",
            "Foothills",
            "Petit Manseng",
            "Rosé"
        ]
    },
    {
        "id": "EURouqaDdSQQ5xBc4WhYS",
        "name": "Mom's Apple Pie - Hill High",
        "address": {
            "street": "35246 Harry Byrd Hwy Ste. 100, Round Hill, VA 20141",
            "lat": "39.1277991",
            "lon": "-77.7873132"
        },
        "locations": "Retail",
        "wines": [
            "Chardonnay",
            "Eluvium",
            "Pétillant Naturel White",
            "Petit Manseng",
            "Rosé",
            "Shenandoah Valley Cabernet Franc",
            "Young Wine White"
        ]
    },
    {
        "id": "jGBi--mhHWKymCdtlxhU-",
        "name": "Mom's Apple Pie - Occoquan",
        "address": {
            "street": "126 A Commerce St, Occoquan Historic Dist., VA 22125",
            "lat": "38.6823226",
            "lon": "-77.260111"
        },
        "locations": "Retail",
        "wines": [
            "Chardonnay",
            "Rosé",
            "Shenandoah Valley Cabernet Franc",
            "Young Wine Red",
            "Young Wine White"
        ]
    },
    {
        "id": "bKt6ujxvOxkVvpU7x3KkN",
        "name": "Omni - Homestead Resort",
        "address": {
            "street": "7696 Sam Snead Highway, Hot Springs, VA 24445",
            "lat": "37.9970692",
            "lon": "-79.8305868"
        },
        "locations": "Restaurant",
        "wines": [
            "Chardonnay",
            "Eluvium",
            "Foothills",
            "Petit Manseng",
            "Shenandoah Valley Cabernet Franc",
            "Young Wine Red"
        ]
    },
    {
        "id": "VjHMQ_lhusc9Ek2Arz4Ph",
        "name": "Salt Line, The- Ballston",
        "address": {
            "street": "4040 Wilson Blvd., Arlington, VA 22203",
            "lat": "38.8796459",
            "lon": "-77.1086715"
        },
        "locations": "Restaurant",
        "wines": [
            "Chardonnay"
        ]
    },
    {
        "id": "GFaAfJviyyaUUa5m5VG5z",
        "name": "Valley Pike Farm Market",
        "address": {
            "street": "3494 Lee Highway, Weyers Cave, VA 24486",
            "lat": "38.2934427",
            "lon": "-78.9356747"
        },
        "locations": "Retail",
        "wines": [
            "Chardonnay",
            "Foothills",
            "Petit Manseng",
            "RISE",
            "Rosé",
            "Shenandoah Valley Cabernet Franc"
        ]
    },
    {
        "id": "FnSIWZYMAJUvFACs8yM49",
        "name": "White Moose Inn",
        "address": {
            "street": "291 Main St., Washington, VA 22747",
            "lat": "38.7123391",
            "lon": "-78.16034"
        },
        "locations": "Restaurant",
        "wines": [
            "Chardonnay",
            "Foothills"
        ]
    },
    {
        "id": "GZoKs9vvDQf7v2Umypn1j",
        "name": "Wool Factory",
        "address": {
            "street": "1837 Broadway Street, Charlottesville, VA 22902",
            "lat": "38.0197143",
            "lon": "-78.4557898"
        },
        "locations": "Restaurant/Retail",
        "wines": [
            "Chardonnay",
            "Eluvium",
            "Foothills",
            "Quaker Run Chardonnay",
            "Rosé",
            "Shenandoah Valley Cabernet Franc",
            "Young Wine Red",
            "Young Wine White"
        ]
    },
    {
        "id": "17DGRM9nUUS3bVC9ktxw_",
        "name": "Von",
        "address": {
            "street": "3 Bleeker Street, New York, NY 10012",
            "lat": "40.7254829",
            "lon": "-73.9926215"
        },
        "locations": "Restaurant",
        "wines": [
            "Chardonnay"
        ]
    },
    {
        "id": "BchTT5mftLlxY9U3uDuVF",
        "name": "Bluejacket",
        "address": {
            "street": "300 Tingey St. SE, Washington, DC 20374",
            "lat": "38.8751743",
            "lon": "-77.0014763"
        },
        "locations": "Restaurant",
        "wines": [
            "Eluvium",
            "Rosé"
        ]
    },
    {
        "id": "0Q4Q6kX7SJdIeyopgr9LG",
        "name": "City Vino",
        "address": {
            "street": "810 Caroline St Ste 101, Fredericksburg, VA 22407",
            "lat": "38.3020808",
            "lon": "-77.4587685"
        },
        "locations": "Retail",
        "wines": [
            "Chardonnay",
            "Eluvium",
            "Five Forks",
            "Foothills",
            "Shenandoah Valley Cabernet Franc"
        ]
    },
    {
        "id": "gQ1bC6rYrFAb6SHV3u5nK",
        "name": "Knead Wine",
        "address": {
            "street": "5 W Washington Street, Middleburg, VA 20117",
            "lat": "38.9687122",
            "lon": "-77.7358083"
        },
        "locations": "Restaurant",
        "wines": [
            "Eluvium"
        ]
    },
    {
        "id": "5xotyLo5cz0RcZSaY3-Rb",
        "name": "Local Chop & Grill House",
        "address": {
            "street": "56 W Gay St #107, Harrisonburg, VA 22802",
            "lat": "38.4539237",
            "lon": "-78.8684235"
        },
        "locations": "Restaurant",
        "wines": [
            "Eluvium",
            "Rosé",
            "Shenandoah Valley Cabernet Franc"
        ]
    },
    {
        "id": "NxQ99D3niCH8g2QckMR4t",
        "name": "Olmsted",
        "address": {
            "street": "659 Vanderbilt Ave, Brooklyn, NY 11238",
            "lat": "40.677064",
            "lon": "-73.9687578"
        },
        "locations": "Restaurant/Retail",
        "wines": [
            "Eluvium"
        ]
    },
    {
        "id": "OwwLJF4ReygsNdWYF4x3-",
        "name": "Aberdeen Barn",
        "address": {
            "street": "2018 Holiday Drive, Charlottesville, VA 22901",
            "lat": "38.0587447",
            "lon": "-78.4931749"
        },
        "locations": "Restaurant",
        "wines": [
            "Eluvium",
            "Foothills"
        ]
    },
    {
        "id": "E7iZzddoP6naHzGfDouM2",
        "name": "Cochon d'Or",
        "address": {
            "street": "2829 Main St, Hot Springs, VA 24445",
            "lat": "37.9998484",
            "lon": "-79.8317533"
        },
        "locations": "Restaurant",
        "wines": [
            "Eluvium"
        ]
    },
    {
        "id": "Y9J2bloM-ZulkRBErG4jf",
        "name": "Everyday Sommelier",
        "address": {
            "street": "514 B 5th St, Lynchburg, VA 24504",
            "lat": "37.4160576",
            "lon": "-79.1485347"
        },
        "locations": "Restaurant",
        "wines": [
            "Eluvium",
            "RISE"
        ]
    },
    {
        "id": "_LIV_sXlarnXNgef0ERXb",
        "name": "Knead Wine",
        "address": {
            "street": "5 W Washington Street, Middleburg, VA 20117",
            "lat": "38.9687122",
            "lon": "-77.7358083"
        },
        "locations": "Restaurant",
        "wines": [
            "Eluvium"
        ]
    },
    {
        "id": "BHFe3f85yi8IjSaUkVq-W",
        "name": "La Fromagerie",
        "address": {
            "street": "1222 King St, Alexandria, VA 22314",
            "lat": "38.805648",
            "lon": "-77.053429"
        },
        "locations": "Restaurant/Retail",
        "wines": [
            "Eluvium",
            "Pétillant Naturel White"
        ]
    },
    {
        "id": "xFKKHi8pGN_N6ld5sHAJU",
        "name": "Unwined - Belle View",
        "address": {
            "street": "1600 Belle View Blvd., Alexandria, VA 22307",
            "lat": "38.7761672",
            "lon": "-77.0597746"
        },
        "locations": "Retail",
        "wines": [
            "Eluvium",
            "Petit Manseng",
            "Rosé",
            "Shenandoah Valley Cabernet Franc"
        ]
    },
    {
        "id": "4aeP80vl5MuIInwO49fwm",
        "name": "Tuscatora Mill",
        "address": {
            "street": "203 Harrison St SE, Leesburg, VA 20175",
            "lat": "39.1126676",
            "lon": "-77.5629852"
        },
        "locations": "Restaurant",
        "wines": [
            "Eluvium",
            "Shenandoah Valley Cabernet Franc"
        ]
    },
    {
        "id": "zwMSQGi43vhM7wIbZ8fxL",
        "name": "Zynodoa",
        "address": {
            "street": "115 E Beverly St, Staunton, VA 24401",
            "lat": "38.149814",
            "lon": "-79.0709713"
        },
        "locations": "Restaurant",
        "wines": [
            "Eluvium",
            "Petit Manseng"
        ]
    },
    {
        "id": "AigYlxN0cW2IXfPEdb1x8",
        "name": "C&O Restaurant",
        "address": {
            "street": "515 E Water St, Charlottesville, VA 22902",
            "lat": "38.0290618",
            "lon": "-78.4782802"
        },
        "locations": "Restaurant/Retail",
        "wines": [
            "Eluvium",
            "Rosé"
        ]
    },
    {
        "id": "r-yS7LLyWvaVU7TiKwt8j",
        "name": "Cork & Fork - DC",
        "address": {
            "street": "1522 14th St NW, Washington, DC 20005",
            "lat": "38.9104777",
            "lon": "-77.0321531"
        },
        "locations": "Retail",
        "wines": [
            "Eluvium",
            "Foothills",
            "Shenandoah Valley Cabernet Franc"
        ]
    },
    {
        "id": "jOnhdJpCmrmZMc8w_oTbf",
        "name": "Ellwood Thompson",
        "address": {
            "street": "4 N Thompson St, Richmond, VA 23221",
            "lat": "37.5574138",
            "lon": "-77.4884332"
        },
        "locations": "Retail",
        "wines": [
            "Eluvium",
            "Five Forks",
            "Foothills"
        ]
    },
    {
        "id": "g030AgzGMRcFjyvphqUak",
        "name": "Fahrenheit 132",
        "address": {
            "street": "328 William Street, Fredericksburg, VA 22401",
            "lat": "38.3028665",
            "lon": "-77.4612967"
        },
        "locations": "Restaurant",
        "wines": [
            "Eluvium",
            "RISE"
        ]
    },
    {
        "id": "EO8DYgOlxiiVgurexfV8v",
        "name": "Libbie Market",
        "address": {
            "street": "400 Libbie Ave., Richmond, VA 23226",
            "lat": "37.5746309",
            "lon": "-77.5183971"
        },
        "locations": "Retail",
        "wines": [
            "Eluvium",
            "Foothills",
            "Petit Manseng",
            "Rosé",
            "Young Wine Red"
        ]
    },
    {
        "id": "qpFgDRH-fHTM5bFSh0Cvc",
        "name": "Market Street Wine Shop",
        "address": {
            "street": "311 East Market St, Charlottesville, VA 22902",
            "lat": "38.0310819",
            "lon": "-78.4790515"
        },
        "locations": "Retail",
        "wines": [
            "Eluvium",
            "Five Forks",
            "Foothills"
        ]
    },
    {
        "id": "0Hp4cbODf9Su-lb1SBUqf",
        "name": "Norm's Beer & Wine",
        "address": {
            "street": "136 Branch Rd SE, Vienna, VA 22180",
            "lat": "38.9062317",
            "lon": "-77.257151"
        },
        "locations": "Retail",
        "wines": [
            "Eluvium",
            "Five Forks",
            "Shenandoah Valley Cabernet Franc"
        ]
    },
    {
        "id": "yXGyTmyWHg_pj4h1eoi3P",
        "name": "Taste - Bayville Farms",
        "address": {
            "street": "4097 Shore Drive, Virginia Beach, VA 23455",
            "lat": "36.9059328",
            "lon": "-76.1160943"
        },
        "locations": "Restaurant/Retail",
        "wines": [
            "Eluvium",
            "Five Forks",
            "Foothills",
            "Rosé"
        ]
    },
    {
        "id": "KWJUH6XexGUOcAasM6mlE",
        "name": "Taste - Hilltop",
        "address": {
            "street": "1554 Laskin Road, Suite 110, Virginia Beach, VA 23451",
            "lat": "36.853651",
            "lon": "-76.0153597"
        },
        "locations": "Restaurant/Retail",
        "wines": [
            "Eluvium",
            "Foothills",
            "Rosé"
        ]
    },
    {
        "id": "gA6ZgOWNIy2OezW8BTHzy",
        "name": "Unwined - King St",
        "address": {
            "street": "Bradlee Shopping Center, Alexandria, VA 22302",
            "lat": "38.8286279",
            "lon": "-77.091689"
        },
        "locations": "Retail",
        "wines": [
            "Eluvium",
            "Foothills",
            "Rosé",
            "Shenandoah Valley Cabernet Franc"
        ]
    },
    {
        "id": "aqCGC1ixeAQ1BeIQxtRN1",
        "name": "Jefferson Hotel",
        "address": {
            "street": "101 W Franklin St, Richmond, VA 23220",
            "lat": "37.5442549",
            "lon": "-77.4454117"
        },
        "locations": "Restaurant",
        "wines": [
            "Eluvium",
            "Foothills"
        ]
    },
    {
        "id": "qDLxZv6N-ehSiFm8vxmwu",
        "name": "Taste - Oceanfront",
        "address": {
            "street": "3603 Pacific Avenue, Virginia Beach, VA 23451",
            "lat": "36.8641917",
            "lon": "-75.9803595"
        },
        "locations": "Retail",
        "wines": [
            "Eluvium",
            "Five Forks",
            "Foothills",
            "Rosé"
        ]
    },
    {
        "id": "IWwbXAeXhIA1iuYAhsKaf",
        "name": "Duner's",
        "address": {
            "street": "4372 Ivy Rd., Charlottesville, VA 22903",
            "lat": "38.0576978",
            "lon": "-78.5980417"
        },
        "locations": "Restaurant",
        "wines": [
            "Eluvium"
        ]
    },
    {
        "id": "AjZghlZpfvqORLsMBq2dg",
        "name": "Le Vintage",
        "address": {
            "street": "1218 King Street, Alexandria, VA 22314",
            "lat": "38.8057139",
            "lon": "-77.0533207"
        },
        "locations": "Retail",
        "wines": [
            "Eluvium",
            "Pétillant Naturel White",
            "Rosé",
            "Shenandoah Valley Cabernet Franc"
        ]
    },
    {
        "id": "hX5vWw4sIgDx8jKLA8lE0",
        "name": "Farmington",
        "address": {
            "street": "1625 Country Club Circle, Charlottesville, VA 22901",
            "lat": "38.0616369",
            "lon": "-78.5419503"
        },
        "locations": "Restaurant",
        "wines": [
            "Eluvium",
            "Petit Manseng"
        ]
    },
    {
        "id": "fvNBJD-ReY3vQzeJPYe5r",
        "name": "Taste - Town Center",
        "address": {
            "street": "4513 Commerce Street, Virgina Beach, VA 23462",
            "lat": "36.8416311",
            "lon": "-76.1345806"
        },
        "locations": "Retail",
        "wines": [
            "Eluvium",
            "Five Forks",
            "Foothills"
        ]
    },
    {
        "id": "GhRNHlWK_dI4AfhxCYFse",
        "name": "Tastings of Charlottesville",
        "address": {
            "street": "502 East Market St, Charlottesville, VA 22902",
            "lat": "38.0303427",
            "lon": "-78.4779714"
        },
        "locations": "Retail",
        "wines": [
            "Eluvium",
            "Quaker Run Chardonnay"
        ]
    },
    {
        "id": "ZH2GGIK7hiPkbYq36Q_RA",
        "name": "Local, The",
        "address": {
            "street": "824 Hinton Ave, Charlottesville, VA 22901",
            "lat": "38.0244641",
            "lon": "-78.4755275"
        },
        "locations": "Restaurant",
        "wines": [
            "Eluvium"
        ]
    },
    {
        "id": "MK5sZet2il4u5-raTgTEa",
        "name": "Taste - Westhampton",
        "address": {
            "street": "5706 Grove Ave Ste 100, Richmond, VA 23226",
            "lat": "37.5732828",
            "lon": "-77.5173888"
        },
        "locations": "Retail",
        "wines": [
            "Eluvium",
            "Foothills",
            "Rosé"
        ]
    },
    {
        "id": "xJ90oKliiSrxyKajSWMqm",
        "name": "Taste - Greenbrier",
        "address": {
            "street": "717 Eden Way, Unit 600, Chesapeake, VA 23320",
            "lat": "36.7722661",
            "lon": "-76.2369631"
        },
        "locations": "Retail",
        "wines": [
            "Eluvium",
            "Foothills",
            "Rosé"
        ]
    },
    {
        "id": "-v7LEvRl8u3ihK2gU7jth",
        "name": "Cork & Table",
        "address": {
            "street": "909 Caroline St., Fredericksburg, VA 22401",
            "lat": "38.3030513",
            "lon": "-77.4590764"
        },
        "locations": "Restaurant",
        "wines": [
            "Eluvium"
        ]
    },
    {
        "id": "9vxvkXf5VD9_I63x7UY85",
        "name": "Calvert Woodley",
        "address": {
            "street": "4339 Connecticut Ave NW, Washington, DC 20008",
            "lat": "38.9450626",
            "lon": "-77.06377"
        },
        "locations": "Retail",
        "wines": [
            "Eluvium"
        ]
    },
    {
        "id": "iWpqBPUwQ0KlqBMXWoFOo",
        "name": "Rio Hill Wine & Beer",
        "address": {
            "street": "1908 Rio Hill Center, Charlottesville, VA 22901",
            "lat": "38.0877905",
            "lon": "-78.4749043"
        },
        "locations": "Retail",
        "wines": [
            "Eluvium",
            "Foothills",
            "Rosé",
            "Shenandoah Valley Cabernet Franc"
        ]
    },
    {
        "id": "fgcgIykZCXtOzxzYfADYI",
        "name": "Tuscarora Mill",
        "address": {
            "street": "203 Harrison St SE, Leesburg, VA 20175",
            "lat": "39.1126676",
            "lon": "-77.5629852"
        },
        "locations": "Restaurant",
        "wines": [
            "Eluvium",
            "Shenandoah Valley Cabernet Franc"
        ]
    },
    {
        "id": "5ohJqdKKF_214mr1bboCZ",
        "name": "Alewife",
        "address": {
            "street": "3120 E Marshall St., Richmond, VA 23223",
            "lat": "37.5288308",
            "lon": "-77.4116311"
        },
        "locations": "Restaurant/Retail",
        "wines": [
            "Five Forks",
            "Foothills",
            "Pétillant Naturel White",
            "Young Wine",
            "Young Wine Red",
            "Young Wine White"
        ]
    },
    {
        "id": "DBJHpwpzVc_u4BSFGjCMl",
        "name": "Basic City Beer Co.",
        "address": {
            "street": "1010 E Main St, Waynesboro, VA 22980",
            "lat": "38.0634845",
            "lon": "-78.873384"
        },
        "locations": "Restaurant/Retail",
        "wines": [
            "Five Forks"
        ]
    },
    {
        "id": "zSOJ5e7rpuvPvbD8H9r6C",
        "name": "Capital Ale House - Fairfax",
        "address": {
            "street": "4069 Chain Bridge Rd, Fairfax, VA 22030",
            "lat": "38.8442986",
            "lon": "-77.3073582"
        },
        "locations": "Restaurant",
        "wines": [
            "Five Forks",
            "Foothills"
        ]
    },
    {
        "id": "45Os2r59QSk1FdpK7fs5J",
        "name": "Capital One Hall",
        "address": {
            "street": "7750 Capital One Tower Rd, Tysons, VA 22102",
            "lat": "38.9254757",
            "lon": "-77.2112568"
        },
        "locations": "Restaurant",
        "wines": [
            "Five Forks",
            "Foothills",
            "Rosé"
        ]
    },
    {
        "id": "87U0SDyFu1JJWbnc-srza",
        "name": "In Vino Veritas",
        "address": {
            "street": "3015 Louisa Rd, Keswick, VA 22947",
            "lat": "38.0134664",
            "lon": "-78.3951928"
        },
        "locations": "Retail",
        "wines": [
            "Five Forks",
            "Foothills"
        ]
    },
    {
        "id": "sy3Lo-68Mq4iLXhGgfEm6",
        "name": "Live Arts",
        "address": {
            "street": "123 East Water St, Charlottesville, VA 22902",
            "lat": "38.0300169",
            "lon": "-78.4812638"
        },
        "locations": "Restaurant",
        "wines": [
            "Five Forks",
            "Foothills",
            "Rosé",
            "Young Wine White"
        ]
    },
    {
        "id": "Ofn8QwiWdRoK4JdY3TDJr",
        "name": "Red Fox Inn",
        "address": {
            "street": "2 E. Washington St., Middleburg, VA 20117",
            "lat": "38.9692453",
            "lon": "-77.7354394"
        },
        "locations": "Restaurant",
        "wines": [
            "Five Forks",
            "RISE",
            "Shenandoah Valley Cabernet Franc"
        ]
    },
    {
        "id": "zgQepK9flDE_tKgYb3fqM",
        "name": "Roosevelt",
        "address": {
            "street": "623 N. 25th St., Richmond, VA 23223",
            "lat": "37.534897",
            "lon": "-77.4154189"
        },
        "locations": "Restaurant",
        "wines": [
            "Five Forks",
            "Foothills"
        ]
    },
    {
        "id": "SCAfjdU-GLA8HwEgniHJI",
        "name": "Screwtop",
        "address": {
            "street": "1025 Fillmore St. N, Arlington, VA 22201",
            "lat": "38.8859072",
            "lon": "-77.0926894"
        },
        "locations": "Restaurant",
        "wines": [
            "Five Forks",
            "Rosé",
            "Shenandoah Valley Cabernet Franc"
        ]
    },
    {
        "id": "ffjdkv7_T8FuFGQeBOxYT",
        "name": "Succotash",
        "address": {
            "street": "915 F St. NW, Washington, DC 20004",
            "lat": "38.897644",
            "lon": "-77.02474"
        },
        "locations": "Restaurant",
        "wines": [
            "Five Forks"
        ]
    },
    {
        "id": "NErI-6nNE5aCRuJdd5xxt",
        "name": "Vino Market",
        "address": {
            "street": "3730 Winterfield Rd., Midlothian, VA 23113",
            "lat": "37.5535346",
            "lon": "-77.6685934"
        },
        "locations": "Retail",
        "wines": [
            "Five Forks",
            "Foothills",
            "Rosé"
        ]
    },
    {
        "id": "Pj2-UZ2P9Nj8dAPJPfhpP",
        "name": "Whole Foods - Arlington",
        "address": {
            "street": "2700 Wilson Blvd., Arlington, VA 22201",
            "lat": "38.8890982",
            "lon": "-77.0910708"
        },
        "locations": "Restaurant/Retail",
        "wines": [
            "Five Forks",
            "Rosé"
        ]
    },
    {
        "id": "VZ34BcTFTW-y72dkX35rK",
        "name": "Whole Foods - Fair Lakes",
        "address": {
            "street": "4501 Market Commons Drive, Fairfax, VA 22033",
            "lat": "38.8578497",
            "lon": "-77.377751"
        },
        "locations": "Restaurant/Retail",
        "wines": [
            "Five Forks",
            "Foothills",
            "Rosé"
        ]
    },
    {
        "id": "CR7S1QJ_QIH8zYoq1NWwX",
        "name": "Whole Foods - Glover Park",
        "address": {
            "street": "2323 Wisconsin Ave NW, Washington, DC 20007",
            "lat": "38.9208932",
            "lon": "-77.0711068"
        },
        "locations": "Restaurant/Retail",
        "wines": [
            "Five Forks",
            "Foothills",
            "Rosé"
        ]
    },
    {
        "id": "9EwevrCoulZdxXChV6hiD",
        "name": "Whole Foods - Old Town",
        "address": {
            "street": "1700 Duke Street, Alexandria, VA 22314",
            "lat": "38.8041416",
            "lon": "-77.0600615"
        },
        "locations": "Restaurant/Retail",
        "wines": [
            "Five Forks",
            "Foothills",
            "Rosé",
            "Young Wine Red"
        ]
    },
    {
        "id": "ouSNZNsTCncUd3WDeEWvI",
        "name": "Whole Foods - P Street",
        "address": {
            "street": "1440 P Street NW, Washington, DC 20005",
            "lat": "38.9092854",
            "lon": "-77.0335078"
        },
        "locations": "Restaurant/Retail",
        "wines": [
            "Five Forks",
            "Foothills",
            "Rosé",
            "Young Wine Red"
        ]
    },
    {
        "id": "IniQZrq-dhNrHBcWkWkhN",
        "name": "Whole Foods - Short Pump",
        "address": {
            "street": "11173 West Broad St., Richmond, VA 23060",
            "lat": "37.6475262",
            "lon": "-77.5994359"
        },
        "locations": "Restaurant/Retail",
        "wines": [
            "Five Forks",
            "Foothills",
            "Rosé",
            "Young Wine Red"
        ]
    },
    {
        "id": "AUiRl8kLog7XX4w0n_weR",
        "name": "Whole Foods - South Capitol Hill",
        "address": {
            "street": "101 H St. SE, Washington, DC 20003",
            "lat": "38.8802819",
            "lon": "-77.005121"
        },
        "locations": "Restaurant/Retail",
        "wines": [
            "Five Forks",
            "Foothills",
            "Rosé"
        ]
    },
    {
        "id": "W5m_CiLtPIRKBoVR2ybof",
        "name": "Whole Foods - Tenley",
        "address": {
            "street": "4530 40th Street NW, Washington, DC 20016",
            "lat": "38.9490789",
            "lon": "-77.0792007"
        },
        "locations": "Restaurant/Retail",
        "wines": [
            "Five Forks",
            "Foothills",
            "Rosé"
        ]
    },
    {
        "id": "EES9aIcVz8TNMaRDxNots",
        "name": "Whole Foods - Vienna",
        "address": {
            "street": "143 Maple Ave East, Vienna, VA 22180",
            "lat": "38.9022469",
            "lon": "-77.2626957"
        },
        "locations": "Restaurant/Retail",
        "wines": [
            "Five Forks",
            "Rosé"
        ]
    },
    {
        "id": "tMKKMIOB6uKP7H2gPBcId",
        "name": "Department of Beer & Wine",
        "address": {
            "street": "2724 Richmond Hwy, Alexandria, VA 22301",
            "lat": "38.8306436",
            "lon": "-77.0511929"
        },
        "locations": "Retail",
        "wines": [
            "Five Forks",
            "Foothills",
            "Pétillant Naturel White",
            "Petit Manseng",
            "Rosé",
            "Shenandoah Valley Cabernet Franc",
            "Young Wine White"
        ]
    },
    {
        "id": "COpDKBTdZbDxAdCLlhTzj",
        "name": "Ivy Inn",
        "address": {
            "street": "2244 Old Ivy Rd., Charlottesville, VA 22903",
            "lat": "38.0459524",
            "lon": "-78.5162784"
        },
        "locations": "Restaurant",
        "wines": [
            "Five Forks",
            "Rosé"
        ]
    },
    {
        "id": "uAb-9pYH0LpmiYairJPe1",
        "name": "Pendulum Fine Meats",
        "address": {
            "street": "820 Shirley Avenue, Norfolk, VA 23517",
            "lat": "36.8683635",
            "lon": "-76.2987524"
        },
        "locations": "Retail",
        "wines": [
            "Five Forks",
            "Foothills"
        ]
    },
    {
        "id": "dhHCg-OvuIJoYO9fbBEwd",
        "name": "Second Bottle Wine",
        "address": {
            "street": "324 N 27th St Apt. A, Richmond, VA 23223",
            "lat": "37.5314274",
            "lon": "-77.4164175"
        },
        "locations": "Retail",
        "wines": [
            "Five Forks",
            "Foothills",
            "Petit Manseng",
            "Rosé",
            "Shenandoah Valley Cabernet Franc"
        ]
    },
    {
        "id": "YZIHnaeuOM9WD3sYSUlQm",
        "name": "Whole Foods - Charlottesville",
        "address": {
            "street": "1797 Hydraulic Road, Charlottesville, VA 22901",
            "lat": "38.059773",
            "lon": "-78.4891351"
        },
        "locations": "Restaurant/Retail",
        "wines": [
            "Five Forks",
            "Rosé",
            "Young Wine",
            "Young Wine Red"
        ]
    },
    {
        "id": "_HG-iCbzrgGhy7smseaKt",
        "name": "Whole Foods - Florida Ave",
        "address": {
            "street": "FAV - BU# 10651, Washington, DC 20001",
            "lat": "38.912068",
            "lon": "-77.0190228"
        },
        "locations": "Restaurant/Retail",
        "wines": [
            "Five Forks",
            "Foothills",
            "Young Wine Red"
        ]
    },
    {
        "id": "c6e0RW521Wx6PRDULDmRI",
        "name": "Whole Foods - Foggy Bottom",
        "address": {
            "street": "2201 I Street NW, Washington, DC 20037",
            "lat": "38.9010776",
            "lon": "-77.0490824"
        },
        "locations": "Restaurant/Retail",
        "wines": [
            "Five Forks",
            "Foothills",
            "Rosé"
        ]
    },
    {
        "id": "_TE8aJ3PmNGBjTo3Kr5d3",
        "name": "Whole Foods - H Street",
        "address": {
            "street": "600-A H Street, NE, Washington, DC 20002",
            "lat": "38.8995727",
            "lon": "-77.0201171"
        },
        "locations": "Restaurant/Retail",
        "wines": [
            "Five Forks",
            "Foothills"
        ]
    },
    {
        "id": "EToBJ9N6pT3L8RQg99V1s",
        "name": "Whole Foods - South Capitol Hill",
        "address": {
            "street": "101 H St. SE, Washington, DC 20003",
            "lat": "38.8802819",
            "lon": "-77.005121"
        },
        "locations": "Restaurant/Retail",
        "wines": [
            "Five Forks",
            "Foothills"
        ]
    },
    {
        "id": "y33GSSjow7MtNYlqQf6vd",
        "name": "Whole Foods - Springfield",
        "address": {
            "street": "8402 Old Keene Mill Road, Springfield, VA 22152",
            "lat": "38.7796321",
            "lon": "-77.2342061"
        },
        "locations": "Restaurant/Retail",
        "wines": [
            "Five Forks"
        ]
    },
    {
        "id": "Ct4n_mPyZDmKtS-5iIwn3",
        "name": "Wine Seller - Williamsburg",
        "address": {
            "street": "4680 Monticello Ave Suite 15, Williamsburg, VA 23188",
            "lat": "37.2722283",
            "lon": "-76.7577749"
        },
        "locations": "Retail",
        "wines": [
            "Five Forks",
            "Foothills",
            "Pétillant Naturel White",
            "Rosé"
        ]
    },
    {
        "id": "JiJE1TIY67En7Oz4RvVwk",
        "name": "Second Bottle Wine",
        "address": {
            "street": "324 N 27th St Apt. A, Richmond, VA 23223",
            "lat": "37.5314274",
            "lon": "-77.4164175"
        },
        "locations": "Retail",
        "wines": [
            "Five Forks",
            "Foothills",
            "Rosé",
            "Shenandoah Valley Cabernet Franc"
        ]
    },
    {
        "id": "f7q_dpAl8pV5sJ1o04ggr",
        "name": "Whole Foods - Ashburn",
        "address": {
            "street": "19800 Belmont Chase Dr, Ashburn, VA 20147",
            "lat": "39.0686101",
            "lon": "-77.4843579"
        },
        "locations": "Restaurant/Retail",
        "wines": [
            "Five Forks",
            "Foothills",
            "Rosé"
        ]
    },
    {
        "id": "ESdzcFfB5rnas-3KDE6Iy",
        "name": "Whole Foods - Charlottesville",
        "address": {
            "street": "1797 Hydraulic Road, Charlottesville, VA 22901",
            "lat": "38.059773",
            "lon": "-78.4891351"
        },
        "locations": "Restaurant/Retail",
        "wines": [
            "Five Forks",
            "Rosé"
        ]
    },
    {
        "id": "e-pIiYZ2_41UUmpG2vVzj",
        "name": "Whole Foods - Tysons",
        "address": {
            "street": "7511 Leesburg Pike, Falls Church, VA 22043",
            "lat": "38.9026076",
            "lon": "-77.2050359"
        },
        "locations": "Restaurant/Retail",
        "wines": [
            "Five Forks",
            "Foothills",
            "Rosé"
        ]
    },
    {
        "id": "kgXDWtGl1lw7GCz6DZA1B",
        "name": "Whole Foods - West Broad",
        "address": {
            "street": "2024 W Broad Street, Richmond, VA 23220",
            "lat": "37.5581958",
            "lon": "-77.4612166"
        },
        "locations": "Restaurant/Retail",
        "wines": [
            "Five Forks",
            "Foothills",
            "Rosé",
            "Young Wine Red"
        ]
    },
    {
        "id": "3j_aFCadU2QIzbJKW2czv",
        "name": "Wine Gourmet",
        "address": {
            "street": "3524 Electric Road, Roanoke, VA 24014",
            "lat": "37.2265303",
            "lon": "-79.9974824"
        },
        "locations": "Retail",
        "wines": [
            "Five Forks",
            "Foothills",
            "Rosé"
        ]
    },
    {
        "id": "nFng2Ckba6yt9R_fhedIa",
        "name": "Kindred Fare",
        "address": {
            "street": "512 Hamilton St, Geneva, NY 14456",
            "lat": "42.857025",
            "lon": "-77.0069766"
        },
        "locations": "Restaurant",
        "wines": [
            "Five Forks",
            "Foothills"
        ]
    },
    {
        "id": "swpyrLsD_wb5vr8i6TnAe",
        "name": "Taste - Ghent",
        "address": {
            "street": "407 W 21st Street, Norfolk, VA 23517",
            "lat": "36.8703185",
            "lon": "-76.2944544"
        },
        "locations": "Retail",
        "wines": [
            "Five Forks",
            "Foothills",
            "Rosé"
        ]
    },
    {
        "id": "Atw2o4Quaf1diIvxgYI3O",
        "name": "Taste - Harbour View",
        "address": {
            "street": "5911 Harbour View Blvd Suite 100, Suffolk, VA 23435",
            "lat": "36.8775444",
            "lon": "-76.4384889"
        },
        "locations": "Retail",
        "wines": [
            "Five Forks",
            "Foothills",
            "Rosé"
        ]
    },
    {
        "id": "sKLXIBWn67onprsJB-zS7",
        "name": "Bingo Beer Co.",
        "address": {
            "street": "2900 W Broad Street, Richmond, VA 23230",
            "lat": "37.5637961",
            "lon": "-77.4716025"
        },
        "locations": "Restaurant",
        "wines": [
            "Foothills",
            "Rosé",
            "Young Wine White"
        ]
    },
    {
        "id": "q4Uwc3lGLVdUaBiSf2313",
        "name": "Friendly City Food Co-op",
        "address": {
            "street": "150 E Wolfe St, Harrisonburg, VA 22802",
            "lat": "38.4516609",
            "lon": "-78.8665291"
        },
        "locations": "Retail",
        "wines": [
            "Foothills",
            "Pétillant Naturel White",
            "Petit Manseng",
            "Rosé"
        ]
    },
    {
        "id": "1bwy92Rwik9OKg6jpFdoM",
        "name": "Chain Bridge Cellars",
        "address": {
            "street": "1351 Chain Bridge Rd, McLean, VA 22101",
            "lat": "38.9385421",
            "lon": "-77.1746454"
        },
        "locations": "Retail",
        "wines": [
            "Foothills"
        ]
    },
    {
        "id": "Jhn4-bSpQ8bgLUM-JQxhp",
        "name": "Middleburg Tennis Club",
        "address": {
            "street": "1777 Zulla Road, Middleburg, VA 20117",
            "lat": "38.9580633",
            "lon": "-77.7638489"
        },
        "locations": "Restaurant",
        "wines": [
            "Foothills",
            "Quaker Run Cabernet Franc",
            "Rosé",
            "Shenandoah Valley Cabernet Franc"
        ]
    },
    {
        "id": "Ick2rgFhcc3V8GoRXxx8J",
        "name": "NRG - Rustico - Alexandria",
        "address": {
            "street": "827 Slaters Lane, Alexandria, VA 22314",
            "lat": "38.8216366",
            "lon": "-77.0471365"
        },
        "locations": "Restaurant",
        "wines": [
            "Foothills"
        ]
    },
    {
        "id": "oS_fjBUVWLEjBAyzGlWJ2",
        "name": "Organic Butcher of McLean",
        "address": {
            "street": "6712 Old Dominion Drive, McLean, VA 22101",
            "lat": "38.9335412",
            "lon": "-77.1758584"
        },
        "locations": "Retail",
        "wines": [
            "Foothills",
            "Quaker Run Cabernet Franc",
            "Rosé",
            "Shenandoah Valley Cabernet Franc",
            "Young Wine Red"
        ]
    },
    {
        "id": "u25mSLXtX-_d5lvuQEuVd",
        "name": "Outpost",
        "address": {
            "street": "4813 Forest Hill Ave., Richmond, VA 23225",
            "lat": "37.5211852",
            "lon": "-77.4878087"
        },
        "locations": "Retail",
        "wines": [
            "Foothills",
            "Rosé",
            "Shenandoah Valley Cabernet Franc",
            "Young Wine Red",
            "Young Wine White"
        ]
    },
    {
        "id": "U5Gyob0xJM_FwYTubkMAI",
        "name": "Prosperity Kitchen & Pantry",
        "address": {
            "street": "532 Virginia Beach Blvd Ste B, Virginia Beach, VA 23451",
            "lat": "36.8444829",
            "lon": "-75.9806406"
        },
        "locations": "Restaurant",
        "wines": [
            "Foothills"
        ]
    },
    {
        "id": "l7FcL1GWJtiS3IgXiCgO-",
        "name": "Roanoke Natural Foods Co-op",
        "address": {
            "street": "1319 Grandin Rd SW, Roanoke, VA 24015",
            "lat": "37.2652232",
            "lon": "-79.9776246"
        },
        "locations": "Retail",
        "wines": [
            "Foothills",
            "Rosé",
            "Young Wine Red",
            "Young Wine White"
        ]
    },
    {
        "id": "SrKzuiTpIMxs2taVI_27g",
        "name": "Whole Foods - Tenley",
        "address": {
            "street": "4530 40th Street NW, Washington, DC 20016",
            "lat": "38.9490789",
            "lon": "-77.0792007"
        },
        "locations": "Restaurant/Retail",
        "wines": [
            "Foothills"
        ]
    },
    {
        "id": "mztOz7BzZUoI6zwtP0KOK",
        "name": "Amber Ox Kitchen & Brewery",
        "address": {
            "street": "521 Prince George St., Williamsburg, VA 23185",
            "lat": "37.272864",
            "lon": "-76.708414"
        },
        "locations": "Restaurant",
        "wines": [
            "Foothills"
        ]
    },
    {
        "id": "DDDnfj2CnFXnsXiT3-l_E",
        "name": "Wool Factory",
        "address": {
            "street": "1837 Broadway Street, Charlottesville, VA 22902",
            "lat": "38.0197143",
            "lon": "-78.4557898"
        },
        "locations": "Restaurant/Retail",
        "wines": [
            "Foothills",
            "Quaker Run Chardonnay"
        ]
    },
    {
        "id": "U-t8a4G4aO4ncWnVgsDtf",
        "name": "Barrel Thief",
        "address": {
            "street": "5805 Patterson Ave, Richmond, VA 23226",
            "lat": "37.5794435",
            "lon": "-77.5149812"
        },
        "locations": "Restaurant/Retail",
        "wines": [
            "Foothills",
            "Pétillant Naturel White",
            "Rosé"
        ]
    },
    {
        "id": "iFkJ0apUDXJe_tnLiOXdV",
        "name": "Bassin's MacArthur Beverages",
        "address": {
            "street": "Shop: 4877 MacArthur Blvd NW, Washington, DC 20007",
            "lat": "38.9178153",
            "lon": "-77.0963369"
        },
        "locations": "Retail",
        "wines": [
            "Foothills",
            "Petit Manseng"
        ]
    },
    {
        "id": "Xx0HLa0tbEQ3kcoWU6FlM",
        "name": "Corks & Kegs",
        "address": {
            "street": "7110 Patterson Ave, Suite A, Richmond, VA 23229",
            "lat": "37.5924087",
            "lon": "-77.5329934"
        },
        "locations": "Retail",
        "wines": [
            "Foothills",
            "Shenandoah Valley Cabernet Franc",
            "Young Wine White"
        ]
    },
    {
        "id": "IP_GjSSIpU6WmkneNC6Wm",
        "name": "Department of Beer & Wine",
        "address": {
            "street": "2724 Richmond Hwy, Alexandria, VA 22301",
            "lat": "38.8306436",
            "lon": "-77.0511929"
        },
        "locations": "Retail",
        "wines": [
            "Foothills",
            "Rosé"
        ]
    },
    {
        "id": "pJb4BoPG6abylhlOluGNs",
        "name": "Foods of All Nations",
        "address": {
            "street": "2121 Ivy Rd, Charlottesville, VA 22903",
            "lat": "38.0432978",
            "lon": "-78.5119067"
        },
        "locations": "Retail",
        "wines": [
            "Foothills",
            "Shenandoah Valley Cabernet Franc"
        ]
    },
    {
        "id": "_cyti3o3o1MVVBj6ECIdU",
        "name": "J Emerson",
        "address": {
            "street": "5716 Grove Ave, Richmond, VA 23226",
            "lat": "37.5733362",
            "lon": "-77.5180274"
        },
        "locations": "Retail",
        "wines": [
            "Foothills"
        ]
    },
    {
        "id": "aBFK--pkxHiSLQtNSSkHN",
        "name": "Jefferson Hotel",
        "address": {
            "street": "101 W Franklin St, Richmond, VA 23220",
            "lat": "37.5442549",
            "lon": "-77.4454117"
        },
        "locations": "Restaurant",
        "wines": [
            "Foothills"
        ]
    },
    {
        "id": "VWbbRFngAz_FOpiJFt_RB",
        "name": "NRG - Red Apron Mosaic",
        "address": {
            "street": "8298 Glass Alley Ste 110, Fairfax, VA 22031",
            "lat": "38.8735482",
            "lon": "-77.2308105"
        },
        "locations": "Restaurant",
        "wines": [
            "Foothills"
        ]
    },
    {
        "id": "Q0wo8JLJN1FQjxV3X-Xqe",
        "name": "NRG - Planet Wine",
        "address": {
            "street": "2000-2004 Mount Vernon Ave, Alexandria, VA 22301",
            "lat": "38.8239957",
            "lon": "-77.0584135"
        },
        "locations": "Retail",
        "wines": [
            "Foothills",
            "RISE",
            "Rosé",
            "Shenandoah Valley Cabernet Franc",
            "Young Wine Red"
        ]
    },
    {
        "id": "YifcqcKwfA7182JglPY47",
        "name": "NRG - Rustico - Ballston",
        "address": {
            "street": "4075 Wilson Blvd., Arlington, VA 22203",
            "lat": "38.8803079",
            "lon": "-77.1085112"
        },
        "locations": "Restaurant",
        "wines": [
            "Foothills"
        ]
    },
    {
        "id": "xnBJQdkfP1t9cCHgiHtZH",
        "name": "NRG - Rustico - Alexandria",
        "address": {
            "street": "827 Slaters Lane, Alexandria, VA 22314",
            "lat": "38.8216366",
            "lon": "-77.0471365"
        },
        "locations": "Restaurant",
        "wines": [
            "Foothills"
        ]
    },
    {
        "id": "412ylPbjdDT_WXno64cdG",
        "name": "Patty O's Cafe",
        "address": {
            "street": "Inn at Little Washington, Washington, VA 22747",
            "lat": "38.7138077",
            "lon": "-78.1595479"
        },
        "locations": "Restaurant",
        "wines": [
            "Foothills"
        ]
    },
    {
        "id": "gnz4wmOKMExrnfYF6KmTx",
        "name": "Quirk Hotel - Charlottesville",
        "address": {
            "street": "499 W Main Street, Charlottesville, VA 22902",
            "lat": "38.03121",
            "lon": "-78.48776"
        },
        "locations": "Restaurant/Retail",
        "wines": [
            "Foothills"
        ]
    },
    {
        "id": "gB4UHdc-WG6_uMHr2CIyh",
        "name": "Rhett's Bar and Grill",
        "address": {
            "street": "134 Wood Ridge Terrace Ste.100, Zion Crossroads, VA 22942",
            "lat": "37.9804992",
            "lon": "-78.2134246"
        },
        "locations": "Restaurant",
        "wines": [
            "Foothills"
        ]
    },
    {
        "id": "qWVTLQsdWbrr0TFLkI81X",
        "name": "Roanoke Natural Foods Co-op",
        "address": {
            "street": "1319 Grandin Rd SW, Roanoke, VA 24015",
            "lat": "37.2652232",
            "lon": "-79.9776246"
        },
        "locations": "Retail",
        "wines": [
            "Foothills"
        ]
    },
    {
        "id": "5pcMNxR2XwpkoEjkNst6k",
        "name": "Roosevelt",
        "address": {
            "street": "623 N. 25th St., Richmond, VA 23223",
            "lat": "37.534897",
            "lon": "-77.4154189"
        },
        "locations": "Restaurant",
        "wines": [
            "Foothills"
        ]
    },
    {
        "id": "xHyEwkZd9GvOYX1OZC22W",
        "name": "Tail Up Goat",
        "address": {
            "street": "1827 Adams Mill Rd. NW, Washington, DC 20009",
            "lat": "38.923447",
            "lon": "-77.043176"
        },
        "locations": "Restaurant",
        "wines": [
            "Foothills"
        ]
    },
    {
        "id": "c_UdPT9jQSAMQainZH21A",
        "name": "Whole Foods - H Street",
        "address": {
            "street": "600-A H Street, NE, Washington, DC 20002",
            "lat": "38.8995727",
            "lon": "-77.0201171"
        },
        "locations": "Restaurant/Retail",
        "wines": [
            "Foothills"
        ]
    },
    {
        "id": "XKi0Jg2xayncU8LmoC2Cr",
        "name": "Whole Foods - Old Town",
        "address": {
            "street": "1700 Duke Street, Alexandria, VA 22314",
            "lat": "38.8041416",
            "lon": "-77.0600615"
        },
        "locations": "Restaurant/Retail",
        "wines": [
            "Foothills",
            "Rosé"
        ]
    },
    {
        "id": "7A4XnmUqynbQOjZgoVeIV",
        "name": "Whole Foods - Pentagon City",
        "address": {
            "street": "520 12th St S Ste 100, Arlington, VA 22202",
            "lat": "38.8628102",
            "lon": "-77.0545096"
        },
        "locations": "Restaurant/Retail",
        "wines": [
            "Foothills",
            "Rosé"
        ]
    },
    {
        "id": "kJAytCCZmjCosmFR9BmWE",
        "name": "Whole Foods - Short Pump",
        "address": {
            "street": "11173 West Broad St., Richmond, VA 23060",
            "lat": "37.6475262",
            "lon": "-77.5994359"
        },
        "locations": "Restaurant/Retail",
        "wines": [
            "Foothills"
        ]
    },
    {
        "id": "26nWtDV7jUlssH19nBWFB",
        "name": "Amber Ox Kitchen & Brewery",
        "address": {
            "street": "521 Prince George St., Williamsburg, VA 23185",
            "lat": "37.272864",
            "lon": "-76.708414"
        },
        "locations": "Restaurant",
        "wines": [
            "Foothills"
        ]
    },
    {
        "id": "-0mAT1-Db4fM2hYVZ0x4d",
        "name": "Crystal City Wine Shop",
        "address": {
            "street": "220 20th St. South, Arlington, VA 22202",
            "lat": "38.85597",
            "lon": "-77.0500304"
        },
        "locations": "Retail",
        "wines": [
            "Foothills",
            "Petit Manseng",
            "RISE",
            "Rosé"
        ]
    },
    {
        "id": "WQVXrSgkWUS-xwRCJL-8E",
        "name": "Dawson's Market Dupont Circle",
        "address": {
            "street": "2001 S St. NW, Washington, DC 20009",
            "lat": "38.9143274",
            "lon": "-77.0451575"
        },
        "locations": "Restaurant/Retail",
        "wines": [
            "Foothills",
            "Rosé",
            "Young Wine Red"
        ]
    },
    {
        "id": "MWE3WGxrft1Ez3lm-QJoe",
        "name": "Ellwood Thompson",
        "address": {
            "street": "4 N Thompson St, Richmond, VA 23221",
            "lat": "37.5574138",
            "lon": "-77.4884332"
        },
        "locations": "Retail",
        "wines": [
            "Foothills"
        ]
    },
    {
        "id": "yPToiEuZnf9YhKE-QajyT",
        "name": "Fat Canary",
        "address": {
            "street": "The Cheese Shop of VA, Inc., Williamsburg, VA 23185",
            "lat": "37.2706994",
            "lon": "-76.7061859"
        },
        "locations": "Restaurant",
        "wines": [
            "Foothills",
            "Rosé"
        ]
    },
    {
        "id": "Ct21hv5ypS3jOqS8Iyigf",
        "name": "Friendly City Food Co-op",
        "address": {
            "street": "150 E Wolfe St, Harrisonburg, VA 22802",
            "lat": "38.4516609",
            "lon": "-78.8665291"
        },
        "locations": "Retail",
        "wines": [
            "Foothills",
            "Rosé"
        ]
    },
    {
        "id": "aeyhFFv9lCVxL1odfIYtm",
        "name": "NRG - Rustico - Ballston",
        "address": {
            "street": "4075 Wilson Blvd., Arlington, VA 22203",
            "lat": "38.8803079",
            "lon": "-77.1085112"
        },
        "locations": "Restaurant",
        "wines": [
            "Foothills"
        ]
    },
    {
        "id": "Ut-Cm6ydpW--3QNeq-gHA",
        "name": "Press 626",
        "address": {
            "street": "626 West Olney Rd., Norfolk, VA 23507",
            "lat": "36.8605378",
            "lon": "-76.2996588"
        },
        "locations": "Restaurant",
        "wines": [
            "Foothills",
            "Petit Manseng",
            "Shenandoah Valley Cabernet Franc",
            "Young Wine Red"
        ]
    },
    {
        "id": "-K8TbLB6Ny1EmQFBfXCtA",
        "name": "Prosperity Kitchen & Pantry",
        "address": {
            "street": "532 Virginia Beach Blvd Ste B, Virginia Beach, VA 23451",
            "lat": "36.8444829",
            "lon": "-75.9806406"
        },
        "locations": "Restaurant",
        "wines": [
            "Foothills"
        ]
    },
    {
        "id": "ghEtEkr9UgqHQZ0-jJh6V",
        "name": "Veil - Forest Hill",
        "address": {
            "street": "4910 Forest Hill Ave, Richmond, VA 23225",
            "lat": "37.5218053",
            "lon": "-77.4900606"
        },
        "locations": "Restaurant",
        "wines": [
            "Foothills"
        ]
    },
    {
        "id": "PxycEpW91tY_GjMt1aadr",
        "name": "Whole Foods - Fair Lakes",
        "address": {
            "street": "4501 Market Commons Drive, Fairfax, VA 22033",
            "lat": "38.8578497",
            "lon": "-77.377751"
        },
        "locations": "Restaurant/Retail",
        "wines": [
            "Foothills"
        ]
    },
    {
        "id": "P8bliJsQJyCagKEg8jkW-",
        "name": "Whole Foods - Short Pump",
        "address": {
            "street": "11173 West Broad St., Richmond, VA 23060",
            "lat": "37.6475262",
            "lon": "-77.5994359"
        },
        "locations": "Restaurant/Retail",
        "wines": [
            "Foothills"
        ]
    },
    {
        "id": "hQJXJ6eUOaJHucWGOLT6T",
        "name": "Whole Foods - Tysons",
        "address": {
            "street": "7511 Leesburg Pike, Falls Church, VA 22043",
            "lat": "38.9026076",
            "lon": "-77.2050359"
        },
        "locations": "Restaurant/Retail",
        "wines": [
            "Foothills"
        ]
    },
    {
        "id": "TXHczvkdU52GY78A5i1QR",
        "name": "Whole Foods - Virginia Beach",
        "address": {
            "street": "1800 Laskin Road, Virginia Beach, VA 23454",
            "lat": "36.8509319",
            "lon": "-76.0281576"
        },
        "locations": "Restaurant/Retail",
        "wines": [
            "Foothills",
            "Rosé"
        ]
    },
    {
        "id": "oZd5OknSBsHfybAmW_Eou",
        "name": "Whole Foods - West Broad",
        "address": {
            "street": "2024 W Broad Street, Richmond, VA 23220",
            "lat": "37.5581958",
            "lon": "-77.4612166"
        },
        "locations": "Restaurant/Retail",
        "wines": [
            "Foothills"
        ]
    },
    {
        "id": "xZ7Av9A_RthBJ6esxl-JN",
        "name": "Jardin",
        "address": {
            "street": "1520 West Main Street, Richmond, VA 23220",
            "lat": "37.5476874",
            "lon": "-77.4605615"
        },
        "locations": "Restaurant",
        "wines": [
            "Foothills"
        ]
    },
    {
        "id": "8wJK9-HQ56jVF7WJLQgDL",
        "name": "Wine Warehouse",
        "address": {
            "street": "1804 Hydraulic Rd, Charlottesville, VA 22902",
            "lat": "38.0607943",
            "lon": "-78.4914214"
        },
        "locations": "Retail",
        "wines": [
            "Foothills"
        ]
    },
    {
        "id": "GXDYIB7uuCIrE4DYe2cMc",
        "name": "King's Ransom",
        "address": {
            "street": "728 King St, Alexandria, VA 22314",
            "lat": "38.8050097",
            "lon": "-77.0479903"
        },
        "locations": "Restaurant",
        "wines": [
            "Foothills"
        ]
    },
    {
        "id": "8bsAI6KC82Sgvc6B4fJwo",
        "name": "Kings County Wines",
        "address": {
            "street": "1420 Cortelyou Road, Brooklyn, NY 11226",
            "lat": "40.6409309",
            "lon": "-73.9645048"
        },
        "locations": "Retail",
        "wines": [
            "Foothills"
        ]
    },
    {
        "id": "q7mM1g19Q03x30unthtdd",
        "name": "NRG - Red Apron Mosaic",
        "address": {
            "street": "8298 Glass Alley Ste 110, Fairfax, VA 22031",
            "lat": "38.8735482",
            "lon": "-77.2308105"
        },
        "locations": "Restaurant",
        "wines": [
            "Foothills"
        ]
    },
    {
        "id": "rfj-CdZAOQwoX-aeq5BCa",
        "name": "Taste - City Center",
        "address": {
            "street": "Karla Zappatelli, Newport News, VA 23606",
            "lat": "37.0672839",
            "lon": "-76.514138"
        },
        "locations": "Retail",
        "wines": [
            "Foothills"
        ]
    },
    {
        "id": "VIjk8le3fdnYi_t-Vw5ad",
        "name": "Union Market",
        "address": {
            "street": "2306 Jefferson Avenue, Richmond, VA 23223",
            "lat": "37.5351655",
            "lon": "-77.4180834"
        },
        "locations": "Restaurant",
        "wines": [
            "Foothills"
        ]
    },
    {
        "id": "Tx7xXntyhnt7hRQ-WUFr5",
        "name": "Whole Foods - Ashburn",
        "address": {
            "street": "19800 Belmont Chase Dr, Ashburn, VA 20147",
            "lat": "39.0686101",
            "lon": "-77.4843579"
        },
        "locations": "Restaurant/Retail",
        "wines": [
            "Foothills"
        ]
    },
    {
        "id": "URblPQNhp7LmXdRVScElk",
        "name": "Whole Foods - Boro Tysons",
        "address": {
            "street": "1635 Boro Place, McLean, VA 22102",
            "lat": "38.9246913",
            "lon": "-77.2333798"
        },
        "locations": "Restaurant/Retail",
        "wines": [
            "Foothills",
            "Rosé"
        ]
    },
    {
        "id": "pwFF31TFnlGQpcMri2ITP",
        "name": "Whole Foods - Pentagon City",
        "address": {
            "street": "520 12th St S Ste 100, Arlington, VA 22202",
            "lat": "38.8628102",
            "lon": "-77.0545096"
        },
        "locations": "Restaurant/Retail",
        "wines": [
            "Foothills"
        ]
    },
    {
        "id": "m_aeAQBAeaFLHWzCjW8A0",
        "name": "Wine Seller - Williamsburg",
        "address": {
            "street": "4680 Monticello Ave Suite 15, Williamsburg, VA 23188",
            "lat": "37.2722283",
            "lon": "-76.7577749"
        },
        "locations": "Retail",
        "wines": [
            "Foothills"
        ]
    },
    {
        "id": "wtxTx7r6VgcnBaYy0qbzG",
        "name": "Jardin",
        "address": {
            "street": "1520 West Main Street, Richmond, VA 23220",
            "lat": "37.5476874",
            "lon": "-77.4605615"
        },
        "locations": "Restaurant",
        "wines": [
            "Foothills"
        ]
    },
    {
        "id": "x4hWOHZrgQ9pb1cQufThC",
        "name": "Live Arts",
        "address": {
            "street": "123 East Water St, Charlottesville, VA 22902",
            "lat": "38.0300169",
            "lon": "-78.4812638"
        },
        "locations": "Restaurant",
        "wines": [
            "Foothills",
            "Rosé"
        ]
    },
    {
        "id": "lg0Vh9UYKG1lgIcR4K23Q",
        "name": "NRG - Iron Gate",
        "address": {
            "street": "1734 N St. NW, Washington, DC 20036",
            "lat": "38.9070697",
            "lon": "-77.0398501"
        },
        "locations": "Restaurant",
        "wines": [
            "Foothills",
            "Petit Manseng"
        ]
    },
    {
        "id": "1iHtQSv0LUMlag_BoTZ2U",
        "name": "Vinosity",
        "address": {
            "street": "174 E Davis St, Culpeper, VA 22701",
            "lat": "38.4731199",
            "lon": "-77.9948819"
        },
        "locations": "Retail",
        "wines": [
            "Foothills",
            "Rosé",
            "Young Wine Red"
        ]
    },
    {
        "id": "vh3dxiVd9GP4-JvYiIJIs",
        "name": "Whole Foods - Newport News",
        "address": {
            "street": "12080 Jefferson Ave, Newport News, VA 23606",
            "lat": "37.1028877",
            "lon": "-76.4907572"
        },
        "locations": "Restaurant/Retail",
        "wines": [
            "Foothills",
            "Rosé"
        ]
    },
    {
        "id": "Djr8gW2eO5UfpMLd1bdUS",
        "name": "Wool Factory",
        "address": {
            "street": "1837 Broadway Street, Charlottesville, VA 22902",
            "lat": "38.0197143",
            "lon": "-78.4557898"
        },
        "locations": "Restaurant/Retail",
        "wines": [
            "Foothills"
        ]
    },
    {
        "id": "sK7q7UtjbVPaZhXVtP6R3",
        "name": "Fort Lewis Lodge",
        "address": {
            "street": "603 Old Plantation Way, Millboro, VA 24460",
            "lat": "38.114054",
            "lon": "-79.6110139"
        },
        "locations": "Restaurant",
        "wines": [
            "Foothills"
        ]
    },
    {
        "id": "7HC1UzLkR6gCAgXjITdiF",
        "name": "Alley Light",
        "address": {
            "street": "108 2nd St. SW, Charlottesville, VA 22902",
            "lat": "38.0305995",
            "lon": "-78.482276"
        },
        "locations": "Restaurant/Retail",
        "wines": [
            "Foothills",
            "RISE",
            "Shenandoah Valley Cabernet Franc",
            "Young Wine Red"
        ]
    },
    {
        "id": "ydij_FhgXFDavkJ6kmeIV",
        "name": "Odd Provisions",
        "address": {
            "street": "3301 11th Street NW, Washington, DC 20010",
            "lat": "38.9309006",
            "lon": "-77.0278015"
        },
        "locations": "Retail",
        "wines": [
            "Foothills",
            "Rosé"
        ]
    },
    {
        "id": "NsJdO4EvK-X2E9oSvBiyw",
        "name": "Farmhouse, The",
        "address": {
            "street": "285 Ridinger St., Christiansburg, VA 24073",
            "lat": "37.1534355",
            "lon": "-80.4219158"
        },
        "locations": "Restaurant",
        "wines": [
            "Foothills",
            "Rosé"
        ]
    },
    {
        "id": "cRkF3rpbgdsFmAExxd3XZ",
        "name": "Heurich House Museum",
        "address": {
            "street": "1307 New Hampshire Ave. NW, Washington, DC 20036",
            "lat": "38.9080119",
            "lon": "-77.0445379"
        },
        "locations": "Restaurant",
        "wines": [
            "Foothills"
        ]
    },
    {
        "id": "gOUqkDITmq0zpwrLSm5Qx",
        "name": "Common House- Charlottesville",
        "address": {
            "street": "206 West Market Street, Charlottesville, VA 22902",
            "lat": "38.0317194",
            "lon": "-78.4822538"
        },
        "locations": "Restaurant",
        "wines": [
            "Pétillant Naturel White",
            "RISE"
        ]
    },
    {
        "id": "418cZ7_7-CNX9AhX3VkOl",
        "name": "Albi",
        "address": {
            "street": "1346 4th St SE, Washington, DC 20003",
            "lat": "38.8741942",
            "lon": "-77.0002617"
        },
        "locations": "Restaurant",
        "wines": [
            "Pétillant Naturel White"
        ]
    },
    {
        "id": "xltgG1ZspodT2SkOfR_MS",
        "name": "Wolf Trap National Park",
        "address": {
            "street": "1551 Trap Road, Vienna, VA 22182",
            "lat": "38.9391309",
            "lon": "-77.2620896"
        },
        "locations": "Restaurant",
        "wines": [
            "Pétillant Naturel White"
        ]
    },
    {
        "id": "lcPcb8YnSLRT746zLoI6v",
        "name": "Brothers & Sisters",
        "address": {
            "street": "Line Hotel DC 2468 Champlain St NW, Washington, DC 20009",
            "lat": "38.9228986",
            "lon": "-77.0416942"
        },
        "locations": "Restaurant",
        "wines": [
            "Pétillant Naturel White",
            "Young Wine Red",
            "Young Wine White"
        ]
    },
    {
        "id": "iIaA64PYIVzBfjc4xFp68",
        "name": "Commune - Norfolk",
        "address": {
            "street": "759 Granby St., Norfolk, VA 23510",
            "lat": "36.8562717",
            "lon": "-76.2885787"
        },
        "locations": "Restaurant",
        "wines": [
            "Pétillant Naturel White",
            "RISE",
            "Rosé"
        ]
    },
    {
        "id": "n0Z3Jv1jHRwPpOFBjWnZP",
        "name": "Bloom",
        "address": {
            "street": "1109 Main St. SW, Roanoke, VA 24015",
            "lat": "37.264562",
            "lon": "-79.958762"
        },
        "locations": "Restaurant",
        "wines": [
            "Petit Manseng",
            "Shenandoah Valley Cabernet Franc"
        ]
    },
    {
        "id": "zzJqOC1-zw8rBW4gSVXtH",
        "name": "Fortunato",
        "address": {
            "street": "301 1st Street SW #300, Roanoke, VA 24011",
            "lat": "37.2710089",
            "lon": "-79.942552"
        },
        "locations": "Restaurant",
        "wines": [
            "Petit Manseng"
        ]
    },
    {
        "id": "qQWvpgG9IxMMYLX-SWIIq",
        "name": "Four Eleven York",
        "address": {
            "street": "409 W York St, Norfolk, VA 23510",
            "lat": "36.8532742",
            "lon": "-76.2964346"
        },
        "locations": "Restaurant",
        "wines": [
            "Petit Manseng"
        ]
    },
    {
        "id": "L62expB5tGah7be4CaF_6",
        "name": "Clay Restaurant",
        "address": {
            "street": "553 Manhattan Ave, Manhattan, NY 10027",
            "lat": "40.809486",
            "lon": "-73.9538229"
        },
        "locations": "Restaurant",
        "wines": [
            "Petit Manseng"
        ]
    },
    {
        "id": "Tnx2BAqf8QgbE1kYOyHLJ",
        "name": "Gage & Tollner",
        "address": {
            "street": "372 Fulton Street, Brooklyn, NY 11201",
            "lat": "40.691317",
            "lon": "-73.987861"
        },
        "locations": "Restaurant",
        "wines": [
            "Petit Manseng",
            "Shenandoah Valley Cabernet Franc"
        ]
    },
    {
        "id": "r04Gbk44_ZfudNNumQmlZ",
        "name": "St. Vincent",
        "address": {
            "street": "3212 Georgia Avenue NW, Washington, DC 20010",
            "lat": "38.9304278",
            "lon": "-77.0237425"
        },
        "locations": "Restaurant",
        "wines": [
            "Petit Manseng",
            "Young Wine White"
        ]
    },
    {
        "id": "cezf98o9psVTHNkj4n4c8",
        "name": "Slope Cellars",
        "address": {
            "street": "436 7th Ave, Brooklyn, NY 11215",
            "lat": "40.6635697",
            "lon": "-73.9846443"
        },
        "locations": "Restaurant/Retail",
        "wines": [
            "Petit Manseng",
            "Rosé",
            "Young Wine White"
        ]
    },
    {
        "id": "L5R4tWtDLA21sR_MBbsru",
        "name": "Vintage Cellar",
        "address": {
            "street": "1338 South Main St., Blacksburg, VA 24060",
            "lat": "37.245549",
            "lon": "-80.4151582"
        },
        "locations": "Retail",
        "wines": [
            "Petit Manseng"
        ]
    },
    {
        "id": "VmGJrkeWjpYjcOeA6gsL5",
        "name": "Crystal City Wine Shop",
        "address": {
            "street": "220 20th St. South, Arlington, VA 22202",
            "lat": "38.85597",
            "lon": "-77.0500304"
        },
        "locations": "Retail",
        "wines": [
            "Petit Manseng"
        ]
    },
    {
        "id": "uZzVGJ-KNr6lsVl-hvNDF",
        "name": "Milli Second Coffee and Wine Bar",
        "address": {
            "street": "240 W Main Street, Charlottesville, VA 22902",
            "lat": "38.0309208",
            "lon": "-78.4829813"
        },
        "locations": "Restaurant",
        "wines": [
            "Petit Manseng"
        ]
    },
    {
        "id": "xcJew3AjM7BT5ok_0mWox",
        "name": "Red Hen-DC",
        "address": {
            "street": "1822 1st St. NW, Washington, DC 20001",
            "lat": "38.9149738",
            "lon": "-77.0124095"
        },
        "locations": "Restaurant",
        "wines": [
            "Petit Manseng",
            "Young Wine White"
        ]
    },
    {
        "id": "bRgcJPEHWXg32Zas3aFeh",
        "name": "Grisette",
        "address": {
            "street": "3119 East Marshall Street, Richmond, VA 23223",
            "lat": "37.5286571",
            "lon": "-77.4118647"
        },
        "locations": "Restaurant",
        "wines": [
            "Petit Manseng"
        ]
    },
    {
        "id": "O-PzuNHVMPp1MyNJKEa_N",
        "name": "Blue Rock Inn",
        "address": {
            "street": "12567 Lee Highway, Washington, VA 22747",
            "lat": "38.6883623",
            "lon": "-78.1899961"
        },
        "locations": "Restaurant",
        "wines": [
            "Petit Manseng"
        ]
    },
    {
        "id": "kX9qZXMpGZb5uH2hNstG6",
        "name": "Dabney",
        "address": {
            "street": "122 Blagden Alley NW, Washington, DC 20009",
            "lat": "38.9063446",
            "lon": "-77.0245248"
        },
        "locations": "Restaurant",
        "wines": [
            "Petit Manseng",
            "Quaker Run Cabernet Franc"
        ]
    },
    {
        "id": "T-pS2FgAMvhkVkBpaK73G",
        "name": "Domestique",
        "address": {
            "street": "10 Florida Ave NW, Washington, DC 20001",
            "lat": "38.910778",
            "lon": "-77.009462"
        },
        "locations": "Retail",
        "wines": [
            "Petit Manseng",
            "Rosé"
        ]
    },
    {
        "id": "8ddfWA6X9-p2CGc4alQvV",
        "name": "Front Royal Wines",
        "address": {
            "street": "300 E. Main Street, Front Royal, VA 22630",
            "lat": "38.9178983",
            "lon": "-78.1905081"
        },
        "locations": "Retail",
        "wines": [
            "Petit Manseng",
            "Rosé",
            "Young Wine Red"
        ]
    },
    {
        "id": "AsNlbnW2jkRBG7w0HSOPg",
        "name": "Gramercy Wines & Spirits",
        "address": {
            "street": "104 E 23rd St, New York, NY 10010",
            "lat": "40.7398313",
            "lon": "-73.9861406"
        },
        "locations": "Retail",
        "wines": [
            "Petit Manseng"
        ]
    },
    {
        "id": "cDAUCnqEdvx9MdfQ3sW8c",
        "name": "Red Hen-DC",
        "address": {
            "street": "1822 1st St. NW, Washington, DC 20001",
            "lat": "38.9149738",
            "lon": "-77.0124095"
        },
        "locations": "Restaurant",
        "wines": [
            "Petit Manseng"
        ]
    },
    {
        "id": "c9aQhml-SbIzXoiXQnC8O",
        "name": "Springhouse Sundries",
        "address": {
            "street": "Dairy Market, Charlottesville, VA 22903",
            "lat": "38.0377921",
            "lon": "-78.491266"
        },
        "locations": "Retail",
        "wines": [
            "Petit Manseng",
            "Quaker Run Chardonnay"
        ]
    },
    {
        "id": "BqoYaxRo9L1q1B75oEjUg",
        "name": "RichWine",
        "address": {
            "street": "405 Brook Rd., Richmond, VA 23220",
            "lat": "37.5478606",
            "lon": "-77.4425423"
        },
        "locations": "Retail",
        "wines": [
            "Petit Manseng",
            "Rosé"
        ]
    },
    {
        "id": "UTGFIkqw-S7w6RJ5FyMUA",
        "name": "NRG - Birch & Barley",
        "address": {
            "street": "1337 14th St. NW, Washington, DC 20005",
            "lat": "38.9084834",
            "lon": "-77.0315511"
        },
        "locations": "Restaurant",
        "wines": [
            "Petit Manseng"
        ]
    },
    {
        "id": "Y-dSTpeCpdVFOtTeDZEbN",
        "name": "1310 Kitchen & Bar",
        "address": {
            "street": "1310 Wisconsin Ave NW, Washington, DC 20007",
            "lat": "38.9071422",
            "lon": "-77.0635294"
        },
        "locations": "Restaurant/Retail",
        "wines": [
            "Petit Manseng"
        ]
    },
    {
        "id": "bAyci19QphhKPiFiDRKNY",
        "name": "The Modern",
        "address": {
            "street": "9 W 53rd St, New York, NY 10019",
            "lat": "40.7609475",
            "lon": "-73.9768318"
        },
        "locations": "Restaurant",
        "wines": [
            "Petit Manseng"
        ]
    },
    {
        "id": "hZxC-VYGiUt8poJYiJO3R",
        "name": "Luthun",
        "address": {
            "street": "432 E 13th St, New York, NY 10009",
            "lat": "40.7299405",
            "lon": "-73.9819054"
        },
        "locations": "Restaurant",
        "wines": [
            "Petit Manseng"
        ]
    },
    {
        "id": "zfdhyy10lXNdQtMK0-S2r",
        "name": "Philip Ehrlich - P",
        "address": {
            "street": ", Charlottesville, VA ",
            "lat": "38.0293059",
            "lon": "-78.4766781"
        },
        "locations": "Restaurant/Retail",
        "wines": [
            "Petit Manseng"
        ]
    },
    {
        "id": "YVCY1BlA7cEXbdXB7eB1s",
        "name": "Txikito",
        "address": {
            "street": "240 9th Ave, New York, NY 10001",
            "lat": "40.7473498",
            "lon": "-74.0003413"
        },
        "locations": "Restaurant",
        "wines": [
            "Petit Manseng"
        ]
    },
    {
        "id": "6LHpCsaJn9ghlLucoD2mB",
        "name": "Wegmanns",
        "address": {
            "street": "100 Wegmans Wy, Charlottesville, VA 22902",
            "lat": "38.0087589",
            "lon": "-78.5005881"
        },
        "locations": "Restaurant/Retail",
        "wines": [
            "Pur",
            "Soif"
        ]
    },
    {
        "id": "wjbtQG7gKcFLUguvLC-jZ",
        "name": "Matt Adkins - Samples",
        "address": {
            "street": "1112 E. Market St. 22B, Charlottesville, VA 22902",
            "lat": "38.0271561",
            "lon": "-78.471598"
        },
        "locations": "Retail",
        "wines": [
            "Quaker Run Cabernet Franc",
            "Shenandoah Valley Cabernet Franc"
        ]
    },
    {
        "id": "_TJhjt7sj1v0VItSX-jiH",
        "name": "Dabney",
        "address": {
            "street": "122 Blagden Alley NW, Washington, DC 20009",
            "lat": "38.9063446",
            "lon": "-77.0245248"
        },
        "locations": "Restaurant",
        "wines": [
            "Quaker Run Cabernet Franc"
        ]
    },
    {
        "id": "2Scpw-AFPOkAPLqJYhI24",
        "name": "Little Star",
        "address": {
            "street": "420 W Main St, Charlottesville, VA 22903",
            "lat": "38.0306322",
            "lon": "-78.4875591"
        },
        "locations": "Restaurant",
        "wines": [
            "Quaker Run Cabernet Franc",
            "RISE"
        ]
    },
    {
        "id": "lHb4bVqlNPvpVNGhuNk19",
        "name": "Mena",
        "address": {
            "street": "285 West Broadway #330, New York, NY 10013",
            "lat": "40.7209197",
            "lon": "-74.0046772"
        },
        "locations": "Restaurant",
        "wines": [
            "Quaker Run Chardonnay"
        ]
    },
    {
        "id": "-yKaZEh8wSWqB8_mFWkme",
        "name": "Field & Main",
        "address": {
            "street": "8369 W. Main St., Marshall, VA 20115",
            "lat": "38.8647631",
            "lon": "-77.8574303"
        },
        "locations": "Restaurant/Retail",
        "wines": [
            "RISE",
            "Rosé"
        ]
    },
    {
        "id": "Ax4yocfnZ2YHvwyQ5AfHA",
        "name": "Commune - Norfolk",
        "address": {
            "street": "759 Granby St., Norfolk, VA 23510",
            "lat": "36.8562717",
            "lon": "-76.2885787"
        },
        "locations": "Restaurant",
        "wines": [
            "RISE",
            "Rosé"
        ]
    },
    {
        "id": "3_5zDArJGi_tXD8Jov_b4",
        "name": "Crystal Palate",
        "address": {
            "street": "4500 Pretty Lake Avenue, Norfolk, VA 23518",
            "lat": "36.925493",
            "lon": "-76.1880817"
        },
        "locations": "Retail",
        "wines": [
            "RISE"
        ]
    },
    {
        "id": "22VO4EPzkTnUPHq449t07",
        "name": "NRG - Planet Wine",
        "address": {
            "street": "2000-2004 Mount Vernon Ave, Alexandria, VA 22301",
            "lat": "38.8239957",
            "lon": "-77.0584135"
        },
        "locations": "Retail",
        "wines": [
            "RISE"
        ]
    },
    {
        "id": "7P2Qo9CeYGrWgNXy-DqxW",
        "name": "Chase Works - P",
        "address": {
            "street": "1113 E Market Street B22, Charlottesville, VA 22902",
            "lat": "38.0280618",
            "lon": "-78.4715534"
        },
        "locations": "Restaurant",
        "wines": [
            "RISE"
        ]
    },
    {
        "id": "J7Hu9zYk6EqYkRyJ6Pcnm",
        "name": "NRG - Shelter",
        "address": {
            "street": "1401 Pennsylvania Ave SE, Washington, DC 20003",
            "lat": "38.8798036",
            "lon": "-76.9852327"
        },
        "locations": "Retail",
        "wines": [
            "RISE",
            "Rosé",
            "Young Wine White"
        ]
    },
    {
        "id": "zOAFVNQFgm2-t6hNXqb7m",
        "name": "Broken Tulip",
        "address": {
            "street": "3129 W. Cary Street, Richmond, VA 23221",
            "lat": "37.5532674",
            "lon": "-77.481503"
        },
        "locations": "Restaurant",
        "wines": [
            "RISE"
        ]
    },
    {
        "id": "VGkZpl4Dp84ovPp6Nx4An",
        "name": "Clifton Inn",
        "address": {
            "street": "1296 Clifton Inn Dr, Charlottesville, VA 22911",
            "lat": "38.0068689",
            "lon": "-78.3971538"
        },
        "locations": "Restaurant",
        "wines": [
            "RISE"
        ]
    },
    {
        "id": "iXZ4Lc8uird5QRtID3Zu1",
        "name": "Ecco Adesso",
        "address": {
            "street": "340 Ecco Adesso Lane, Fairfield, VA 24435",
            "lat": "37.8347796",
            "lon": "-79.3106557"
        },
        "locations": "Restaurant",
        "wines": [
            "RISE",
            "Rosé",
            "Shenandoah Valley Cabernet Franc"
        ]
    },
    {
        "id": "y3fAUAyZu0kBmJfOi8pAp",
        "name": "Bourbon Steak - Four Seasons Hotel",
        "address": {
            "street": "2800 Pennsylvania Avenue NW, Washington, DC 20007",
            "lat": "38.9044717",
            "lon": "-77.0577956"
        },
        "locations": "Restaurant",
        "wines": [
            "RISE",
            "Rosé"
        ]
    },
    {
        "id": "pexmizBN-JpUABGD_QlDS",
        "name": "Founding Farmers - DC",
        "address": {
            "street": "1924 Pennsylvania Ave. NW, Washington, DC 20006",
            "lat": "38.8999959",
            "lon": "-77.0443929"
        },
        "locations": "Restaurant",
        "wines": [
            "Rosé"
        ]
    },
    {
        "id": "K1DMpmWCOKR1czDRpPgm5",
        "name": "Founding Farmers - Reston",
        "address": {
            "street": "1904 Reston Metro Plaza, Suite 100, Reston, VA 20190",
            "lat": "38.9488917",
            "lon": "-77.3383807"
        },
        "locations": "Restaurant",
        "wines": [
            "Rosé"
        ]
    },
    {
        "id": "T00oCYG3ZUKqyyCSCcZo3",
        "name": "Founding Farmers - Tyson's Corner",
        "address": {
            "street": "1800 Tyson's Blvd., McLean, VA 22102",
            "lat": "38.9223637",
            "lon": "-77.2224625"
        },
        "locations": "Restaurant",
        "wines": [
            "Rosé"
        ]
    },
    {
        "id": "kiddty4pgbAh99_-GirC7",
        "name": "Green Room, The",
        "address": {
            "street": "130 W Beverly St, Staunton, VA 24401",
            "lat": "38.1492957",
            "lon": "-79.0744866"
        },
        "locations": "Restaurant",
        "wines": [
            "Rosé",
            "Young Wine Red",
            "Young Wine White"
        ]
    },
    {
        "id": "cK8zc0jm_kxKOLKJbXtPu",
        "name": "Montgomery Co. Dept. of Liquor Control",
        "address": {
            "street": "Division of Financial, Gaithersburg, MD 20878",
            "lat": "39.1048032",
            "lon": "-77.2520101"
        },
        "locations": "Restaurant",
        "wines": [
            "Rosé"
        ]
    },
    {
        "id": "Xp7aGpWwoFuUhXghraHBf",
        "name": "Farmers & Distillers",
        "address": {
            "street": "600 Massachusetts Ave. NW, Washington, DC 20001",
            "lat": "38.9012458",
            "lon": "-77.0205524"
        },
        "locations": "Restaurant/Retail",
        "wines": [
            "Rosé"
        ]
    },
    {
        "id": "K7d660aSoGctvVjyG5Xpr",
        "name": "Farmers Fishers Bakers",
        "address": {
            "street": "3000 K Street NW, Washington, DC 20007",
            "lat": "38.9025537",
            "lon": "-77.0601033"
        },
        "locations": "Restaurant/Retail",
        "wines": [
            "Rosé"
        ]
    },
    {
        "id": "03sQdHl3O4Q0WMw7PQEna",
        "name": "Founding Farmers - Reston",
        "address": {
            "street": "1904 Reston Metro Plaza, Suite 100, Reston, VA 20190",
            "lat": "38.9488917",
            "lon": "-77.3383807"
        },
        "locations": "Restaurant",
        "wines": [
            "Rosé"
        ]
    },
    {
        "id": "1fnilmbMfCMZ5Q5EZmsnW",
        "name": "Founding Farmers - Tyson's Corner",
        "address": {
            "street": "1800 Tyson's Blvd., McLean, VA 22102",
            "lat": "38.9223637",
            "lon": "-77.2224625"
        },