[
    {
        "id": "Ehj9JfR-VuwA31kx3Nmcb",
        "name": "Amber Ox Kitchen & Brewery",
        "address": {
            "street": "521 Prince George St., Williamsburg, VA 23185",
            "lat": "37.272864",
            "lon": "-76.708414"
        },
        "locations": "Restaurant",
        "wines": [
            "Five Forks",
            "Foothills"
        ]
    },
    {
        "id": "8HkDQi-JjcceyGqciyd_c",
        "name": "Arrowine",
        "address": {
            "street": "4508 Lee Hwy, Arlington, VA 22207",
            "lat": "38.8983733",
            "lon": "-77.1183586"
        },
        "locations": "Retail",
        "wines": [
            "Rosé",
            "Foothills",
            "Pétillant Naturel White",
            "Shenandoah Valley Cabernet Franc",
            "Chardonnay"
        ]
    },
    {
        "id": "PbUjH16emzX0NuHJekoZT",
        "name": "Barrel Chest",
        "address": {
            "street": "4035 Electric Rd. #B, Roanoke, VA 24018",
            "lat": "37.2235279",
            "lon": "-79.982868"
        },
        "locations": "Retail",
        "wines": [
            "Foothills",
            "Five Forks",
            "Pétillant Naturel White",
            "Young Wine",
            "Petit Manseng",
            "Eluvium"
        ]
    },
    {
        "id": "PVkevbsIgvogn3GbmWnwn",
        "name": "Barrel Thief",
        "address": {
            "street": "5805 Patterson Ave, Richmond, VA 23226",
            "lat": "37.5794435",
            "lon": "-77.5149812"
        },
        "locations": "Restaurant/Retail",
        "wines": [
            "Petit Manseng",
            "Rosé",
            "Pétillant Naturel White",
            "Foothills"
        ]
    },
    {
        "id": "3fEAy-kyz1pvRox2_OczI",
        "name": "Beer Run",
        "address": {
            "street": "156 Carlton Rd Ste 203, Charlottesville, VA 22902",
            "lat": "38.0246361",
            "lon": "-78.468401"
        },
        "locations": "Restaurant/Retail",
        "wines": [
            "Young Wine",
            "Shenandoah Valley Cabernet Franc"
        ]
    },
    {
        "id": "aZrlTFQ-hQU7BTECyMJ3j",
        "name": "Blanca",
        "address": {
            "street": "4117 Granby St Ste A, Norfolk, VA 23504",
            "lat": "36.8846514",
            "lon": "-76.2818304"
        },
        "locations": "Restaurant",
        "wines": [
            "Petit Manseng"
        ]
    },
    {
        "id": "mAiVJoTuFdj9S2mJ0biaQ",
        "name": "Caboose",
        "address": {
            "street": "108 S. Railroad Ave., Ashland, VA 23005",
            "lat": "37.758286",
            "lon": "-77.4816338"
        },
        "locations": "Restaurant/Retail",
        "wines": [
            "Chardonnay",
            "Foothills"
        ]
    },
    {
        "id": "AFyRwGL6TZFsQptE64fv3",
        "name": "City Vino",
        "address": {
            "street": "810 Caroline St Suite 101, Fredericksburg, VA 22401",
            "lat": "38.3019961",
            "lon": "-77.4590376"
        },
        "locations": "Retail",
        "wines": [
            "Rosé",
            "Eluvium",
            "Young Wine",
            "Five Forks"
        ]
    },
    {
        "id": "wne2DMgtWeeWz_E0p8Zbr",
        "name": "Common House",
        "address": {
            "street": "206 West Market Street, Charlottesville, VA 22902",
            "lat": "38.0317194",
            "lon": "-78.4822538"
        },
        "locations": "Restaurant",
        "wines": [
            "Pétillant Naturel White",
            "Rosé",
            "Chardonnay"
        ]
    },
    {
        "id": "YHIbV7ZkyAZjBD66ZTTGh",
        "name": "Buck's Fishing",
        "address": {
            "street": "5031 Connecticut Ave NW, Washington, DC 20008",
            "lat": "38.955832",
            "lon": "-77.0698701"
        },
        "locations": "Restaurant",
        "wines": [
            "Rosé"
        ]
    },
    {
        "id": "AOWkmqq_4A8oWLXMdyAJa",
        "name": "Crystal City Wine Shop",
        "address": {
            "street": "220 20th St. South, Arlington, VA 22202",
            "lat": "38.85597",
            "lon": "-77.0500304"
        },
        "locations": "Retail",
        "wines": [
            "Five Forks",
            "Petit Manseng",
            "Young Wine",
            "Rosé",
            "Foothills",
            "RISE"
        ]
    },
    {
        "id": "hVHEQ2bOZbcJgpwxR9C-B",
        "name": "Commune - Virginia Beach",
        "address": {
            "street": "501 Virginia Beach Blvd. Ste. B, Virginia Beach, VA 23451",
            "lat": "36.8441296",
            "lon": "-75.9793877"
        },
        "locations": "Restaurant",
        "wines": [
            "Foothills"
        ]
    },
    {
        "id": "8TTx2_pI4Ym3Z0h_L9ME-",
        "name": "Department of Beer & Wine",
        "address": {
            "street": "2724 Richmond Hwy, Alexandria, VA 22301",
            "lat": "38.830645",
            "lon": "-77.051175"
        },
        "locations": "Retail",
        "wines": [
            "Rosé",
            "Pétillant Naturel White",
            "Five Forks",
            "Foothills",
            "Petit Manseng"
        ]
    },
    {
        "id": "-zM_Q29ZWwOpEtWNO-Pxb",
        "name": "Dominion Wine and Beer",
        "address": {
            "street": "107 Rowell Ct., Falls Church, VA 22046",
            "lat": "38.8897048",
            "lon": "-77.183834"
        },
        "locations": "Restaurant/Retail",
        "wines": [
            "Five Forks",
            "Foothills",
            "Rosé",
            "Petit Manseng",
            "Chardonnay"
        ]
    },
    {
        "id": "ENok0t6GlxfGPAEKAM65L",
        "name": "Ellwood Thompson",
        "address": {
            "street": "4 N Thompson St, Richmond, VA 23221",
            "lat": "37.5574421",
            "lon": "-77.4886194"
        },
        "locations": "Retail",
        "wines": [
            "Shenandoah Valley Cabernet Franc",
            "Quaker Run Chardonnay",
            "Chardonnay",
            "Rosé",
            "Petit Manseng",
            "Five Forks",
            "Foothills",
            "Pétillant Naturel White",
            "Eluvium",
            "Pétillant Naturel Red"
        ]
    },
    {
        "id": "aex82niUYXLvSH_TG4KTc",
        "name": "Fat Canary",
        "address": {
            "street": "The Cheese Shop of VA, Inc., Williamsburg, VA 23185",
            "lat": "37.2706994",
            "lon": "-76.7061859"
        },
        "locations": "Restaurant",
        "wines": [
            "Foothills",
            "Shenandoah Valley Cabernet Franc",
            "Rosé",
            "Five Forks",
            "Pétillant Naturel White",
            "Young Wine",
            "Eluvium",
            "Quaker Run Chardonnay"
        ]
    },
    {
        "id": "CeBHwFWLNsTblmy4Sie2_",
        "name": "Crystal Palate",
        "address": {
            "street": "4500 Pretty Lake Avenue, Norfolk, VA 23518",
            "lat": "36.925493",
            "lon": "-76.1880817"
        },
        "locations": "Retail",
        "wines": [
            "Chardonnay"
        ]
    },
    {
        "id": "bSh56n9l3sbhAT7njqkn_",
        "name": "Field & Main",
        "address": {
            "street": "8369 W. Main St., Marshall, VA 20115",
            "lat": "38.8647631",
            "lon": "-77.8574303"
        },
        "locations": "Restaurant/Retail",
        "wines": [
            "Shenandoah Valley Cabernet Franc",
            "Red Vine",
            "Rosé",
            "F & M Red",
            "Eluvium",
            "RISE"
        ]
    },
    {
        "id": "8Z7ntzh5Mutmy-_uaMgNO",
        "name": "Foods of All Nations",
        "address": {
            "street": "2121 Ivy Rd, Charlottesville, VA 22903",
            "lat": "38.0432978",
            "lon": "-78.5119067"
        },
        "locations": "Retail",
        "wines": [
            "Young Wine",
            "Five Forks",
            "Rosé",
            "Foothills",
            "Shenandoah Valley Cabernet Franc",
            "Pétillant Naturel White",
            "Chardonnay"
        ]
    },
    {
        "id": "b4sdZCLYJjHwsiahuiGjx",
        "name": "Feast",
        "address": {
            "street": "416 W Main St Suite H, Charlottesville, VA 22902",
            "lat": "38.0304142",
            "lon": "-78.4872613"
        },
        "locations": "Retail",
        "wines": [
            "Rosé"
        ]
    },
    {
        "id": "dNMunAa2CtOxKRwLvMMvd",
        "name": "Founding Farmers - DC",
        "address": {
            "street": "1924 Pennsylvania Ave. NW, Washington, DC 20006",
            "lat": "38.9002854",
            "lon": "-77.0445269"
        },
        "locations": "Restaurant",
        "wines": [
            "Rosé"
        ]
    },
    {
        "id": "qvOwkPWVOyAas9Yqo5-Pp",
        "name": "Founding Farmers - Tyson's Corner",
        "address": {
            "street": "1800 Tyson's Blvd., McLean, VA 22102",
            "lat": "38.9223637",
            "lon": "-77.2224625"
        },
        "locations": "Restaurant",
        "wines": [
            "Rosé"
        ]
    },
    {
        "id": "-IQDcVH3bQfDV2G3JX1vf",
        "name": "Fort Lewis Lodge",
        "address": {
            "street": "603 Old Plantation Way, Millboro, VA 24460",
            "lat": "38.114054",
            "lon": "-79.6110139"
        },
        "locations": "Retail",
        "wines": [
            "Foothills",
            "Young Wine"
        ]
    },
    {
        "id": "57L4HIULqaUvvHJAwg0TL",
        "name": "Friendly City Food Co-op",
        "address": {
            "street": "150 E Wolfe St, Harrisonburg, VA 22802",
            "lat": "38.4516609",
            "lon": "-78.8665291"
        },
        "locations": "Retail",
        "wines": [
            "Rosé",
            "Pétillant Naturel White",
            "Foothills",
            "Petit Manseng",
            "Young Wine"
        ]
    },
    {
        "id": "GNKREBAQgXEtpA6oZhRXg",
        "name": "Glen's Garden Market",
        "address": {
            "street": "2001 S St. NW, Washington, DC 20009",
            "lat": "38.9143274",
            "lon": "-77.0451575"
        },
        "locations": "Restaurant/Retail",
        "wines": [
            "Rosé",
            "Shenandoah Valley Cabernet Franc",
            "Foothills",
            "Pétillant Naturel White",
            "Five Forks",
            "Young Wine"
        ]
    },
    {
        "id": "AaTLimOX2XrjeJdKDo7E7",
        "name": "Frankly Wines",
        "address": {
            "street": "66 West Broadway, New York, NY 10007",
            "lat": "40.7146846",
            "lon": "-74.0101186"
        },
        "locations": "Retail",
        "wines": [
            "Rosé"
        ]
    },
    {
        "id": "soBS9MBglVti7yhAaMRR3",
        "name": "Greenwood",
        "address": {
            "street": "6701 Rockfish Gap TPK, Crozet, VA 22932",
            "lat": "38.0413202",
            "lon": "-78.732343"
        },
        "locations": "Retail",
        "wines": [
            "Five Forks",
            "Petit Manseng",
            "Young Wine",
            "Foothills",
            "Rosé",
            "Eluvium",
            "Shenandoah Valley Cabernet Franc",
            "RISE"
        ]
    },
    {
        "id": "d7-g_02OPcOtHLAQ-Tit5",
        "name": "Good Wine",
        "address": {
            "street": "327 5th Avenue, Brooklyn, NY 11215",
            "lat": "40.6724091",
            "lon": "-73.9833358"
        },
        "locations": "Retail",
        "wines": [
            "Rosé",
            "Young Wine"
        ]
    },
    {
        "id": "QQ8yuw1X2o1in3MwnsJfF",
        "name": "J Emerson",
        "address": {
            "street": "5716 Grove Ave, Richmond, VA 23226",
            "lat": "37.5733362",
            "lon": "-77.5180274"
        },
        "locations": "Retail",
        "wines": [
            "Rosé",
            "Chardonnay",
            "Foothills",
            "Young Wine",
            "Five Forks",
            "Shenandoah Valley Cabernet Franc"
        ]
    },
    {
        "id": "FrqBZcQKl0yeb1Q5brGQn",
        "name": "Jackson River Cellars",
        "address": {
            "street": "180 Oakley Farm Ln, Warm Springs, VA 24484",
            "lat": "38.0425248",
            "lon": "-79.7906726"
        },
        "locations": "Retail",
        "wines": [
            "Young Wine",
            "Pétillant Naturel White"
        ]
    },
    {
        "id": "3M7OwxkweUc-Si1CNElMW",
        "name": "La Fromagerie",
        "address": {
            "street": "1222 King St, Alexandria, VA 22314",
            "lat": "38.805648",
            "lon": "-77.053429"
        },
        "locations": "Restaurant/Retail",
        "wines": [
            "Young Wine",
            "Rosé",
            "Eluvium",
            "Pétillant Naturel White",
            "Quaker Run Chardonnay"
        ]
    },
    {
        "id": "Y5pogJipUsEqJ8trPrFMu",
        "name": "Libbie Market",
        "address": {
            "street": "400 Libbie Ave., Richmond, VA 23226",
            "lat": "37.5746309",
            "lon": "-77.5183971"
        },
        "locations": "Retail",
        "wines": [
            "Rosé",
            "Eluvium",
            "Petit Manseng"
        ]
    },
    {
        "id": "-1f2gKeYqzI62F3uvjJiu",
        "name": "Little Red Fox",
        "address": {
            "street": "5035 Connecticut Ave. NW, Washington, DC 20008",
            "lat": "38.9558822",
            "lon": "-77.0699601"
        },
        "locations": "Restaurant/Retail",
        "wines": [
            "Pétillant Naturel White",
            "Shenandoah Valley Cabernet Franc"
        ]
    },
    {
        "id": "ip96RuFYIuMXKif21u9tF",
        "name": "Grisette",
        "address": {
            "street": "3119 East Marshall Street, Richmond, VA 23223",
            "lat": "37.528621",
            "lon": "-77.4119182"
        },
        "locations": "Restaurant",
        "wines": [
            "Petit Manseng"
        ]
    },
    {
        "id": "HZI1gv_qH3zQy0s-UsC-w",
        "name": "Market Street Wine Shop",
        "address": {
            "street": "311 East Market St, Charlottesville, VA 22902",
            "lat": "38.0310663",
            "lon": "-78.4789692"
        },
        "locations": "Retail",
        "wines": [
            "Five Forks",
            "Rosé",
            "Pétillant Naturel White",
            "Shenandoah Valley Cabernet Franc",
            "Foothills",
            "Pétillant Naturel Red",
            "RISE"
        ]
    },
    {
        "id": "PgcCtTsBOFPV_TR6Bl3Jz",
        "name": "Mona Lisa",
        "address": {
            "street": "921 Preston Ave, Charlottesville, VA 22903",
            "lat": "38.038434",
            "lon": "-78.489901"
        },
        "locations": "Retail",
        "wines": [
            "Five Forks",
            "Petit Manseng",
            "Foothills",
            "Young Wine",
            "Pétillant Naturel White",
            "Eluvium"
        ]
    },
    {
        "id": "YM3e4Mqn3-xgscOHha37h",
        "name": "Norm's Beer & Wine",
        "address": {
            "street": "136 Branch Rd SE, Vienna, VA 22180",
            "lat": "38.9062317",
            "lon": "-77.257151"
        },
        "locations": "Retail",
        "wines": [
            "Quaker Run Chardonnay",
            "Rosé",
            "Five Forks",
            "Chardonnay",
            "Foothills"
        ]
    },
    {
        "id": "okAEEsIinNX018ooDyM-b",
        "name": "Locke Store",
        "address": {
            "street": "2049 Millwood Rd., Millwood, VA 22646",
            "lat": "39.0695452",
            "lon": "-78.0379379"
        },
        "locations": "Retail",
        "wines": [
            "Rosé",
            "Eluvium",
            "Pétillant Naturel White",
            "Petit Manseng",
            "Quaker Run Chardonnay"
        ]
    },
    {
        "id": "vgbt-xDB4GuEZfOV6-053",
        "name": "Nota Bene",
        "address": {
            "street": "2110 E Main St., Richmond, VA 23223",
            "lat": "37.5311605",
            "lon": "-77.4243981"
        },
        "locations": "Restaurant",
        "wines": [
            "Five Forks",
            "Chardonnay",
            "Foothills"
        ]
    },
    {
        "id": "8VW2Uk8oERzrx1G_hs-mM",
        "name": "Organic Butcher of McLean",
        "address": {
            "street": "6712 Old Dominion Drive, McLean, VA 22101",
            "lat": "38.9335412",
            "lon": "-77.1758584"
        },
        "locations": "Retail",
        "wines": [
            "Rosé",
            "Five Forks",
            "Young Wine",
            "Pétillant Naturel Red",
            "Chardonnay",
            "Foothills",
            "Shenandoah Valley Cabernet Franc",
            "RISE"
        ]
    },
    {
        "id": "z-W5CBp30xHAxxpBB0KFt",
        "name": "Outpost",
        "address": {
            "street": "4813 Forest Hill Ave., Richmond, VA 23225",
            "lat": "37.5211852",
            "lon": "-77.4878087"
        },
        "locations": "Retail",
        "wines": [
            "Foothills",
            "Young Wine",
            "Rosé",
            "Shenandoah Valley Cabernet Franc"
        ]
    },
    {
        "id": "bxRXeS6LDpVd5egs3Q9V8",
        "name": "Odd Provisions",
        "address": {
            "street": "3301 11th Street NW, Washington, DC 20010",
            "lat": "38.9309006",
            "lon": "-77.0278015"
        },
        "locations": "Retail",
        "wines": [
            "Pétillant Naturel White"
        ]
    },
    {
        "id": "sz3m_ruTc-4ORZEPPHRB3",
        "name": "Planet Wine",
        "address": {
            "street": "2000-2004 Mount Vernon Ave, Alexandria, VA 22301",
            "lat": "38.8239816",
            "lon": "-77.0585376"
        },
        "locations": "Retail",
        "wines": [
            "Petit Manseng",
            "Young Wine",
            "Rosé",
            "Shenandoah Valley Cabernet Franc"
        ]
    },
    {
        "id": "fAi9v_cAPUnkNLNN9XYus",
        "name": "Prosperity Kitchen & Pantry",
        "address": {
            "street": "532 Virginia Beach Blvd Ste B, Virginia Beach, VA 23451",
            "lat": "36.8444829",
            "lon": "-75.9806406"
        },
        "locations": "Restaurant",
        "wines": [
            "Foothills",
            "Young Wine",
            "RISE"
        ]
    },
    {
        "id": "coSw1YUMbA8UzLamRbVXv",
        "name": "Red Hen-DC",
        "address": {
            "street": "1822 1st St. NW, Washington, DC 20001",
            "lat": "38.9149738",
            "lon": "-77.0124095"
        },
        "locations": "Restaurant",
        "wines": [
            "Rosé",
            "Petit Manseng"
        ]
    },
    {
        "id": "CLPaY8JXtfq0fwqL_gdiD",
        "name": "Salisbury Country Club",
        "address": {
            "street": "13620 W. Salisbury Rd, Midlothian, VA 23113",
            "lat": "37.5278854",
            "lon": "-77.6533788"
        },
        "locations": "Restaurant",
        "wines": [
            "Rosé",
            "Shenandoah Valley Cabernet Franc",
            "Five Forks",
            "Young Wine",
            "RISE"
        ]
    },
    {
        "id": "3mhksniBd22dit3gmiDOi",
        "name": "Screwtop",
        "address": {
            "street": "1025 Fillmore St. N, Arlington, VA 22201",
            "lat": "38.8859072",
            "lon": "-77.0926894"
        },
        "locations": "Restaurant/Retail",
        "wines": [
            "Rosé",
            "Eluvium",
            "Pétillant Naturel Red"
        ]
    },
    {
        "id": "0xFtSCTrgiunEqnhcOelP",
        "name": "Pendulum Fine Meats",
        "address": {
            "street": "820 Shirley Avenue, Norfolk, VA 23517",
            "lat": "36.8683635",
            "lon": "-76.2987524"
        },
        "locations": "Retail",
        "wines": [
            "Rosé",
            "Young Wine",
            "Five Forks"
        ]
    },
    {
        "id": "yJfOH_pvHueDt7BcE6xPs",
        "name": "Succotash",
        "address": {
            "street": "915 F St. NW, Washington, DC 20004",
            "lat": "38.897644",
            "lon": "-77.02474"
        },
        "locations": "Restaurant",
        "wines": [
            "Five Forks"
        ]
    },
    {
        "id": "bXxLgiOgQXLsK1D3mjNQs",
        "name": "Ten Sushi",
        "address": {
            "street": "120B East Main St, Charlottesville, VA 22902",
            "lat": "38.0303542",
            "lon": "-78.4810329"
        },
        "locations": "Restaurant",
        "wines": [
            "Rosé"
        ]
    },
    {
        "id": "PFyDP1XGBY3ghj8YWq6pa",
        "name": "The Inn at Meander Plantation",
        "address": {
            "street": "2333 N James Madison Hwy, Locust Dale, VA 22948",
            "lat": "38.3494656",
            "lon": "-78.118313"
        },
        "locations": "Restaurant",
        "wines": [
            "Rosé",
            "Petit Manseng",
            "Foothills",
            "Shenandoah Valley Cabernet Franc"
        ]
    },
    {
        "id": "fRRuH3cyhmzJohQ5GIG7m",
        "name": "The Market at Grelen",
        "address": {
            "street": "15091 Yager Rd, Somerset, VA 22972",
            "lat": "38.199417",
            "lon": "-78.194607"
        },
        "locations": "Restaurant/Retail",
        "wines": [
            "Rosé",
            "Chardonnay"
        ]
    },
    {
        "id": "EJHo2Pjs3Z4sAuERTwwbR",
        "name": "Thornton River Grille",
        "address": {
            "street": "Thornton River Grille, Sperryville, VA 22740",
            "lat": "38.6525114",
            "lon": "-78.2667447"
        },
        "locations": "Restaurant",
        "wines": [
            "Rosé",
            "Foothills",
            "Chardonnay",
            "Young Wine",
            "Eluvium"
        ]
    },
    {
        "id": "brgLEi3kHPa4JvX5LCyJf",
        "name": "Town Duck",
        "address": {
            "street": "100 Main St, Warrenton, VA 20186",
            "lat": "38.7122701",
            "lon": "-77.7930779"
        },
        "locations": "Retail",
        "wines": [
            "Rosé",
            "Foothills",
            "Eluvium",
            "Five Forks"
        ]
    },
    {
        "id": "2x3FyfFgWHQ9cuRS8QHcK",
        "name": "Unwined Belle View",
        "address": {
            "street": "1600 Belle View Blvd., Alexandria, VA 22307",
            "lat": "38.7761672",
            "lon": "-77.0597746"
        },
        "locations": "Retail",
        "wines": [
            "Rosé",
            "Eluvium",
            "Petit Manseng",
            "Young Wine"
        ]
    },
    {
        "id": "6uOp6lwbizd5y1I-ZhQmk",
        "name": "Urban Hang Suite",
        "address": {
            "street": "304 E. Broad Street, Richmond, VA 23219",
            "lat": "37.5441901",
            "lon": "-77.4388111"
        },
        "locations": "Restaurant/Retail",
        "wines": [
            "Foothills"
        ]
    },
    {
        "id": "ZftRjhFBJQ1jKPmQjnYVX",
        "name": "Thamee",
        "address": {
            "street": "1320 H St NE, Washington, DC 20002",
            "lat": "38.9004226",
            "lon": "-76.9874602"
        },
        "locations": "Restaurant",
        "wines": [
            "Young Wine"
        ]
    },
    {
        "id": "g4M7WvTj3q0o_IqCHvIHA",
        "name": "Westside Produce & Provisions",
        "address": {
            "street": "5015 Colley Ave., Norfolk, VA 23508",
            "lat": "36.8890919",
            "lon": "-76.2954496"
        },
        "locations": "Retail",
        "wines": [
            "Rosé",
            "Five Forks",
            "Foothills",
            "Chardonnay",
            "Young Wine",
            "Eluvium",
            "Shenandoah Valley Cabernet Franc"
        ]
    },
    {
        "id": "Tyrg3Q-NnOxrv1E_-f5qA",
        "name": "Wardman Wines",
        "address": {
            "street": "625 Monroe St. NE, Ste.#A7, Washington, DC 20007",
            "lat": "38.9318318",
            "lon": "-76.9971246"
        },
        "locations": "Retail",
        "wines": [
            "Rosé"
        ]
    },
    {
        "id": "mVqcm2C-087eGkH62pAT7",
        "name": "Whole Foods - Arlington",
        "address": {
            "street": "2700 Wilson Blvd., Arlington, VA 22201",
            "lat": "38.8892254",
            "lon": "-77.0912401"
        },
        "locations": "Restaurant/Retail",
        "wines": [
            "Five Forks",
            "Rosé"
        ]
    },
    {
        "id": "Objc9qrURe4b_GhYylsh8",
        "name": "Whole Foods - Boro Tysons",
        "address": {
            "street": "1635 Boro Place, McLean, VA 22102",
            "lat": "38.9246153",
            "lon": "-77.2335301"
        },
        "locations": "Restaurant/Retail",
        "wines": [
            "Five Forks",
            "Rosé",
            "Foothills"
        ]
    },
    {
        "id": "DqUYfaz1Ruj7LNylyvkQX",
        "name": "Whole Foods - Charlottesville",
        "address": {
            "street": "1797 Hydraulic Road, Charlottesville, VA 22901",
            "lat": "38.059773",
            "lon": "-78.4891351"
        },
        "locations": "Restaurant/Retail",
        "wines": [
            "Rosé",
            "Five Forks",
            "Foothills"
        ]
    },
    {
        "id": "4MO2itE_0VrjrLwW1I_nU",
        "name": "Whole Foods - Short Pump",
        "address": {
            "street": "11173 West Broad St., Richmond, VA 23060",
            "lat": "37.6475665",
            "lon": "-77.5997292"
        },
        "locations": "Restaurant/Retail",
        "wines": [
            "Rosé",
            "Foothills",
            "Five Forks"
        ]
    },
    {
        "id": "ojWvhHQ6BirWXPADB2onn",
        "name": "Whole Foods - Ashburn",
        "address": {
            "street": "19800 Belmont Chase Dr, Ashburn, VA 20147",
            "lat": "39.0684834",
            "lon": "-77.4843963"
        },
        "locations": "Restaurant/Retail",
        "wines": [
            "Foothills",
            "Rosé",
            "Five Forks"
        ]
    },
    {
        "id": "6oChC0ecvRTCKSXc8qyAZ",
        "name": "Whole Foods - South Capitol Hill",
        "address": {
            "street": "101 H St. SE, Washington, DC 20003",
            "lat": "38.8802819",
            "lon": "-77.005121"
        },
        "locations": "Restaurant/Retail",
        "wines": [
            "Rosé",
            "Five Forks"
        ]
    },
    {
        "id": "MshWvPbGYNsgMEz5Hf57d",
        "name": "Whole Foods - West Broad",
        "address": {
            "street": "2024 W Broad Street, Richmond, VA 23220",
            "lat": "37.5581958",
            "lon": "-77.4612166"
        },
        "locations": "Restaurant/Retail",
        "wines": [
            "Foothills"
        ]
    },
    {
        "id": "SqkDDFWYM5otN0vTWR_7S",
        "name": "Williamsburg Winery",
        "address": {
            "street": "5800 Wessex Hundred, Williamsburg, VA 23185",
            "lat": "37.2315138",
            "lon": "-76.718275"
        },
        "locations": "Restaurant/Retail",
        "wines": [
            "Rosé",
            "Eluvium"
        ]
    },
    {
        "id": "qvZbRQ6sLtT2lUnANWTk5",
        "name": "Wine Guild",
        "address": {
            "street": "221 Carlton Rd, Suite 1, Charlottesville, VA 22902",
            "lat": "38.0236619",
            "lon": "-78.4696887"
        },
        "locations": "Retail",
        "wines": [
            "Young Wine",
            "Rosé",
            "Shenandoah Valley Cabernet Franc"
        ]
    },
    {
        "id": "Ya2_otBEeD0Wuq_W65wwr",
        "name": "Wine Gourmet",
        "address": {
            "street": "3524 Electric Road, Roanoke, VA 24014",
            "lat": "37.2271841",
            "lon": "-79.9984762"
        },
        "locations": "Retail",
        "wines": [
            "Rosé"
        ]
    },
    {
        "id": "q6Nezj9ckPCjtLfc-R32M",
        "name": "Wool Factory, The",
        "address": {
            "street": "1837 Broadway Street, Charlottesville, VA 22902",
            "lat": "38.0201796",
            "lon": "-78.4580027"
        },
        "locations": "Restaurant/Retail",
        "wines": [
            "Foothills",
            "Rosé",
            "Eluvium",
            "Five Forks",
            "Pétillant Naturel White",
            "Young Wine",
            "RISE"
        ]
    },
    {
        "id": "jT3ay3B_g4XeoRfzaVvur",
        "name": "Wine Seller - Williamsburg",
        "address": {
            "street": "4680 Monticello Ave Suite 15, Williamsburg, VA 23188",
            "lat": "37.2719211",
            "lon": "-76.7595155"
        },
        "locations": "Retail",
        "wines": [
            "Foothills",
            "Five Forks",
            "RISE"
        ]
    },
    {
        "id": "6Zk2qHPXhohmWIH_UADvk",
        "name": "Zocalo",
        "address": {
            "street": "201 E Main St Suite E, Charlottesville, VA 22902",
            "lat": "38.0307918",
            "lon": "-78.4803003"
        },
        "locations": "Restaurant",
        "wines": [
            "Rosé"
        ]
    },
    {
        "id": "zbfNQthLpNHqaGi--DIfr",
        "name": "313 Franklin",
        "address": {
            "street": "313 Franklin Street, South Hill, VA 23970",
            "lat": "36.726272",
            "lon": "-78.1245498"
        },
        "locations": "Restaurant/Retail",
        "wines": [
            "Chardonnay",
            "Petit Manseng",
            "Shenandoah Valley Cabernet Franc"
        ]
    },
    {
        "id": "iMfLz72KOEJ_XZydRES_v",
        "name": "Balducci's - Alexandria",
        "address": {
            "street": "600 Franklin St, Alexandria, VA 22314",
            "lat": "38.7978102",
            "lon": "-77.0479011"
        },
        "locations": "Retail",
        "wines": [
            "Chardonnay",
            "Eluvium",
            "Young Wine",
            "Rosé",
            "Shenandoah Valley Cabernet Franc",
            "RISE"
        ]
    },
    {
        "id": "7Nk2QCfOm3SkugGzop0Mh",
        "name": "Copake Wine Works",
        "address": {
            "street": "69 Main St, Copake, NY 12516",
            "lat": "42.1040725",
            "lon": "-73.5494551"
        },
        "locations": "Restaurant/Retail",
        "wines": [
            "Chardonnay"
        ]
    },
    {
        "id": "ir6rs8t45wkYNPUKnLeCk",
        "name": "J Emerson",
        "address": {
            "street": "5716 Grove Ave, Richmond, VA 23226",
            "lat": "37.5733362",
            "lon": "-77.5180274"
        },
        "locations": "Retail",
        "wines": [
            "Chardonnay",
            "Rosé",
            "Pétillant Naturel White",
            "Five Forks",
            "Young Wine"
        ]
    },
    {
        "id": "T8A4GtEqn1B2I02KuNeb4",
        "name": "Olivino",
        "address": {
            "street": "905 Fulton Street, Broooklyn, NY 11238",
            "lat": "40.6837237",
            "lon": "-73.9671635"
        },
        "locations": "Retail",
        "wines": [
            "Chardonnay",
            "Rosé",
            "Foothills",
            "Shenandoah Valley Cabernet Franc"
        ]
    },
    {
        "id": "V3-Wxy6YxyXOC8F-hDfuC",
        "name": "White Moose Inn",
        "address": {
            "street": "291 Main St., Washington, VA 22747",
            "lat": "38.7123391",
            "lon": "-78.16034"
        },
        "locations": "Restaurant",
        "wines": [
            "Chardonnay",
            "Quaker Run Chardonnay",
            "Foothills"
        ]
    },
    {
        "id": "5k6ERtvgMONKsfzt_tBrc",
        "name": "Buckhead's Chop House",
        "address": {
            "street": "8510 Patterson Ave., Richmond, VA 23229",
            "lat": "37.5951667",
            "lon": "-77.5639423"
        },
        "locations": "Restaurant",
        "wines": [
            "Eluvium"
        ]
    },
    {
        "id": "zja9ADJorpYDbd7ilSBZO",
        "name": "Lafayette Inn",
        "address": {
            "street": "146 Main St, Stanardsville, VA 22973",
            "lat": "38.2973151",
            "lon": "-78.4385435"
        },
        "locations": "Restaurant",
        "wines": [
            "Eluvium",
            "Five Forks",
            "Shenandoah Valley Cabernet Franc"
        ]
    },
    {
        "id": "QDkhl2P_K1sc2Ucp_hrJT",
        "name": "Mom's Apple Pie",
        "address": {
            "street": "126 A Commerce St, Occoquan Historic Dist., VA 22125",
            "lat": "38.6822873",
            "lon": "-77.2600693"
        },
        "locations": "Retail",
        "wines": [
            "Eluvium",
            "Pétillant Naturel White",
            "Petit Manseng",
            "Pétillant Naturel Red"
        ]
    },
    {
        "id": "lK9XaikHyI7lAgl4UjLim",
        "name": "Unwined Bradlee Shopping Center",
        "address": {
            "street": "3690-J King St, Alexandria, VA 22302",
            "lat": "38.8296628",
            "lon": "-77.0921948"
        },
        "locations": "Retail",
        "wines": [
            "Eluvium",
            "Rosé"
        ]
    },
    {
        "id": "nJRCEJBbPflORW8coVxVx",
        "name": "Mom's Apple Pie Hill High",
        "address": {
            "street": "35246 Harry Byrd Hwy Ste. 100, Round Hill, VA 20141",
            "lat": "39.1277991",
            "lon": "-77.7873132"
        },
        "locations": "Retail",
        "wines": [
            "Eluvium",
            "Pétillant Naturel White",
            "Shenandoah Valley Cabernet Franc",
            "Young Wine",
            "RISE"
        ]
    },
    {
        "id": "TMHaQXyPZAl6_1zXhMgFM",
        "name": "Roosevelt",
        "address": {
            "street": "623 N. 25th St., Richmond, VA 23223",
            "lat": "37.534897",
            "lon": "-77.4154189"
        },
        "locations": "Restaurant",
        "wines": [
            "Five Forks"
        ]
    },
    {
        "id": "ZJqQ9e4fqB-fj1CWvrGwf",
        "name": "Hazel Jane's",
        "address": {
            "street": "670 Dekalb Ave, Atlanta, GA 30307",
            "lat": "33.7535491",
            "lon": "-84.3655673"
        },
        "locations": "Restaurant/Retail",
        "wines": [
            "Five Forks"
        ]
    },
    {
        "id": "Rnr8xcSaRbP_kgLq21CLy",
        "name": "Tall Boy Beverage Co.",
        "address": {
            "street": "2095 South Milledge, Athens, GA 30605",
            "lat": "33.9229175",
            "lon": "-83.377894"
        },
        "locations": "Restaurant/Retail",
        "wines": [
            "Five Forks",
            "Rosé"
        ]
    },
    {
        "id": "O7yoEzc0VLstZdYvxJwKA",
        "name": "Vino Market",
        "address": {
            "street": "3730 Winterfield Rd., Midlothian, VA 23113",
            "lat": "37.5535346",
            "lon": "-77.6685934"
        },
        "locations": "Retail",
        "wines": [
            "Five Forks",
            "Foothills",
            "Rosé",
            "Eluvium"
        ]
    },
    {
        "id": "kS9sT6zwcL9G4v8AAQnY0",
        "name": "Whole Foods - Florida Ave",
        "address": {
            "street": "FAV - BU# 10651, Washington, DC 20001",
            "lat": "38.912068",
            "lon": "-77.0190228"
        },
        "locations": "Restaurant/Retail",
        "wines": [
            "Five Forks",
            "Rosé"
        ]
    },
    {
        "id": "lpOIVkgvIzrDVJy-K92L2",
        "name": "Whole Foods - Tenley",
        "address": {
            "street": "4530 40th Street NW, Washington, DC 20016",
            "lat": "38.9490789",
            "lon": "-77.0792007"
        },
        "locations": "Restaurant/Retail",
        "wines": [
            "Five Forks",
            "Rosé"
        ]
    },
    {
        "id": "TkewqXNSP4H6LD2vWx_ib",
        "name": "Whole Foods - Virginia Beach",
        "address": {
            "street": "1800 Laskin Road, Virginia Beach, VA 23454",
            "lat": "36.8509319",
            "lon": "-76.0281576"
        },
        "locations": "Restaurant/Retail",
        "wines": [
            "Five Forks",
            "Rosé",
            "Foothills"
        ]
    },
    {
        "id": "FCiOKvmg43RssBuu_0YGB",
        "name": "Wool Factory, The",
        "address": {
            "street": "1837 Broadway Street, Charlottesville, VA 22902",
            "lat": "38.0195964",
            "lon": "-78.4553634"
        },
        "locations": "Restaurant/Retail",
        "wines": [
            "Five Forks",
            "Foothills",
            "Rosé",
            "Young Wine",
            "Pétillant Naturel White"
        ]
    },
    {
        "id": "RKQ1EXCX5xeigFvp6Xgc_",
        "name": "Each Peach Market",
        "address": {
            "street": "3068 Mt Pleasant St NW, Washington, DC 20009",
            "lat": "38.928548",
            "lon": "-77.0375272"
        },
        "locations": "Restaurant/Retail",
        "wines": [
            "Foothills"
        ]
    },
    {
        "id": "d5n4Tb8hhJjkJ3rE8DBoY",
        "name": "Fat Canary",
        "address": {
            "street": "The Cheese Shop of VA, Inc., Williamsburg, VA 23185",
            "lat": "37.2706994",
            "lon": "-76.7061859"
        },
        "locations": "Restaurant",
        "wines": [
            "Foothills",
            "Rosé",
            "Five Forks",
            "Shenandoah Valley Cabernet Franc",
            "Eluvium"
        ]
    },
    {
        "id": "PEypVy5cbIEN_daUkkgbS",
        "name": "Roanoke Natural Foods Co-op",
        "address": {
            "street": "1319 Grandin Rd SW, Roanoke, VA 24015",
            "lat": "37.2652232",
            "lon": "-79.9776246"
        },
        "locations": "Retail",
        "wines": [
            "Foothills",
            "Rosé",
            "Young Wine"
        ]
    },
    {
        "id": "Luq2x4_uPOxtACGehXMJW",
        "name": "Shields Market",
        "address": {
            "street": "206 North Shields Avenue, Richmond, VA 23220",
            "lat": "37.5530887",
            "lon": "-77.4668696"
        },
        "locations": "Restaurant/Retail",
        "wines": [
            "Foothills"
        ]
    },
    {
        "id": "i4XOa9cn0oSc2iocB1s6h",
        "name": "Thornton River Grille",
        "address": {
            "street": "Thornton River Grille, Sperryville, VA 22740",
            "lat": "38.6573169",
            "lon": "-78.2267817"
        },
        "locations": "Restaurant",
        "wines": [
            "Foothills",
            "Rosé",
            "Young Wine",
            "Eluvium"
        ]
    },
    {
        "id": "ge6U0ij7IJGMs_PNz3QHw",
        "name": "Vintage Cellar",
        "address": {
            "street": "1338 South Main St., Blacksburg, VA 24060",
            "lat": "37.215963",
            "lon": "-80.402101"
        },
        "locations": "Retail",
        "wines": [
            "Foothills"
        ]
    },
    {
        "id": "QBosARsCf1n-1nUHfgatv",
        "name": "Alewife",
        "address": {
            "street": "3120 E Marshall St., Richmond, VA 23223",
            "lat": "37.5288799",
            "lon": "-77.4116006"
        },
        "locations": "Restaurant",
        "wines": [
            "Pétillant Naturel White",
            "Pétillant Naturel Red"
        ]
    },
    {
        "id": "bmOv6AUEOzEBTm5fIgYGs",
        "name": "Whole Foods - Springfield",
        "address": {
            "street": "8402 Old Keene Mill Road, Springfield, VA 22152",
            "lat": "38.7796348",
            "lon": "-77.2343247"
        },
        "locations": "Restaurant/Retail",
        "wines": [
            "Foothills",
            "Rosé"
        ]
    },
    {
        "id": "A3Q7L1aIRHhTYLTysKWZz",
        "name": "Irving Bottle",
        "address": {
            "street": "155 Irving Ave, Brooklyn, NY 11237",
            "lat": "40.7026833",
            "lon": "-73.9205791"
        },
        "locations": "Retail",
        "wines": [
            "Pétillant Naturel White",
            "Young Wine"
        ]
    },
    {
        "id": "X3jwPomNPBIOsRe-ZZzum",
        "name": "La Fromagerie",
        "address": {
            "street": "1222 King St, Alexandria, VA 22314",
            "lat": "38.805648",
            "lon": "-77.053429"
        },
        "locations": "Restaurant/Retail",
        "wines": [
            "Pétillant Naturel White",
            "Eluvium",
            "Young Wine"
        ]
    },
    {
        "id": "OcIImOdcR7hkR9549fq8C",
        "name": "Little Red Fox",
        "address": {
            "street": "5035 Connecticut Ave. NW, Washington, DC 20008",
            "lat": "38.9558822",
            "lon": "-77.0699601"
        },
        "locations": "Restaurant/Retail",
        "wines": [
            "Pétillant Naturel White",
            "Five Forks"
        ]
    },
    {
        "id": "Wn-tA5Me80E3YVQYunT1T",
        "name": "Mom's Apple Pie Hill High",
        "address": {
            "street": "35246 Harry Byrd Hwy Ste. 100, Round Hill, VA 20141",
            "lat": "39.1277991",
            "lon": "-77.7873132"
        },
        "locations": "Retail",
        "wines": [
            "Petit Manseng",
            "Shenandoah Valley Cabernet Franc",
            "Young Wine"
        ]
    },
    {
        "id": "CBE_Sag3hFx2XBerhjYoJ",
        "name": "Slope Cellars",
        "address": {
            "street": "436 7th Ave, Brooklyn, NY 11215",
            "lat": "40.6635697",
            "lon": "-73.9846443"
        },
        "locations": "Restaurant/Retail",
        "wines": [
            "Quaker Run Chardonnay",
            "Young Wine"
        ]
    },
    {
        "id": "CsZlPHtnpNVPqWkpczxy8",
        "name": "All Purpose Pizzeria - Waterfront",
        "address": {
            "street": "79 Potomac Ave SE, Washington, DC 20003",
            "lat": "38.871234",
            "lon": "-77.0072947"
        },
        "locations": "Restaurant",
        "wines": [
            "Rosé"
        ]
    },
    {
        "id": "Qrhtze_FoP8_tSn6yHRFn",
        "name": "Arrowine",
        "address": {
            "street": "4508 Lee Hwy, Arlington, VA 22207",
            "lat": "38.8983733",
            "lon": "-77.1183586"
        },
        "locations": "Retail",
        "wines": [
            "Rosé",
            "Quaker Run Chardonnay",
            "Foothills"
        ]
    },
    {
        "id": "hsp5RPf8reDw_f_L7LLKQ",
        "name": "Barcelona Wine Store",
        "address": {
            "street": "280 Elizabeth Street, Atlanta, GA 30307",
            "lat": "33.7620933",
            "lon": "-84.3583112"
        },
        "locations": "Restaurant/Retail",
        "wines": [
            "Rosé"
        ]
    },
    {
        "id": "Q9LpVw-t08eEADkavqPMq",
        "name": "Barrel Thief",
        "address": {
            "street": "5805 Patterson Ave, Richmond, VA 23226",
            "lat": "37.5794435",
            "lon": "-77.5149812"
        },
        "locations": "Restaurant/Retail",
        "wines": [
            "Rosé",
            "Pétillant Naturel White",
            "Foothills"
        ]
    },
    {
        "id": "u4xD395zCh4d0ssK_-l3E",
        "name": "Crystal City Wine Shop",
        "address": {
            "street": "220 20th St. South, Arlington, VA 22202",
            "lat": "38.85597",
            "lon": "-77.0500304"
        },
        "locations": "Retail",
        "wines": [
            "Rosé",
            "Young Wine",
            "Pétillant Naturel Red",
            "Foothills",
            "Petit Manseng"
        ]
    },
    {
        "id": "N7gTXHKwkt_OCFqNbYXnR",
        "name": "Foods of All Nations",
        "address": {
            "street": "2121 Ivy Rd, Charlottesville, VA 22903",
            "lat": "38.0432978",
            "lon": "-78.5119067"
        },
        "locations": "Retail",
        "wines": [
            "Rosé",
            "Young Wine",
            "Eluvium",
            "Five Forks",
            "Petit Manseng"
        ]
    },
    {
        "id": "tsPoCuDXlEZ0Ncq5QoIxz",
        "name": "Friendly City Food Co-op",
        "address": {
            "street": "150 E Wolfe St, Harrisonburg, VA 22802",
            "lat": "38.4516609",
            "lon": "-78.8665291"
        },
        "locations": "Retail",
        "wines": [
            "Rosé",
            "Pétillant Naturel White",
            "Young Wine",
            "Foothills",
            "Petit Manseng"
        ]
    },
    {
        "id": "MgNyv0dYeCfhvr6YOLTmy",
        "name": "Glen's Garden Market",
        "address": {
            "street": "2001 S St. NW, Washington, DC 20009",
            "lat": "38.9143274",
            "lon": "-77.0451575"
        },
        "locations": "Restaurant/Retail",
        "wines": [
            "Rosé",
            "Shenandoah Valley Cabernet Franc",
            "Pétillant Naturel White",
            "Young Wine",
            "Pétillant Naturel Red"
        ]
    },
    {
        "id": "WRTmD-Ld6xr3DTAfsfVvv",
        "name": "Glen Manor Vineyards LLC",
        "address": {
            "street": "2244 Browntown Road, Front Royal, VA 22630",
            "lat": "38.840197",
            "lon": "-78.228299"
        },
        "locations": "Restaurant",
        "wines": [
            "Rosé"
        ]
    },
    {
        "id": "E6-BHKZ7OXVUnKfo7Ogk0",
        "name": "J Emerson",
        "address": {
            "street": "5716 Grove Ave, Richmond, VA 23226",
            "lat": "37.5733362",
            "lon": "-77.5180274"
        },
        "locations": "Retail",
        "wines": [
            "Rosé",
            "Foothills",
            "Five Forks"
        ]
    },
    {
        "id": "mOVzQNgy1HHk9xkSplvhS",
        "name": "Kinship",
        "address": {
            "street": "1015 7th St NW, Washington, DC 20001",
            "lat": "38.9035135",
            "lon": "-77.0216296"
        },
        "locations": "Restaurant",
        "wines": [
            "Rosé"
        ]
    },
    {
        "id": "J--NeJVOnBkl0KX9S6_vX",
        "name": "Market Street Wine Shop",
        "address": {
            "street": "311 East Market St, Charlottesville, VA 22902",
            "lat": "38.0310663",
            "lon": "-78.4789692"
        },
        "locations": "Retail",
        "wines": [
            "Rosé",
            "Pétillant Naturel Red",
            "RISE"
        ]
    },
    {
        "id": "Fcn4ez2PnwoMF2Bp7XDF1",
        "name": "Montgomery Co. Dept. of Liquor Control",
        "address": {
            "street": "Division of Financial, Gaithersburg, MD 20878",
            "lat": "39.139876",
            "lon": "-77.1926495"
        },
        "locations": "Restaurant/Retail",
        "wines": [
            "Rosé"
        ]
    },
    {
        "id": "bELBxua5I79fn6a8Kp90M",
        "name": "My Friends Bottle Shop",
        "address": {
            "street": "275 Memorial Drive SE, Atlanta, GA 30312",
            "lat": "33.7464701",
            "lon": "-84.3784358"
        },
        "locations": "Restaurant/Retail",
        "wines": [
            "Rosé"
        ]
    },
    {
        "id": "fT-S0AO_KDvmnPhJ-70UF",
        "name": "Red Hen-DC",
        "address": {
            "street": "1822 1st St. NW, Washington, DC 20001",
            "lat": "38.9149738",
            "lon": "-77.0124095"
        },
        "locations": "Restaurant",
        "wines": [
            "Rosé"
        ]
    },
    {
        "id": "bvX7NlOtpt6ZRiHAUan1Y",
        "name": "Sorso Wine Boutique",
        "address": {
            "street": "1069 Bedford Ave, Brooklyn, NY 11216",
            "lat": "40.6874318",
            "lon": "-73.954402"
        },
        "locations": "Retail",
        "wines": [
            "Rosé",
            "RISE"
        ]
    },
    {
        "id": "aDf57v638S-WlK4-n_Mcg",
        "name": "Planet Wine",
        "address": {
            "street": "2000-2004 Mount Vernon Ave, Alexandria, VA 22301",
            "lat": "38.8239816",
            "lon": "-77.0585376"
        },
        "locations": "Retail",
        "wines": [
            "Rosé"
        ]
    },
    {
        "id": "M6a4SSreRna-eyW1SDj2q",
        "name": "Unwined Bradlee Shopping Center",
        "address": {
            "street": "3690-J King St, Alexandria, VA 22302",
            "lat": "38.8296628",
            "lon": "-77.0921948"
        },
        "locations": "Retail",
        "wines": [
            "Rosé"
        ]
    },
    {
        "id": "w2i8o45YLmVFQ3R_BnE_v",
        "name": "Unwined Belle View",
        "address": {
            "street": "1600 Belle View Blvd., Alexandria, VA 22307",
            "lat": "38.7761672",
            "lon": "-77.0597746"
        },
        "locations": "Retail",
        "wines": [
            "Rosé",
            "Shenandoah Valley Cabernet Franc"
        ]
    },
    {
        "id": "kpRXyDGMlzt7jb5CufFCH",
        "name": "Whole Foods - Charlottesville",
        "address": {
            "street": "1797 Hydraulic Road, Charlottesville, VA 22901",
            "lat": "38.059773",
            "lon": "-78.4891351"
        },
        "locations": "Restaurant/Retail",
        "wines": [
            "Rosé",
            "Foothills"
        ]
    },
    {
        "id": "lOa4qhzQjRCoE1RsmAbrs",
        "name": "Vyne Yard",
        "address": {
            "street": "594 Rogers Ave, Brooklyn, NY 11225",
            "lat": "40.6571942",
            "lon": "-73.9534567"
        },
        "locations": "Retail",
        "wines": [
            "Rosé"
        ]
    },
    {
        "id": "1CqRU3XShHjw3kyW9O1AC",
        "name": "Whole Foods - Old Town",
        "address": {
            "street": "1700 Duke Street, Alexandria, VA 22314",
            "lat": "38.8041416",
            "lon": "-77.0600615"
        },
        "locations": "Restaurant/Retail",
        "wines": [
            "Rosé",
            "Foothills"
        ]
    },
    {
        "id": "URb-ant4KXKmkNwc35SDl",
        "name": "Whole Foods - Florida Ave",
        "address": {
            "street": "FAV - BU# 10651, Washington, DC 20001",
            "lat": "38.912068",
            "lon": "-77.0190228"
        },
        "locations": "Restaurant/Retail",
        "wines": [
            "Rosé",
            "Five Forks"
        ]
    },
    {
        "id": "_Shuu1fn08PfrOQz7jgc4",
        "name": "Whole Foods - South Capitol Hill",
        "address": {
            "street": "101 H St. SE, Washington, DC 20003",
            "lat": "38.8802819",
            "lon": "-77.005121"
        },
        "locations": "Restaurant/Retail",
        "wines": [
            "Rosé"
        ]
    },
    {
        "id": "qD6ZTLY9gE9buR21mWGVe",
        "name": "Primland Resort",
        "address": {
            "street": "2000 Busted Rock Road, Meadows of Dan, VA 24120",
            "lat": "36.6617827",
            "lon": "-80.4318697"
        },
        "locations": "Restaurant",
        "wines": [
            "Shenandoah Valley Cabernet Franc"
        ]
    },
    {
        "id": "Jcyyzj8VwjYMTrkSJvqOC",
        "name": "Green Room, The",
        "address": {
            "street": "130 W Beverly St, Staunton, VA 24401",
            "lat": "38.15216",
            "lon": "-79.1136552"
        },
        "locations": "Restaurant",
        "wines": [
            "Young Wine"
        ]
    },
    {
        "id": "13RK4vjy5S2yG8E6SlGPY",
        "name": "Rosemont of Virginia (Farm Winery)",
        "address": {
            "street": "1050 Blackridge Rd., La Crosse, VA 23950",
            "lat": "36.5883045",
            "lon": "-78.0661485"
        },
        "locations": "Restaurant",
        "wines": [
            "Young Wine"
        ]
    },
    {
        "id": "sn_pYg8CujYsZ6_2YWPjU",
        "name": "Oyster Oyster",
        "address": {
            "street": "1440 8th Street NW, Washington, DC 20001",
            "lat": "38.9092538",
            "lon": "-77.0231184"
        },
        "locations": "Restaurant",
        "wines": [
            "Young Wine"
        ]
    },
    {
        "id": "A3rgEqHfUutIdnXS3J_hy",
        "name": "Shack, The",
        "address": {
            "street": "105 S. Coalter St., Staunton, VA 24401",
            "lat": "38.148151",
            "lon": "-79.0681357"
        },
        "locations": "Restaurant",
        "wines": [
            "Young Wine",
            "Shenandoah Valley Cabernet Franc"
        ]
    },
    {
        "id": "nHvWwDub83FmiY3anDLKN",
        "name": "Vanderbilt Wine Merchants",
        "address": {
            "street": "573 Vanderbilt Ave, Broooklyn, NY 11238",
            "lat": "40.6805749",
            "lon": "-73.9674951"
        },
        "locations": "Restaurant/Retail",
        "wines": [
            "Young Wine",
            "Eluvium"
        ]
    },
    {
        "id": "bl27UXEsp2k4AtBmyvdyO",
        "name": "Wine Guild",
        "address": {
            "street": "221 Carlton Rd, Suite 1, Charlottesville, VA 22902",
            "lat": "38.0236619",
            "lon": "-78.4696887"
        },
        "locations": "Retail",
        "wines": [
            "Young Wine"
        ]
    },
    {
        "id": "RF-pvjVPoCMM_1le-sPC1",
        "name": "Wine Warehouse",
        "address": {
            "street": "1804 Hydraulic Rd, Charlottesville, VA 22902",
            "lat": "38.0607943",
            "lon": "-78.4914214"
        },
        "locations": "Retail",
        "wines": [
            "Young Wine",
            "Foothills",
            "Shenandoah Valley Cabernet Franc",
            "RISE"
        ]
    },
    {
        "id": "_f7o9M4smGKfvZrnc0XMx",
        "name": "Wool Factory, The",
        "address": {
            "street": "1837 Broadway Street, Charlottesville, VA 22902",
            "lat": "38.0195964",
            "lon": "-78.4553634"
        },
        "locations": "Restaurant/Retail",
        "wines": [
            "Young Wine",
            "Pétillant Naturel White",
            "Foothills"
        ]
    },
    {
        "id": "N_MNpbJ1ZiNuSmmlsGknL",
        "name": "2941 Restaurant",
        "address": {
            "street": "2941 Fairview Park Dr, Falls Church, VA 22042",
            "lat": "38.8689164",
            "lon": "-77.2148275"
        },
        "locations": "Restaurant",
        "wines": [
            "Shenandoah Valley Cabernet Franc",
            "Foothills"
        ]
    },
    {
        "id": "si7hlLLBc123WbmvLaX3J",
        "name": "Amber Ox Kitchen & Brewery",
        "address": {
            "street": "521 Prince George St., Williamsburg, VA 23185",
            "lat": "37.272864",
            "lon": "-76.708414"
        },
        "locations": "Restaurant",
        "wines": [
            "Foothills",
            "Five Forks"
        ]
    },
    {
        "id": "mnA-ULxNpRpSLRI-V8rXS",
        "name": "Arrowine",
        "address": {
            "street": "4508 Lee Hwy, Arlington, VA 22207",
            "lat": "38.8983733",
            "lon": "-77.1183586"
        },
        "locations": "Retail",
        "wines": [
            "Shenandoah Valley Cabernet Franc"
        ]
    },
    {
        "id": "o4mAU0B2UxNd_cTfiMcci",
        "name": "Astor Wines & Spirits",
        "address": {
            "street": "399 Lafayette St, New York, NY 10003",
            "lat": "40.7279823",
            "lon": "-73.9926938"
        },
        "locations": "Retail",
        "wines": [
            "Chardonnay",
            "Shenandoah Valley Cabernet Franc"
        ]
    },
    {
        "id": "mtILn4ANkcxwCbT1-hQEt",
        "name": "Barrel Thief",
        "address": {
            "street": "5805 Patterson Ave, Richmond, VA 23226",
            "lat": "37.5794435",
            "lon": "-77.5149812"
        },
        "locations": "Restaurant/Retail",
        "wines": [
            "Rosé"
        ]
    },
    {
        "id": "cvllL05CZMybfZ-VKx6hQ",
        "name": "Caboose",
        "address": {
            "street": "108 S. Railroad Ave., Ashland, VA 23005",
            "lat": "37.758286",
            "lon": "-77.4816338"
        },
        "locations": "Restaurant/Retail",
        "wines": [
            "Rosé",
            "Foothills"
        ]
    },
    {
        "id": "pUzFGcAfWbzZ8LPtSuvt1",
        "name": "Chat's Liquor",
        "address": {
            "street": "503 8th St SE, Washington, DC 20003",
            "lat": "38.8825132",
            "lon": "-76.9952785"
        },
        "locations": "Retail",
        "wines": [
            "Young Wine"
        ]
    },
    {
        "id": "aBQKq6dBkCttXM3UU8cmF",
        "name": "Clay Restaurant",
        "address": {
            "street": "553 Manhattan Ave , Manhattan, NY 10027",
            "lat": "40.809486",
            "lon": "-73.9538229"
        },
        "locations": "Restaurant",
        "wines": [
            "Rosé"
        ]
    },
    {
        "id": "w0QU_QdFBZzAIobnPWwG3",
        "name": "Crystal City Wine Shop",
        "address": {
            "street": "220 20th St. South, Arlington, VA 22202",
            "lat": "38.85597",
            "lon": "-77.0500304"
        },
        "locations": "Retail",
        "wines": [
            "Rosé"
        ]
    },
    {
        "id": "CNeC3UB2P2TReLfiB5hOw",
        "name": "Department of Beer & Wine",
        "address": {
            "street": "2724 Richmond Hwy, Alexandria, VA 22301",
            "lat": "38.8306444",
            "lon": "-77.0511825"
        },
        "locations": "Retail",
        "wines": [
            "Rosé",
            "Young Wine"
        ]
    },
    {
        "id": "8OXuur0lOiqCaIqtAs2qH",
        "name": "Field & Main",
        "address": {
            "street": "8369 W. Main St., Marshall, VA 20115",
            "lat": "38.8647631",
            "lon": "-77.8574303"
        },
        "locations": "Restaurant/Retail",
        "wines": [
            "F & M Red",
            "Rosé",
            "Red Vine"
        ]
    },
    {
        "id": "PjRx-U71zuDQh5f2IKCQh",
        "name": "Dominion Wine and Beer",
        "address": {
            "street": "107 Rowell Ct., Falls Church, VA 22046",
            "lat": "38.8897048",
            "lon": "-77.183834"
        },
        "locations": "Restaurant/Retail",
        "wines": [
            "Rosé",
            "Foothills"
        ]
    },
    {
        "id": "tGwSduvL61GvVzovtxQIa",
        "name": "Founding Farmers - Reston",
        "address": {
            "street": "1904 Reston Metro Plaza, Suite 100, Reston, VA 20190",
            "lat": "38.9488917",
            "lon": "-77.3383807"
        },
        "locations": "Restaurant",
        "wines": [
            "Rosé"
        ]
    },
    {
        "id": "IRyou49gspfO-hh79I4q6",
        "name": "Foods of All Nations",
        "address": {
            "street": "2121 Ivy Rd, Charlottesville, VA 22903",
            "lat": "38.0432978",
            "lon": "-78.5119067"
        },
        "locations": "Retail",
        "wines": [
            "Shenandoah Valley Cabernet Franc",
            "Rosé",
            "Eluvium"
        ]
    },
    {
        "id": "Wq2ypQwxa_49VngEDi1-1",
        "name": "Founding Farmers - Tyson's Corner",
        "address": {
            "street": "1800 Tyson's Blvd., McLean, VA 22102",
            "lat": "38.9223637",
            "lon": "-77.2224625"
        },
        "locations": "Restaurant",
        "wines": [
            "Rosé"
        ]
    },
    {
        "id": "cgtRtuuBEjuP0s6AKb0vB",
        "name": "Friendly City Food Co-op",
        "address": {
            "street": "150 E Wolfe St, Harrisonburg, VA 22802",
            "lat": "38.4516609",
            "lon": "-78.8665291"
        },
        "locations": "Retail",
        "wines": [
            "Rosé",
            "Pétillant Naturel White",
            "Foothills"
        ]
    },
    {
        "id": "hZw1vTDhj_f6bR91J0Bxs",
        "name": "Glen's Garden Market",
        "address": {
            "street": "2001 S St. NW, Washington, DC 20009",
            "lat": "38.9143274",
            "lon": "-77.0451575"
        },
        "locations": "Restaurant/Retail",
        "wines": [
            "Rosé",
            "Young Wine"
        ]
    },
    {
        "id": "n6k5IWOhUxTUcwedp62vf",
        "name": "Henry's",
        "address": {
            "street": "69 Central Ave., Brooklyn, NY 11206",
            "lat": "40.701166",
            "lon": "-73.9302185"
        },
        "locations": "Retail",
        "wines": [
            "Young Wine"
        ]
    },
    {
        "id": "yR9mUeC2NW5am3B_X78fX",
        "name": "Irving Bottle",
        "address": {
            "street": "157 Irving Ave, Brooklyn, NY 10013",
            "lat": "40.7027192",
            "lon": "-73.920458"
        },
        "locations": "Retail",
        "wines": [
            "Young Wine"
        ]
    },
    {
        "id": "sQMZyXFE1m4JUMiRX6xEa",
        "name": "La Fromagerie",
        "address": {
            "street": "1222 King St, Alexandria, VA 22314",
            "lat": "38.805648",
            "lon": "-77.053429"
        },
        "locations": "Restaurant/Retail",
        "wines": [
            "Young Wine"
        ]
    },
    {
        "id": "v6w2s-25gNdyy-r5t2SW9",
        "name": "Lafayette Inn",
        "address": {
            "street": "146 Main St, Stanardsville, VA 22973",
            "lat": "38.2973151",
            "lon": "-78.4385435"
        },
        "locations": "Restaurant",
        "wines": [
            "Five Forks"
        ]
    },
    {
        "id": "aWRn9r3UkWHfWukVV0_Sb",
        "name": "Newtown Baking",
        "address": {
            "street": "960 W Beverlely Street, Staunton, VA 24400",
            "lat": "38.1498989",
            "lon": "-79.0827541"
        },
        "locations": "Retail",
        "wines": [
            "Five Forks",
            "Foothills"
        ]
    },
    {
        "id": "fUpkqlkCuosxIFXu9N2sx",
        "name": "Locke Store",
        "address": {
            "street": "2049 Millwood Rd., Millwood, VA 22646",
            "lat": "39.0695734",
            "lon": "-78.0379555"
        },
        "locations": "Retail",
        "wines": [
            "Rosé",
            "Quaker Run Chardonnay",
            "Petit Manseng"
        ]
    },
    {
        "id": "MtfK-eglsfgSZTE--148u",
        "name": "Norm's Beer & Wine",
        "address": {
            "street": "136 Branch Rd SE, Vienna, VA 22180",
            "lat": "38.9062317",
            "lon": "-77.257151"
        },
        "locations": "Retail",
        "wines": [
            "Five Forks",
            "Shenandoah Valley Cabernet Franc",
            "Foothills"
        ]
    },
    {
        "id": "0tt6FEuX06jPtS0PxUSPR",
        "name": "Organic Butcher of McLean",
        "address": {
            "street": "6712 Old Dominion Drive, McLean, VA 22101",
            "lat": "38.9335412",
            "lon": "-77.1758584"
        },
        "locations": "Retail",
        "wines": [
            "Rosé",
            "Young Wine",
            "Foothills"
        ]
    },
    {
        "id": "PY03AMBpSHjsrc9GOJyFW",
        "name": "Pendulum Fine Meats",
        "address": {
            "street": "820 Shirley Avenue, Norfolk, VA 23517",
            "lat": "36.8683635",
            "lon": "-76.2987524"
        },
        "locations": "Retail",
        "wines": [
            "Young Wine",
            "Foothills"
        ]
    },
    {
        "id": "AL3CI73BAkFZ9IaJpiwA6",
        "name": "Rio Hill Wine & Beer",
        "address": {
            "street": "1908 Rio Hill Center, Charlottesville, VA 22901",
            "lat": "38.0877905",
            "lon": "-78.4749043"
        },
        "locations": "Retail",
        "wines": [
            "Rosé",
            "Shenandoah Valley Cabernet Franc",
            "Foothills"
        ]
    },
    {
        "id": "isnRlbGW0JGzsrj37jfFE",
        "name": "Prosperity Kitchen & Pantry",
        "address": {
            "street": "532 Virginia Beach Blvd Ste B, Virginia Beach, VA 23451",
            "lat": "36.8444829",
            "lon": "-75.9806406"
        },
        "locations": "Restaurant",
        "wines": [
            "Foothills"
        ]
    },
    {
        "id": "w_D0aLh0qOAlnfDJdbA9H",
        "name": "River and Rail",
        "address": {
            "street": "2201 Crystal Spring Ave. SW, Roanoke, VA 24014",
            "lat": "37.2487077",
            "lon": "-79.9468159"
        },
        "locations": "Restaurant",
        "wines": [
            "Foothills"
        ]
    },
    {
        "id": "11vUWfIh9QMv4XDz9NP5E",
        "name": "Taste - Headquarters",
        "address": {
            "street": "1391 Air Rail Avenue, Virginia Beach, VA 23455",
            "lat": "36.8929573",
            "lon": "-76.1918905"
        },
        "locations": "Restaurant/Retail",
        "wines": [
            "Foothills",
            "Rosé",
            "Eluvium"
        ]
    },
    {
        "id": "5QucLVKcyrg_XFjQ79Nt_",
        "name": "Swirl & Sip",
        "address": {
            "street": "2905 District Ave. Ste. 112, Fairfax, VA 22031",
            "lat": "38.8733231",
            "lon": "-77.229401"
        },
        "locations": "Retail",
        "wines": [
            "Rosé"
        ]
    },
    {
        "id": "o0YzPc9jzggd7Y30bVxUn",
        "name": "Thornton River Grille",
        "address": {
            "street": "Thornton River Grille, Sperryville, VA 22740",
            "lat": "38.6573169",
            "lon": "-78.2267817"
        },
        "locations": "Restaurant",
        "wines": [
            "Rosé"
        ]
    },
    {
        "id": "EFODTAsFVoJK8kaVp8Qjq",
        "name": "Virginia Cheese Company",
        "address": {
            "street": "501 Botetourt Street, Norfolk, VA 23510",
            "lat": "36.8528816",
            "lon": "-76.2961736"
        },
        "locations": "Retail",
        "wines": [
            "Petit Manseng",
            "Rosé",
            "Five Forks"
        ]
    },
    {
        "id": "h6S2k_2KIuTFKEd4Pzpwt",
        "name": "Westside Produce & Provisions",
        "address": {
            "street": "5015 Colley Ave., Norfolk, VA 23508",
            "lat": "36.8890972",
            "lon": "-76.2954949"
        },
        "locations": "Retail",
        "wines": [
            "Rosé",
            "Young Wine",
            "Five Forks",
            "Shenandoah Valley Cabernet Franc",
            "Foothills"
        ]
    },
    {
        "id": "qgtkNQv_oLg9hMtij5xwG",
        "name": "Unwined Belle View",
        "address": {
            "street": "1600 Belle View Blvd., Alexandria, VA 22307",
            "lat": "38.7761672",
            "lon": "-77.0597746"
        },
        "locations": "Retail",
        "wines": [
            "Shenandoah Valley Cabernet Franc"
        ]
    },
    {
        "id": "JKHD6WLTO67CY236ky7sR",
        "name": "Whole Foods - Boro Tysons",
        "address": {
            "street": "1635 Boro Place, McLean, VA 22102",
            "lat": "38.9246164",
            "lon": "-77.2334974"
        },
        "locations": "Restaurant/Retail",
        "wines": [
            "Five Forks",
            "Rosé"
        ]
    },
    {
        "id": "HwzGrdUJZJ8YVaxz_pdfS",
        "name": "Whole Foods - Arlington",
        "address": {
            "street": "2700 Wilson Blvd., Arlington, VA 22201",
            "lat": "38.8892254",
            "lon": "-77.0912401"
        },
        "locations": "Restaurant/Retail",
        "wines": [
            "Rosé"
        ]
    },
    {
        "id": "q23R7aZAIKkWtvlr8-Ts3",
        "name": "Whole Foods - Old Town",
        "address": {
            "street": "1700 Duke Street, Alexandria, VA 22314",
            "lat": "38.8041416",
            "lon": "-77.0600615"
        },
        "locations": "Restaurant/Retail",
        "wines": [
            "Rosé",
            "Foothills"
        ]
    },
    {
        "id": "MHA3EyCuTglT6StMbhZg2",
        "name": "Whole Foods - Short Pump",
        "address": {
            "street": "11173 West Broad St., Richmond, VA 23060",
            "lat": "37.6475665",
            "lon": "-77.5997292"
        },
        "locations": "Restaurant/Retail",
        "wines": [
            "Rosé"
        ]
    },
    {
        "id": "xMui_0k8b-Ifjnb4CXcW6",
        "name": "Whole Foods - Tysons",
        "address": {
            "street": "7511 Leesburg Pike, Falls Church, VA 22043",
            "lat": "38.903442",
            "lon": "-77.2044823"
        },
        "locations": "Restaurant/Retail",
        "wines": [
            "Foothills"
        ]
    },
    {
        "id": "pWVHaOK9JKd5ICXJkfOCE",
        "name": "Whole Foods - West Broad",
        "address": {
            "street": "2024 W Broad Street, Richmond, VA 23220",
            "lat": "37.5581958",
            "lon": "-77.4612166"
        },
        "locations": "Restaurant/Retail",
        "wines": [
            "Rosé"
        ]
    },
    {
        "id": "RBQw5deN7uSdw3awDyW74",
        "name": "Wine Warehouse",
        "address": {
            "street": "1804 Hydraulic Rd, Charlottesville, VA 22902",
            "lat": "38.0607943",
            "lon": "-78.4914214"
        },
        "locations": "Retail",
        "wines": [
            "Chardonnay",
            "Shenandoah Valley Cabernet Franc",
            "Young Wine"
        ]
    },
    {
        "id": "SjRPa9BUb_entg-KfdVO6",
        "name": "Wool Factory, The",
        "address": {
            "street": "1837 Broadway Street, Charlottesville, VA 22902",
            "lat": "38.0195964",
            "lon": "-78.4553634"
        },
        "locations": "Restaurant/Retail",
        "wines": [
            "Young Wine"
        ]
    },
    {
        "id": "7DbE6Ii3x_9nxqDta0hmn",
        "name": "Zynodoa",
        "address": {
            "street": "115 E Beverly St, Staunton, VA 24401",
            "lat": "38.149814",
            "lon": "-79.0709713"
        },
        "locations": "Restaurant",
        "wines": [
            "Petit Manseng",
            "Eluvium"
        ]
    },
    {
        "id": "F52Cwuy3i8wadNhukj9nv",
        "name": "313 Franklin",
        "address": {
            "street": "313 Franklin Street, South Hill, VA 23970",
            "lat": "36.726272",
            "lon": "-78.1245498"
        },
        "locations": "Restaurant/Retail",
        "wines": [
            "Foothills"
        ]
    },
    {
        "id": "YFaIdefGrNjPyUZTwYkuy",
        "name": "Alley Light",
        "address": {
            "street": "108 2nd St. SW, Charlottesville, VA 22902",
            "lat": "38.0305995",
            "lon": "-78.482276"
        },
        "locations": "Restaurant",
        "wines": [
            "Shenandoah Valley Cabernet Franc"
        ]
    },
    {
        "id": "UIlCLVWPWOymuD9ZFedBJ",
        "name": "Bottleworks",
        "address": {
            "street": "3078 Stony Point Rd., Richmond, VA 23235",
            "lat": "37.537796",
            "lon": "-77.5651916"
        },
        "locations": "Retail",
        "wines": [
            "Chardonnay",
            "Foothills"
        ]
    },
    {
        "id": "Fg1YYoK2E5p9rI9rfYBpn",
        "name": "Amber Ox Kitchen & Brewery",
        "address": {
            "street": "521 Prince George St., Williamsburg, VA 23185",
            "lat": "37.272864",
            "lon": "-76.708414"
        },
        "locations": "Restaurant",
        "wines": [
            "Foothills"
        ]
    },
    {
        "id": "zDZ8MvFkUdqJOWddSVvZp",
        "name": "Calvert Woodley",
        "address": {
            "street": "4339 Connecticut Ave NW, Washington, DC 20008",
            "lat": "38.945234",
            "lon": "-77.063612"
        },
        "locations": "Retail",
        "wines": [
            "Chardonnay",
            "Eluvium"
        ]
    },
    {
        "id": "D5HbgPcxsEFDaR9y6xIF4",
        "name": "Broad Branch Market",
        "address": {
            "street": "5608 Broad Branch Rd NW, Washington, DC 20015",
            "lat": "38.9655874",
            "lon": "-77.0687234"
        },
        "locations": "Retail",
        "wines": [
            "Chardonnay"
        ]
    },
    {
        "id": "WEbQCmcGzsCZugTxg4iYM",
        "name": "Commune - Norfolk",
        "address": {
            "street": "759 Granby St., Norfolk, VA 23510",
            "lat": "36.8562717",
            "lon": "-76.2885787"
        },
        "locations": "Restaurant",
        "wines": [
            "Chardonnay",
            "Foothills",
            "Petit Manseng"
        ]
    },
    {
        "id": "zXI--oef7WlvFdFCiYFd8",
        "name": "Cellar d'Or",
        "address": {
            "street": "136 E State St, Ithaca, NY 14850",
            "lat": "42.4397353",
            "lon": "-76.4977365"
        },
        "locations": "Restaurant/Retail",
        "wines": [
            "Rosé"
        ]
    },
    {
        "id": "-ZhOSLxXOuZAM4UpeDbNP",
        "name": "Crystal Palate",
        "address": {
            "street": "4500 Pretty Lake Avenue, Norfolk, VA 23518",
            "lat": "36.925493",
            "lon": "-76.1880817"
        },
        "locations": "Retail",
        "wines": [
            "Chardonnay"
        ]
    },
    {
        "id": "ciA7-N3TARaJvfmEf2myE",
        "name": "Dandelion Wine",
        "address": {
            "street": "153 Franklin Street, Brooklyn, NY 11222",
            "lat": "40.731666",
            "lon": "-73.9580947"
        },
        "locations": "Restaurant/Retail",
        "wines": [
            "Five Forks"
        ]
    },
    {
        "id": "3t_tVASi-x5s65DJ3au-f",
        "name": "Farmers & Distillers",
        "address": {
            "street": "600 Massachusetts Ave. NW, Washington, DC 20001",
            "lat": "38.9012307",
            "lon": "-77.0207401"
        },
        "locations": "Restaurant",
        "wines": [
            "Rosé"
        ]
    },
    {
        "id": "v3Nb74v3IzetPmpwNOEAQ",
        "name": "Fat Canary",
        "address": {
            "street": "The Cheese Shop of VA, Inc., Williamsburg, VA 23185",
            "lat": "37.2706994",
            "lon": "-76.7061859"
        },
        "locations": "Restaurant",
        "wines": [
            "Foothills",
            "Shenandoah Valley Cabernet Franc"
        ]
    },
    {
        "id": "m7MGKyJAtpdeJBnmWWWxU",
        "name": "Farmers Fishers Bakers",
        "address": {
            "street": "3000 K Street NW, Washington, DC 20007",
            "lat": "38.9025537",
            "lon": "-77.0601033"
        },
        "locations": "Restaurant",
        "wines": [
            "Rosé"
        ]
    },
    {
        "id": "lOGYb1YrQBEtmSXDYbQT7",
        "name": "Flight Wine Bar",
        "address": {
            "street": "777 6th Street NW, Washington, DC 20001",
            "lat": "38.89937",
            "lon": "-77.01959"
        },
        "locations": "Restaurant",
        "wines": [
            "Rosé"
        ]
    },
    {
        "id": "ntMfoEzPgXde01H2sFCgM",
        "name": "Fort Lewis Lodge",
        "address": {
            "street": "603 Old Plantation Way, Millboro, VA 24460",
            "lat": "38.114054",
            "lon": "-79.6110139"
        },
        "locations": "Retail",
        "wines": [
            "Young Wine"
        ]
    },
    {
        "id": "lVvKkCMVFG-6aeZfX9tld",
        "name": "Founding Farmers - Reston",
        "address": {
            "street": "1904 Reston Metro Plaza, Suite 100, Reston, VA 20190",
            "lat": "38.9488917",
            "lon": "-77.3383807"
        },
        "locations": "Restaurant",
        "wines": [
            "Rosé"
        ]
    },
    {
        "id": "JtyJ4nqLF1TblGX_wJe6z",
        "name": "Hot Cakes",
        "address": {
            "street": "Barracks Road Shopping Center, Charlottesville, VA 22903",
            "lat": "38.0528154",
            "lon": "-78.5012568"
        },
        "locations": "Restaurant/Retail",
        "wines": [
            "Foothills",
            "Pétillant Naturel White",
            "Young Wine"
        ]
    },
    {
        "id": "MBybKsvai4E-ZPVc2-xrV",
        "name": "Friendly City Food Co-op",
        "address": {
            "street": "150 E Wolfe St, Harrisonburg, VA 22802",
            "lat": "38.4516609",
            "lon": "-78.8665291"
        },
        "locations": "Retail",
        "wines": [
            "Rosé",
            "Petit Manseng"
        ]
    },
    {
        "id": "9j6OtU0TqooBqOqfW194N",
        "name": "Inn at Little Washington",
        "address": {
            "street": "438 Main St., Washington, VA 22747",
            "lat": "38.7141037",
            "lon": "-78.1596423"
        },
        "locations": "Restaurant",
        "wines": [
            "Pétillant Naturel Red"
        ]
    },
    {
        "id": "gNQXQz5UWP91VViHhHuuR",
        "name": "J Emerson",
        "address": {
            "street": "5716 Grove Ave, Richmond, VA 23226",
            "lat": "37.5733362",
            "lon": "-77.5180274"
        },
        "locations": "Retail",
        "wines": [
            "Young Wine"
        ]
    },
    {
        "id": "gbilME99PJDHV07N4CQGk",
        "name": "Locke Store",
        "address": {
            "street": "2049 Millwood Rd., Millwood, VA 22646",
            "lat": "39.0695734",
            "lon": "-78.0379555"
        },
        "locations": "Retail",
        "wines": [
            "Rosé"
        ]
    },
    {
        "id": "-dd8JtozFqrKjFl0Af9iJ",
        "name": "Market Street Wine Shop",
        "address": {
            "street": "311 East Market St, Charlottesville, VA 22902",
            "lat": "38.0310698",
            "lon": "-78.4789677"
        },
        "locations": "Retail",
        "wines": [
            "Pétillant Naturel Red",
            "Rosé",
            "Young Wine"
        ]
    },
    {
        "id": "0iaaEzGi4WdPuN8_8QP6a",
        "name": "Mr. Bill's Wine Cellar",
        "address": {
            "street": "2825 B Brambleton Ave., Roanoke, VA 24015",
            "lat": "37.2438511",
            "lon": "-79.9909487"
        },
        "locations": "Retail",
        "wines": [
            "Young Wine"
        ]
    },
    {
        "id": "dngMVBsKJGbKVjUTbli67",
        "name": "Mona Lisa",
        "address": {
            "street": "921 Preston Ave, Charlottesville, VA 22903",
            "lat": "38.038434",
            "lon": "-78.489901"
        },
        "locations": "Retail",
        "wines": [
            "Rosé",
            "Young Wine",
            "Five Forks"
        ]
    },
    {
        "id": "IUXyYirbQCBa_jlTjGMGf",
        "name": "Newtown Baking",
        "address": {
            "street": "960 W Beverlely Street, Staunton, VA 24400",
            "lat": "38.1498989",
            "lon": "-79.0827541"
        },
        "locations": "Retail",
        "wines": [
            "Foothills"
        ]
    },
    {
        "id": "xI7O0-EPpOSOdpNQ5Mx1h",
        "name": "Reveler's Hour",
        "address": {
            "street": "1775 Columbia Road NW, Washington, DC 20009",
            "lat": "38.9235097",
            "lon": "-77.0420765"
        },
        "locations": "Restaurant",
        "wines": [
            "Pétillant Naturel White",
            "Petit Manseng"
        ]
    },
    {
        "id": "8-oMqfoN0TMQKdXb3Lkwp",
        "name": "RichWine",
        "address": {
            "street": "2601 Maury Street, Richmond, VA 23224",
            "lat": "37.5095",
            "lon": "-77.4565725"
        },
        "locations": "Retail",
        "wines": [
            "Foothills",
            "Pétillant Naturel Red",
            "Rosé"
        ]
    },
    {
        "id": "NN_2Gp-5TKbJhXGR8qq3Y",
        "name": "Olmstead",
        "address": {
            "street": "659 Vanderbilt Avenue, Brooklyn, NY 11238",
            "lat": "40.677064",
            "lon": "-73.9687578"
        },
        "locations": "Restaurant/Retail",
        "wines": [
            "Petit Manseng"
        ]
    },
    {
        "id": "RzjiBz_b5uDFZ0l8QCCU5",
        "name": "Saison",
        "address": {
            "street": "23 W Marshall St. Suite A, Richmond, VA 23220",
            "lat": "37.546819",
            "lon": "-77.4420934"
        },
        "locations": "Restaurant",
        "wines": [
            "Pétillant Naturel Red"
        ]
    },
    {
        "id": "YFohp5cDSmfrnFotJ8Tp1",
        "name": "Rio Hill Wine & Beer",
        "address": {
            "street": "1908 Rio Hill Center, Charlottesville, VA 22901",
            "lat": "38.0877905",
            "lon": "-78.4749043"
        },
        "locations": "Retail",
        "wines": [
            "Rosé",
            "Chardonnay"
        ]
    },
    {
        "id": "ZRjoyLJJb6aNURclXtTwr",
        "name": "Southbound",
        "address": {
            "street": "3036 Stony Point Rd., Richmond, VA 23235",
            "lat": "37.537796",
            "lon": "-77.5651916"
        },
        "locations": "Restaurant",
        "wines": [
            "Chardonnay",
            "Five Forks"
        ]
    },
    {
        "id": "M1HprYvBG2dqAnirNsPs9",
        "name": "Salt Line, The",
        "address": {
            "street": "79 Potomac Ave SE, Washington, DC 20003",
            "lat": "38.871234",
            "lon": "-77.0072947"
        },
        "locations": "Restaurant",
        "wines": [
            "Petit Manseng"
        ]
    },
    {
        "id": "Z13q8WZ2fX_kJ46v3fAu2",
        "name": "St. Anselm",
        "address": {
            "street": "1250 5th St. NE, Washington, DC 20002",
            "lat": "38.9077745",
            "lon": "-76.9990918"
        },
        "locations": "Restaurant",
        "wines": [
            "Shenandoah Valley Cabernet Franc"
        ]
    },
    {
        "id": "5MOOMqXb-KEqx-MbnVhaH",
        "name": "The Roost",
        "address": {
            "street": "1401 Pennsylvania Ave SE, Washington, DC 20003",
            "lat": "38.8798036",
            "lon": "-76.9852327"
        },
        "locations": "Restaurant",
        "wines": [
            "Young Wine"
        ]
    },
    {
        "id": "Bm_6rZD96oIswJ_qvVagG",
        "name": "Tipsy",
        "address": {
            "street": "584 Myrtle Ave, Brooklyn, NY 11205",
            "lat": "40.6938285",
            "lon": "-73.9612496"
        },
        "locations": "Restaurant/Retail",
        "wines": [
            "Quaker Run Chardonnay"
        ]
    },
    {
        "id": "_VEOSoLKcFa_1mX6SFo0o",
        "name": "Toast - Norfolk",
        "address": {
            "street": "2406 Colonial Ave, Norfolk, VA 23517",
            "lat": "36.8717646",
            "lon": "-76.2903709"
        },
        "locations": "Restaurant",
        "wines": [
            "Pétillant Naturel White"
        ]
    },
    {
        "id": "jjnRq71OUepSUTiyHlNMT",
        "name": "Vino Market",
        "address": {
            "street": "3730 Winterfield Rd., Midlothian, VA 23113",
            "lat": "37.5535346",
            "lon": "-77.6685934"
        },
        "locations": "Retail",
        "wines": [
            "Five Forks",
            "Rosé",
            "Foothills"
        ]
    },
    {
        "id": "7Jg_OUCFDM57tXBPFNYZ1",
        "name": "Vanderbilt Wine Merchants",
        "address": {
            "street": "573 Vanderbilt Ave, New York, NY 11238",
            "lat": "40.6805749",
            "lon": "-73.9674951"
        },
        "locations": "Restaurant/Retail",
        "wines": [
            "Eluvium"
        ]
    },
    {
        "id": "4_Diu548VHnvz0dEZGAb7",
        "name": "Virginia Cheese Company",
        "address": {
            "street": "501 Botetourt Street, Norfolk, VA 23510",
            "lat": "36.8528816",
            "lon": "-76.2961736"
        },
        "locations": "Retail",
        "wines": [
            "Rosé",
            "Petit Manseng"
        ]
    },
    {
        "id": "kE_ct6-cJcpGKne621nnk",
        "name": "Westside Produce & Provisions",
        "address": {
            "street": "5015 Colley Ave., Norfolk, VA 23508",
            "lat": "36.8890972",
            "lon": "-76.2954949"
        },
        "locations": "Retail",
        "wines": [
            "Pétillant Naturel White",
            "Petit Manseng"
        ]
    },
    {
        "id": "aQ9_NKljwEDdj6TidWOwk",
        "name": "Whole Foods - Ashburn",
        "address": {
            "street": "19800 Belmont Chase Dr, Ashburn, VA 20147",
            "lat": "39.0684834",
            "lon": "-77.4843963"
        },
        "locations": "Restaurant/Retail",
        "wines": [
            "Foothills",
            "Rosé"
        ]
    },
    {
        "id": "e-pie6ckI9c_I-3yYOJ-k",
        "name": "White Moose Inn",
        "address": {
            "street": "291 Main St., Washington, VA 22747",
            "lat": "38.7123391",
            "lon": "-78.16034"
        },
        "locations": "Restaurant",
        "wines": [
            "Eluvium",
            "Foothills"
        ]
    },
    {
        "id": "WCdK-zOsYTelRp8iNlA1Y",
        "name": "Whole Foods - Charlottesville",
        "address": {
            "street": "1797 Hydraulic Road, Charlottesville, VA 22901",
            "lat": "38.059773",
            "lon": "-78.4891351"
        },
        "locations": "Restaurant/Retail",
        "wines": [
            "Rosé",
            "Foothills"
        ]
    },
    {
        "id": "W01AWnwBjy8AnM-xzIgFa",
        "name": "Whole Foods - Florida Ave",
        "address": {
            "street": "FAV - BU# 10651, Washington, DC 20001",
            "lat": "38.9071923",
            "lon": "-77.0368707"
        },
        "locations": "Restaurant/Retail",
        "wines": [
            "Rosé"
        ]
    },
    {
        "id": "WNonYBR9P-UQpAOAuxuJ0",
        "name": "Whole Foods - H Street",
        "address": {
            "street": "600-A H Street, NE, Washington, DC 20002",
            "lat": "38.9005142",
            "lon": "-76.9976267"
        },
        "locations": "Restaurant/Retail",
        "wines": [
            "Five Forks"
        ]
    },
    {
        "id": "-28RSU8NVL0Q79lBu_Fw2",
        "name": "Whole Foods - Springfield",
        "address": {
            "street": "8402 Old Keene Mill Road, Springfield, VA 22152",
            "lat": "38.7796348",
            "lon": "-77.2343247"
        },
        "locations": "Restaurant/Retail",
        "wines": [
            "Rosé"
        ]
    },
    {
        "id": "P2Xb-fEIsp7jIge2zLxR9",
        "name": "Whole Foods - Tenley",
        "address": {
            "street": "4530 40th Street NW, Washington, DC 20016",
            "lat": "38.9490789",
            "lon": "-77.0792007"
        },
        "locations": "Restaurant/Retail",
        "wines": [
            "Rosé"
        ]
    },
    {
        "id": "f4r_9J3QVsUOEu-jKu4VK",
        "name": "Whole Foods - Vienna",
        "address": {
            "street": "143 Maple Ave East, Vienna, VA 22180",
            "lat": "38.9022469",
            "lon": "-77.2626957"
        },
        "locations": "Restaurant/Retail",
        "wines": [
            "Rosé"
        ]
    },
    {
        "id": "sF-vIz887FT8jxTzHbYBw",
        "name": "Wine House, The",
        "address": {
            "street": "3950 University Dr Ste 212, Fairfax, VA 22030",
            "lat": "38.8471237",
            "lon": "-77.3050684"
        },
        "locations": "Retail",
        "wines": [
            "Pétillant Naturel White"
        ]
    },
    {
        "id": "bpbdDeik9q1ciRVJO_t8W",
        "name": "Wine Seller - Williamsburg",
        "address": {
            "street": "4680 Monticello Ave Suite 15, Williamsburg, VA 23188",
            "lat": "37.2719211",
            "lon": "-76.7595155"
        },
        "locations": "Retail",
        "wines": [
            "Foothills"
        ]
    },
    {
        "id": "T5u25Fox1NQgmNvX4wges",
        "name": "Zynodoa",
        "address": {
            "street": "115 E Beverly St, Staunton, VA 24401",
            "lat": "38.149814",
            "lon": "-79.0709713"
        },
        "locations": "Restaurant",
        "wines": [
            "Petit Manseng"
        ]
    },
    {
        "id": "2tVDns4_ENZgNCXyQ5FSl",
        "name": "2941 Restaurant",
        "address": {
            "street": "2941 Fairview Park Dr, Falls Church, VA 22042",
            "lat": "38.8689164",
            "lon": "-77.2148275"
        },
        "locations": "Restaurant",
        "wines": [
            "Shenandoah Valley Cabernet Franc"
        ]
    },
    {
        "id": "9PtQBk6tAlXmX9fvUTt6s",
        "name": "Artisan Wine Co & Greene Grape",
        "address": {
            "street": "765 Fulton St, Brooklyn, NY 11217",
            "lat": "40.6863309",
            "lon": "-73.9740152"
        },
        "locations": "Retail",
        "wines": [
            "Rosé"
        ]
    },
    {
        "id": "HEE2xiZ5whoRpfvIVJjXF",
        "name": "Balducci's - Alexandria",
        "address": {
            "street": "600 Franklin St, Alexandria, VA 22314",
            "lat": "38.7978102",
            "lon": "-77.0479011"
        },
        "locations": "Retail",
        "wines": [
            "Rosé",
            "RISE"
        ]
    },
    {
        "id": "a-HS_Nj8FlWVwWDmBObn5",
        "name": "Batch 13",
        "address": {
            "street": "1724 14th St. NW, Washington, DC 20009",
            "lat": "38.9134494",
            "lon": "-77.0321808"
        },
        "locations": "Retail",
        "wines": [
            "Five Forks",
            "Foothills"
        ]
    },
    {
        "id": "iO7DS9l5GGnP7nhkLAaRn",
        "name": "Bassin's MacArthur Beverages",
        "address": {
            "street": "4877 MacArthur Blvd NW, Washington, DC 20007",
            "lat": "38.9178223",
            "lon": "-77.0963311"
        },
        "locations": "Retail",
        "wines": [
            "Foothills"
        ]
    },
    {
        "id": "ER-fXBKpc935vmfsPB3Tw",
        "name": "Beau Thai - Mt. Pleasant",
        "address": {
            "street": "3162 Mt. Pleasant St. NW, Washington, DC 20010",
            "lat": "38.9302882",
            "lon": "-77.0382422"
        },
        "locations": "Restaurant",
        "wines": [
            "Foothills"
        ]
    },
    {
        "id": "Uy2_mGis32kIbuWTrGxsb",
        "name": "Bed Vyne",
        "address": {
            "street": "385 Tompkins Ave, Brooklyn, NY 11216",
            "lat": "40.6846262",
            "lon": "-73.9440354"
        },
        "locations": "Retail",
        "wines": [
            "Foothills"
        ]
    },
    {
        "id": "EdzlXbHSu7gWgs6LaS8qG",
        "name": "Brut Wine Bar (Grape + Bean)",
        "address": {
            "street": "118 S Royal St #1, Alexandria, VA 22314",
            "lat": "38.8039433",
            "lon": "-77.0435496"
        },
        "locations": "Restaurant",
        "wines": [
            "Eluvium"
        ]
    },
    {
        "id": "ewTjXFhgzl9VOUGsFh9lH",
        "name": "Clementine Cafe",
        "address": {
            "street": "153 S Main St, Harrisonburg, VA 22801",
            "lat": "38.4478062",
            "lon": "-78.8692932"
        },
        "locations": "Restaurant",
        "wines": [
            "Petit Manseng",
            "Chardonnay"
        ]
    },
    {
        "id": "_grGUhWEL1YbFDIQQfL1C",
        "name": "Clarity",
        "address": {
            "street": "442 Maple Avenue E, Vienna, VA 22180",
            "lat": "38.9093714",
            "lon": "-77.256641"
        },
        "locations": "Restaurant",
        "wines": [
            "Shenandoah Valley Cabernet Franc"
        ]
    },
    {
        "id": "7uQm4rpVxLw_ZtiDy--Gi",
        "name": "Columbia Room",
        "address": {
            "street": "1224 9th St. NW, Washington, DC 20009",
            "lat": "38.9063932",
            "lon": "-77.0243474"
        },
        "locations": "Restaurant",
        "wines": [
            "Pétillant Naturel White"
        ]
    },
    {
        "id": "rnOE0h8BwAl1Iymj6jM2-",
        "name": "Common House No 2 (RVA)",
        "address": {
            "street": "303 West Broad Street, Richmond, VA 23220",
            "lat": "37.5470582",
            "lon": "-77.4449701"
        },
        "locations": "Restaurant",
        "wines": [
            "Quaker Run Chardonnay"
        ]
    },
    {
        "id": "h4MZe5vjgjZbyuAdu8S-V",
        "name": "Ellwood Thompson",
        "address": {
            "street": "4 N Thompson St, Richmond, VA 23221",
            "lat": "37.5574421",
            "lon": "-77.4886194"
        },
        "locations": "Retail",
        "wines": [
            "Quaker Run Chardonnay",
            "Eluvium",
            "Young Wine"
        ]
    },
    {
        "id": "DUzwnMAttSw48_cLstYLW",
        "name": "Fat Canary",
        "address": {
            "street": "The Cheese Shop of VA, Inc., Williamsburg, VA 23185",
            "lat": "37.2706994",
            "lon": "-76.7061859"
        },
        "locations": "Restaurant",
        "wines": [
            "Young Wine",
            "Rosé"
        ]
    },
    {
        "id": "PbtNd0Cs58IjMci6Wb1YJ",
        "name": "Commune - Norfolk",
        "address": {
            "street": "759 Granby St., Norfolk, VA 23510",
            "lat": "36.8562717",
            "lon": "-76.2885787"
        },
        "locations": "Restaurant",
        "wines": [
            "Chardonnay"
        ]
    },
    {
        "id": "lmJPglZ090gbKReDfGQJ2",
        "name": "Flatiron Wines",
        "address": {
            "street": "929 Broadway, New York, NY 20020",
            "lat": "40.740278",
            "lon": "-73.9896832"
        },
        "locations": "Retail",
        "wines": [
            "Shenandoah Valley Cabernet Franc",
            "Petit Manseng"
        ]
    },
    {
        "id": "aW5xDNvKxZ6MT0TZwL8Mh",
        "name": "Glen's Garden Market",
        "address": {
            "street": "2001 S St. NW, Washington, DC 20009",
            "lat": "38.9143274",
            "lon": "-77.0451575"
        },
        "locations": "Restaurant/Retail",
        "wines": [
            "Rosé"
        ]
    },
    {
        "id": "c-rExt0-dAXnwFOA6w8h_",
        "name": "Jefferson Hotel",
        "address": {
            "street": "101 W Franklin St, Richmond, VA 23220",
            "lat": "37.5442364",
            "lon": "-77.4454155"
        },
        "locations": "Restaurant",
        "wines": [
            "Eluvium",
            "Foothills"
        ]
    },
    {
        "id": "QD7pJqoght9_lI6e8d5ww",
        "name": "Greenwood",
        "address": {
            "street": "6701 Rockfish Gap TPK, Crozet, VA 22932",
            "lat": "38.0413202",
            "lon": "-78.732343"
        },
        "locations": "Retail",
        "wines": [
            "Chardonnay"
        ]
    },
    {
        "id": "wRBHimF-7BpIC7dkgl9Oh",
        "name": "Mom's Apple Pie Hill High",
        "address": {
            "street": "35246 Harry Byrd Hwy Ste. 100, Round Hill, VA 20141",
            "lat": "39.1277991",
            "lon": "-77.7873132"
        },
        "locations": "Retail",
        "wines": [
            "Pétillant Naturel White"
        ]
    },
    {
        "id": "OX_aJI86DUGCYtsDWTpNp",
        "name": "Mona Lisa",
        "address": {
            "street": "921 Preston Ave, Charlottesville, VA 22903",
            "lat": "38.038434",
            "lon": "-78.489901"
        },
        "locations": "Retail",
        "wines": [
            "Petit Manseng"
        ]
    },
    {
        "id": "yUnPWpLCoEIx16blF_cfU",
        "name": "Mr. Bill's Wine Cellar",
        "address": {
            "street": "2825 B Brambleton Ave., Roanoke, VA 24015",
            "lat": "37.2438511",
            "lon": "-79.9909487"
        },
        "locations": "Retail",
        "wines": [
            "Young Wine"
        ]
    },
    {
        "id": "CbaAeX1b27mu_PoGVXOO0",
        "name": "Nota Bene",
        "address": {
            "street": "2110 E Main St., Richmond, VA 23223",
            "lat": "37.5311605",
            "lon": "-77.4243981"
        },
        "locations": "Restaurant",
        "wines": [
            "Foothills"
        ]
    },
    {
        "id": "12welYWPfQG398b6Sce8Y",
        "name": "Olmsted",
        "address": {
            "street": "659 Vanderbilt Ave, Brooklyn, NY 11238",
            "lat": "40.677064",
            "lon": "-73.9687578"
        },
        "locations": "Restaurant",
        "wines": [
            "Petit Manseng",
            "Eluvium"
        ]
    },
    {
        "id": "IfuPqzJLOXhif7dDNzNUf",
        "name": "Outpost",
        "address": {
            "street": "4813 Forest Hill Ave., Richmond, VA 23225",
            "lat": "37.5211852",
            "lon": "-77.4878087"
        },
        "locations": "Retail",
        "wines": [
            "Young Wine",
            "Shenandoah Valley Cabernet Franc"
        ]
    },
    {
        "id": "vFWnRZJZ3F31liskG67uV",
        "name": "Perch",
        "address": {
            "street": "2918 W. Broad Street, Richmond, VA 23230",
            "lat": "37.5640539",
            "lon": "-77.4719183"
        },
        "locations": "Restaurant",
        "wines": [
            "Petit Manseng"
        ]
    },
    {
        "id": "fKWTwgsI4ylSHnQVL-KIE",
        "name": "Rhett's Bar and Grill",
        "address": {
            "street": "134 Wood Ridge Terrace Ste.100, Zion Crossroads, VA 22942",
            "lat": "37.9801543",
            "lon": "-78.2131386"
        },
        "locations": "Restaurant",
        "wines": [
            "Foothills",
            "Five Forks"
        ]
    },
    {
        "id": "fnvT3SEhMSvYguNqZazJ_",
        "name": "RichWine",
        "address": {
            "street": "2601 Maury Street, Richmond, VA 23224",
            "lat": "37.5095",
            "lon": "-77.4565725"
        },
        "locations": "Retail",
        "wines": [
            "Rosé"
        ]
    },
    {
        "id": "7BHQFYvQdV7u3NpVD0Gtt",
        "name": "Primland Resort",
        "address": {
            "street": "2000 Busted Rock Road, Meadows of Dan, VA 24120",
            "lat": "36.6617827",
            "lon": "-80.4318697"
        },
        "locations": "Restaurant",
        "wines": [
            "Chardonnay"
        ]
    },
    {
        "id": "qIoEOuaSxuDGkfiHe9cBH",
        "name": "Rio Hill Wine & Beer",
        "address": {
            "street": "1908 Rio Hill Center, Charlottesville, VA 22901",
            "lat": "38.0877905",
            "lon": "-78.4749043"
        },
        "locations": "Retail",
        "wines": [
            "Rosé"
        ]
    },
    {
        "id": "hZWxPo0SYZ9_gNr6ONFZw",
        "name": "Shagbark",
        "address": {
            "street": "4901 Libbie Mill E Blvd. Ste 175, Richmond, VA 23230",
            "lat": "37.5906296",
            "lon": "-77.4937676"
        },
        "locations": "Restaurant",
        "wines": [
            "Rosé",
            "Eluvium"
        ]
    },
    {
        "id": "U2AdjtIO8160YDpBOFrwd",
        "name": "Screwtop",
        "address": {
            "street": "1025 Fillmore St. N, Arlington, VA 22201",
            "lat": "38.8859072",
            "lon": "-77.0926894"
        },