[
   {
      "id":18421,
      "name":"67 Liquor Shop",
      "address":"179 Columbus Ave New York Ny 10023",
      "user_id":18,
      "created_at":"2019-06-04T14:03:00.136Z",
      "updated_at":"2019-06-04T14:03:12.931Z",
      "lat":40.7746082,
      "lon":-73.9805925,
      "wines":[
         "Rosé"
      ],
      "packaging_type":null,
      "date_of_entry":"2019-04-01T00:00:00.000Z"
   },
   {
      "id":18422,
      "name":"A Rake'S Progress",
      "address":"A Rake'S Progress Washington Dc 20009",
      "user_id":18,
      "created_at":"2019-06-04T14:03:00.153Z",
      "updated_at":"2019-06-04T14:03:13.534Z",
      "lat":38.9228643,
      "lon":-77.0416739,
      "wines":[
         "Rosé"
      ],
      "packaging_type":null,
      "date_of_entry":"2019-04-01T00:00:00.000Z"
   },
   {
      "id":18423,
      "name":"Atomix",
      "address":"285 West Broadway #330 New York Ny 10013",
      "user_id":18,
      "created_at":"2019-06-04T14:03:00.253Z",
      "updated_at":"2019-06-04T14:03:13.556Z",
      "lat":40.7209197,
      "lon":-74.0046772,
      "wines":[
         "Petit Manseng",
         "White \"Five Forks\""
      ],
      "packaging_type":null,
      "date_of_entry":"2019-04-01T00:00:00.000Z"
   },
   {
      "id":18424,
      "name":"Barrel Thief",
      "address":"5805 Patterson Ave Richmond Va 23226",
      "user_id":18,
      "created_at":"2019-06-04T14:03:00.294Z",
      "updated_at":"2019-06-04T14:03:13.568Z",
      "lat":37.5793988,
      "lon":-77.5150151,
      "wines":[
         "Rosé",
         "Red \"Foothills\"",
         "White \"Five Forks\""
      ],
      "packaging_type":null,
      "date_of_entry":"2019-04-01T00:00:00.000Z"
   },
   {
      "id":18425,
      "name":"Bed Vyne",
      "address":"385 Tompkins Ave New York Ny 11216",
      "user_id":18,
      "created_at":"2019-06-04T14:03:00.307Z",
      "updated_at":"2019-06-04T14:03:14.273Z",
      "lat":40.6846262,
      "lon":-73.9440354,
      "wines":[
         "Rosé"
      ],
      "packaging_type":null,
      "date_of_entry":"2019-04-01T00:00:00.000Z"
   },
   {
      "id":18426,
      "name":"Branch \u0026 Vine",
      "address":"2001 1/2 W Main St. Richmond Va 23220",
      "user_id":18,
      "created_at":"2019-06-04T14:03:00.320Z",
      "updated_at":"2019-06-04T14:03:14.993Z",
      "lat":37.5491268,
      "lon":-77.4661278,
      "wines":[
         "White \"Five Forks\"",
         "Red \"Foothills\""
      ],
      "packaging_type":null,
      "date_of_entry":"2019-04-01T00:00:00.000Z"
   },
   {
      "id":18427,
      "name":"Calico",
      "address":"50 Blagden Alley Nw Washington Dc 20001",
      "user_id":18,
      "created_at":"2019-06-04T14:03:00.357Z",
      "updated_at":"2019-06-04T14:03:15.554Z",
      "lat":38.9062044,
      "lon":-77.0252084,
      "wines":[
         "Rosé"
      ],
      "packaging_type":null,
      "date_of_entry":"2019-04-01T00:00:00.000Z"
   },
   {
      "id":18428,
      "name":"Confident Rabbit, The",
      "address":"309 William Street Fredericksburg Va 22401-5831",
      "user_id":18,
      "created_at":"2019-06-04T14:03:00.448Z",
      "updated_at":"2019-06-04T14:03:16.037Z",
      "lat":38.3032959,
      "lon":-77.4611217,
      "wines":[
         "Chardonnay Quaker Run"
      ],
      "packaging_type":null,
      "date_of_entry":"2019-04-01T00:00:00.000Z"
   },
   {
      "id":18429,
      "name":"Cork \u0026 Table",
      "address":"909 Caroline St. Fredericksburg Va 22401",
      "user_id":18,
      "created_at":"2019-06-04T14:03:00.474Z",
      "updated_at":"2019-06-04T14:03:16.049Z",
      "lat":38.3030513,
      "lon":-77.4590764,
      "wines":[
         "Red \"Eluvium\""
      ],
      "packaging_type":null,
      "date_of_entry":"2019-04-01T00:00:00.000Z"
   },
   {
      "id":18430,
      "name":"Corkbuzz",
      "address":"75 9th Street New York Ny 10011",
      "user_id":18,
      "created_at":"2019-06-04T14:03:00.487Z",
      "updated_at":"2019-06-04T14:03:16.815Z",
      "lat":40.7424509,
      "lon":-74.0059581,
      "wines":[
         "Petit Manseng"
      ],
      "packaging_type":null,
      "date_of_entry":"2019-04-01T00:00:00.000Z"
   },
   {
      "id":18431,
      "name":"Country Club Of Virginia - Westhampton",
      "address":"6031 Saint Andrews Lane Richmond Va 23226",
      "user_id":18,
      "created_at":"2019-06-04T14:03:00.502Z",
      "updated_at":"2019-06-04T14:03:17.411Z",
      "lat":37.5718699,
      "lon":-77.5275407,
      "wines":[
         "White \"Five Forks\""
      ],
      "packaging_type":null,
      "date_of_entry":"2019-04-01T00:00:00.000Z"
   },
   {
      "id":18432,
      "name":"Dandelion Wine",
      "address":"153 Franklin Street Brooklyn Ny 11222",
      "user_id":18,
      "created_at":"2019-06-04T14:03:00.532Z",
      "updated_at":"2019-06-04T14:03:17.425Z",
      "lat":40.7316606,
      "lon":-73.9580934,
      "wines":[
         "Rosé"
      ],
      "packaging_type":null,
      "date_of_entry":"2019-04-01T00:00:00.000Z"
   },
   {
      "id":18433,
      "name":"Department Of Beer \u0026 Wine",
      "address":"2724 Richmond Hwy Alexandria Va 22301",
      "user_id":18,
      "created_at":"2019-06-04T14:03:00.546Z",
      "updated_at":"2019-06-04T14:03:17.958Z",
      "lat":38.830645,
      "lon":-77.051175,
      "wines":[
         "Rosé",
         "Red \"Foothills\"",
         "White \"Five Forks\""
      ],
      "packaging_type":null,
      "date_of_entry":"2019-04-01T00:00:00.000Z"
   },
   {
      "id":18434,
      "name":"Frankly Wines",
      "address":"66 West Broadway New York Ny 10007",
      "user_id":18,
      "created_at":"2019-06-04T14:03:00.835Z",
      "updated_at":"2019-06-04T14:03:18.686Z",
      "lat":40.7146846,
      "lon":-74.0101186,
      "wines":[
         "Rosé"
      ],
      "packaging_type":null,
      "date_of_entry":"2019-04-01T00:00:00.000Z"
   },
   {
      "id":18435,
      "name":"Great Bottles",
      "address":"3575 Bridge Rd, Ste 21 Suffolk Va 23435",
      "user_id":18,
      "created_at":"2019-06-04T14:03:00.886Z",
      "updated_at":"2019-06-04T14:03:19.233Z",
      "lat":36.8607564,
      "lon":-76.465665,
      "wines":[
         "White \"Five Forks\"",
         "Red \"Foothills\""
      ],
      "packaging_type":null,
      "date_of_entry":"2019-04-01T00:00:00.000Z"
   },
   {
      "id":18436,
      "name":"James Beard House",
      "address":"67 W. 12th Street New York Ny 10011",
      "user_id":18,
      "created_at":"2019-06-04T14:03:00.964Z",
      "updated_at":"2019-06-04T14:03:20.090Z",
      "lat":40.7358809,
      "lon":-73.9969904,
      "wines":[
         "Red \"Eluvium\"",
         "Petit Manseng",
         "Chardonnay"
      ],
      "packaging_type":null,
      "date_of_entry":"2019-04-01T00:00:00.000Z"
   },
   {
      "id":18437,
      "name":"Jm Stock Provisions- Charlottesville",
      "address":"709 W Main St Charlottesville Va 22902",
      "user_id":18,
      "created_at":"2019-06-04T14:03:00.992Z",
      "updated_at":"2019-06-04T14:03:20.761Z",
      "lat":38.031667,
      "lon":-78.4899786,
      "wines":[
         "Red \"Foothills\"",
         "Chardonnay"
      ],
      "packaging_type":null,
      "date_of_entry":"2019-04-01T00:00:00.000Z"
   },
   {
      "id":18438,
      "name":"Kings County Wines",
      "address":"1420 Cortelyou Rd. Brooklyn Ny 11226",
      "user_id":18,
      "created_at":"2019-06-04T14:03:01.005Z",
      "updated_at":"2019-06-04T14:03:21.353Z",
      "lat":40.6409745,
      "lon":-73.9644848,
      "wines":[
         "Petit Manseng"
      ],
      "packaging_type":null,
      "date_of_entry":"2019-04-01T00:00:00.000Z"
   },
   {
      "id":18439,
      "name":"Locke Store",
      "address":"2049 Millwood Rd. Millwood Va 22646",
      "user_id":18,
      "created_at":"2019-06-04T14:03:01.074Z",
      "updated_at":"2019-06-04T14:03:21.817Z",
      "lat":39.0695452,
      "lon":-78.0379379,
      "wines":[
         "Rosé",
         "Chardonnay Quaker Run",
         "Red \"Eluvium\"",
         "Red \"Rise\""
      ],
      "packaging_type":null,
      "date_of_entry":"2019-04-01T00:00:00.000Z"
   },
   {
      "id":18440,
      "name":"Niche Niche",
      "address":"43 Macdougal Street New York Ny 10013",
      "user_id":18,
      "created_at":"2019-06-04T14:03:01.145Z",
      "updated_at":"2019-06-04T14:03:22.388Z",
      "lat":40.7277282,
      "lon":-74.0026447,
      "wines":[
         "Shenandoah Valley Cabernet Franc"
      ],
      "packaging_type":null,
      "date_of_entry":"2019-04-01T00:00:00.000Z"
   },
   {
      "id":18441,
      "name":"Northside Social - Clarendon",
      "address":"3211 Wilson Blvd. Arlington Va 22201",
      "user_id":18,
      "created_at":"2019-06-04T14:03:01.160Z",
      "updated_at":"2019-06-04T14:03:22.969Z",
      "lat":38.8854097,
      "lon":-77.0978343,
      "wines":[
         "Rosé"
      ],
      "packaging_type":null,
      "date_of_entry":"2019-04-01T00:00:00.000Z"
   },
   {
      "id":18442,
      "name":"River And Rail",
      "address":"2201 Crystal Spring Ave. Sw Roanoke Va 24014",
      "user_id":18,
      "created_at":"2019-06-04T14:03:01.348Z",
      "updated_at":"2019-06-04T14:03:23.566Z",
      "lat":37.2487077,
      "lon":-79.9468159,
      "wines":[
         "Chardonnay"
      ],
      "packaging_type":null,
      "date_of_entry":"2019-04-01T00:00:00.000Z"
   },
   {
      "id":18443,
      "name":"Rochambeau Restaurant",
      "address":"115 S Main St Gordonsville Va 22942",
      "user_id":18,
      "created_at":"2019-06-04T14:03:01.360Z",
      "updated_at":"2019-06-04T14:03:24.071Z",
      "lat":38.1349579,
      "lon":-78.186835,
      "wines":[
         "Petit Manseng",
         "Rosé"
      ],
      "packaging_type":null,
      "date_of_entry":"2019-04-01T00:00:00.000Z"
   },
   {
      "id":18444,
      "name":"Smooch",
      "address":"264 Carlton Avenue Brooklyn Ny 11205",
      "user_id":18,
      "created_at":"2019-06-04T14:03:01.485Z",
      "updated_at":"2019-06-04T14:03:24.717Z",
      "lat":40.6898469,
      "lon":-73.9723266,
      "wines":[
         "Chardonnay"
      ],
      "packaging_type":null,
      "date_of_entry":"2019-04-01T00:00:00.000Z"
   },
   {
      "id":18445,
      "name":"Two Amys Llc",
      "address":"3715 Macomb St Nw Washington Dc 20016",
      "user_id":18,
      "created_at":"2019-06-04T14:03:01.646Z",
      "updated_at":"2019-06-04T14:03:25.293Z",
      "lat":38.9336232,
      "lon":-77.073091,
      "wines":[
         "Pinot Gris"
      ],
      "packaging_type":null,
      "date_of_entry":"2019-04-01T00:00:00.000Z"
   },
   {
      "id":18446,
      "name":"Unwined Belle View",
      "address":"1600 Belle View Blvd. Alexandria Va 22307",
      "user_id":18,
      "created_at":"2019-06-04T14:03:01.658Z",
      "updated_at":"2019-06-04T14:03:25.866Z",
      "lat":38.7761672,
      "lon":-77.0597746,
      "wines":[
         "Red \"Novum\"",
         "Rosé",
         "Red \"Eluvium\"",
         "Petit Manseng"
      ],
      "packaging_type":null,
      "date_of_entry":"2019-04-01T00:00:00.000Z"
   },
   {
      "id":17736,
      "name":"Valley Pike Farm Market",
      "address":"3494 Lee Highway Weyers Cave Va 24486",
      "user_id":18,
      "created_at":"2019-03-12T14:48:48.050Z",
      "updated_at":"2019-06-04T14:03:01.676Z",
      "lat":38.2934797,
      "lon":-78.9356704,
      "wines":[
         "Rosé",
         "Red \"Foothills\""
      ],
      "packaging_type":null,
      "date_of_entry":"2019-04-01T00:00:00.000Z"
   },
   {
      "id":18447,
      "name":"Wine Gourmet",
      "address":"3524 Electric Road Roanoke Va 24014-1109",
      "user_id":18,
      "created_at":"2019-06-04T14:03:01.771Z",
      "updated_at":"2019-06-04T14:03:25.885Z",
      "lat":37.2272391,
      "lon":-79.9984191,
      "wines":[
         "Rosé"
      ],
      "packaging_type":null,
      "date_of_entry":"2019-04-01T00:00:00.000Z"
   },
   {
      "id":18448,
      "name":"Artisan Wine Co \u0026 Green Grape",
      "address":"765 Fulton Street New York Ny 11217",
      "user_id":18,
      "created_at":"2019-06-04T14:03:01.898Z",
      "updated_at":"2019-06-04T14:03:26.717Z",
      "lat":40.6862911,
      "lon":-73.9740475,
      "wines":[
         "Malvasia Bianca Pétillant Naturel",
         "Rosé"
      ],
      "packaging_type":null,
      "date_of_entry":"2019-03-01T00:00:00.000Z"
   },
   {
      "id":18449,
      "name":"Buckhead'S Chop House",
      "address":"8510 Patterson Ave. Richmond Va 23229",
      "user_id":18,
      "created_at":"2019-06-04T14:03:01.946Z",
      "updated_at":"2019-06-04T14:03:27.385Z",
      "lat":37.5951667,
      "lon":-77.5639423,
      "wines":[
         "Red \"Foothills\""
      ],
      "packaging_type":null,
      "date_of_entry":"2019-03-01T00:00:00.000Z"
   },
   {
      "id":18450,
      "name":"Chambers Street",
      "address":"148 Chambers St. New York Ny 10007",
      "user_id":18,
      "created_at":"2019-06-04T14:03:01.960Z",
      "updated_at":"2019-06-04T14:03:27.401Z",
      "lat":40.7156492,
      "lon":-74.0098832,
      "wines":[
         "Chardonnay Quaker Run",
         "Rosé",
         "Red \"Eluvium\""
      ],
      "packaging_type":null,
      "date_of_entry":"2019-03-01T00:00:00.000Z"
   },
   {
      "id":18451,
      "name":"Eli'S Provisions",
      "address":"209 A Market Street Se Roanoke Va 24011",
      "user_id":18,
      "created_at":"2019-06-04T14:03:02.013Z",
      "updated_at":"2019-06-04T14:03:28.027Z",
      "lat":37.2714616,
      "lon":-79.9391641,
      "wines":[
         "Chardonnay",
         "Red \"Foothills\""
      ],
      "packaging_type":null,
      "date_of_entry":"2019-03-01T00:00:00.000Z"
   },
   {
      "id":17729,
      "name":"Gramercy Tavern",
      "address":"42 E. 20th St. New York Ny 10003",
      "user_id":18,
      "created_at":"2019-03-12T14:48:47.746Z",
      "updated_at":"2019-06-04T14:03:02.083Z",
      "lat":40.7384716,
      "lon":-73.9884724,
      "wines":[
         "Malvasia Bianca Pétillant Naturel"
      ],
      "packaging_type":null,
      "date_of_entry":"2019-03-01T00:00:00.000Z"
   },
   {
      "id":18452,
      "name":"Kings County Wines",
      "address":"1420 Cortelyou Rd Brooklyn Ny 11226",
      "user_id":18,
      "created_at":"2019-06-04T14:03:02.164Z",
      "updated_at":"2019-06-04T14:03:34.377Z",
      "lat":40.6409745,
      "lon":-73.9644848,
      "wines":[
         "Red \"Foothills\""
      ],
      "packaging_type":null,
      "date_of_entry":"2019-03-01T00:00:00.000Z"
   },
   {
      "id":18453,
      "name":"Leone'S",
      "address":"455 Granby Street Norfolk Va 23510-1913",
      "user_id":18,
      "created_at":"2019-06-04T14:03:02.215Z",
      "updated_at":"2019-06-04T14:03:34.862Z",
      "lat":36.8525899,
      "lon":-76.2894073,
      "wines":[
         "Chardonnay",
         "Red \"Eluvium\"",
         "Petit Manseng"
      ],
      "packaging_type":null,
      "date_of_entry":"2019-03-01T00:00:00.000Z"
   },
   {
      "id":18454,
      "name":"Max'S On Broad",
      "address":"305 Brook Rd. Richmond Va 23220-4224",
      "user_id":18,
      "created_at":"2019-06-04T14:03:02.255Z",
      "updated_at":"2019-06-04T14:03:35.387Z",
      "lat":37.5463818,
      "lon":-77.4424196,
      "wines":[
         "White \"Five Forks\""
      ],
      "packaging_type":null,
      "date_of_entry":"2019-03-01T00:00:00.000Z"
   },
   {
      "id":18455,
      "name":"Olmsted",
      "address":"659 Vanderbilt Avenue Brooklyn Ny 11238",
      "user_id":18,
      "created_at":"2019-06-04T14:03:02.313Z",
      "updated_at":"2019-06-04T14:03:36.068Z",
      "lat":40.677064,
      "lon":-73.9687578,
      "wines":[
         "Red \"Eluvium\"",
         "Petit Manseng"
      ],
      "packaging_type":null,
      "date_of_entry":"2019-03-01T00:00:00.000Z"
   },
   {
      "id":18456,
      "name":"Pendulum Fine Meats",
      "address":"820 Shirley Avenue Norfolk Va 23517",
      "user_id":18,
      "created_at":"2019-06-04T14:03:02.327Z",
      "updated_at":"2019-06-04T14:03:36.543Z",
      "lat":36.8683635,
      "lon":-76.2987524,
      "wines":[
         "White \"Five Forks\""
      ],
      "packaging_type":null,
      "date_of_entry":"2019-03-01T00:00:00.000Z"
   },
   {
      "id":18458,
      "name":"Tazza Kitchen",
      "address":"3332 Pump Rd Richmond Va 23233",
      "user_id":18,
      "created_at":"2019-06-04T14:03:02.479Z",
      "updated_at":"2019-06-04T14:03:36.567Z",
      "lat":37.6474455,
      "lon":-77.6152744,
      "wines":[
         "White \"Five Forks\""
      ],
      "packaging_type":null,
      "date_of_entry":"2019-03-01T00:00:00.000Z"
   },
   {
      "id":18459,
      "name":"The Dominion Club",
      "address":"6000 Dominion Club Drive Glen Allen Va 23059",
      "user_id":18,
      "created_at":"2019-06-04T14:03:02.513Z",
      "updated_at":"2019-06-04T14:03:37.168Z",
      "lat":37.6996687,
      "lon":-77.6083377,
      "wines":[
         "Red \"Eluvium\""
      ],
      "packaging_type":null,
      "date_of_entry":"2019-03-01T00:00:00.000Z"
   },
   {
      "id":18460,
      "name":"Vinegar Hill House",
      "address":"72 Hudson Avenue Brooklyn Ny 11201",
      "user_id":18,
      "created_at":"2019-06-04T14:03:02.547Z",
      "updated_at":"2019-06-04T14:03:37.825Z",
      "lat":40.702748,
      "lon":-73.9812812,
      "wines":[
         "Petit Manseng"
      ],
      "packaging_type":null,
      "date_of_entry":"2019-03-01T00:00:00.000Z"
   },
   {
      "id":18461,
      "name":"Vinyl Wine",
      "address":"1491 Lexington Avenue New York Ny 10029",
      "user_id":18,
      "created_at":"2019-06-04T14:03:02.586Z",
      "updated_at":"2019-06-04T14:03:38.535Z",
      "lat":40.7860461,
      "lon":-73.9506085,
      "wines":[
         "Rosé"
      ],
      "packaging_type":null,
      "date_of_entry":"2019-03-01T00:00:00.000Z"
   },
   {
      "id":18457,
      "name":"Southern Crescent Galley And Bar",
      "address":"814 Hinton Ave. Charlottesville Va 22902",
      "user_id":18,
      "created_at":"2019-06-04T14:03:02.404Z",
      "updated_at":"2019-06-04T14:03:36.555Z",
      "lat":38.0247033,
      "lon":-78.4758826,
      "wines":[
         "Petit Manseng"
      ],
      "packaging_type":null,
      "date_of_entry":"2019-03-01T00:00:00.000Z"
   },
   {
      "id":17399,
      "name":"Gypsy Kitchen",
      "address":"3035 Peachtree Rd Ne Georgia, Atlanta 30305",
      "user_id":18,
      "created_at":"2018-10-16T18:56:23.479Z",
      "updated_at":"2019-01-08T18:57:01.790Z",
      "lat":33.8373665,
      "lon":-84.3802425,
      "wines":[
         "Pétillant Naturel Rosé"
      ],
      "packaging_type":[
         "Restaurant"
      ],
      "date_of_entry":"2018-08-01T00:00:00.000Z"
   },
   {
      "id":17400,
      "name":"The Expat",
      "address":"1680 S Lumpkin St Georgia, Athens 30606",
      "user_id":18,
      "created_at":"2018-10-16T18:56:23.513Z",
      "updated_at":"2019-01-08T18:57:01.807Z",
      "lat":33.937915,
      "lon":-83.3875566,
      "wines":[
         "Pétillant Naturel Rosé"
      ],
      "packaging_type":[
         "Restaurant"
      ],
      "date_of_entry":"2018-07-01T00:00:00.000Z"
   },
   {
      "id":17401,
      "name":"The Imperial",
      "address":"724 And 726 W College Ave Georgia, Decatur 30030",
      "user_id":18,
      "created_at":"2018-10-16T18:56:23.539Z",
      "updated_at":"2018-10-16T18:58:59.064Z",
      "lat":33.7660904,
      "lon":-84.3063928,
      "wines":[
         "White \"Five Forks\""
      ],
      "packaging_type":[
         "Restaurant"
      ],
      "date_of_entry":"2018-07-01T00:00:00.000Z"
   },
   {
      "id":17402,
      "name":"Bacchanalia",
      "address":"1460 Ellsworth Ind Bc Nw Georgia, Atlanta 30318",
      "user_id":18,
      "created_at":"2018-10-16T18:56:23.643Z",
      "updated_at":"2019-01-08T18:57:01.839Z",
      "lat":33.7950158,
      "lon":-84.4272577,
      "wines":[
         "Petit Manseng"
      ],
      "packaging_type":[
         "Restaurant"
      ],
      "date_of_entry":"2018-08-01T00:00:00.000Z"
   },
   {
      "id":17403,
      "name":"Empire State South",
      "address":"999 Peachtree Street Georgia, Atlanta 30308",
      "user_id":18,
      "created_at":"2018-10-16T18:56:23.663Z",
      "updated_at":"2019-01-08T18:57:01.862Z",
      "lat":33.7810701,
      "lon":-84.3836383,
      "wines":[
         "Petit Manseng",
         "Red \"Novum\""
      ],
      "packaging_type":[
         "Restaurant"
      ],
      "date_of_entry":"2018-08-01T00:00:00.000Z"
   },
   {
      "id":17404,
      "name":"Kimball House",
      "address":"303 East Howard Ave Georgia, Decatur 30030",
      "user_id":18,
      "created_at":"2018-10-16T18:56:23.688Z",
      "updated_at":"2019-01-08T18:57:01.883Z",
      "lat":33.7716235,
      "lon":-84.2921861,
      "wines":[
         "Petit Manseng"
      ],
      "packaging_type":[
         "Restaurant"
      ],
      "date_of_entry":"2018-07-01T00:00:00.000Z"
   },
   {
      "id":17406,
      "name":"The Grey Restaurant",
      "address":"109 Martin Luther King  Jr. Georgia, Savannah 31401",
      "user_id":18,
      "created_at":"2018-10-16T18:56:23.858Z",
      "updated_at":"2019-01-08T18:57:01.942Z",
      "lat":32.0799215,
      "lon":-81.0979061,
      "wines":[
         "Pétillant Naturel Rosé"
      ],
      "packaging_type":[
         "Restaurant"
      ],
      "date_of_entry":"2018-08-01T00:00:00.000Z"
   },
   {
      "id":17407,
      "name":"Decatur Package Store",
      "address":"1220-B Clairmont Rd Georgia, Decatur 30033",
      "user_id":18,
      "created_at":"2018-10-16T18:56:23.886Z",
      "updated_at":"2019-01-08T18:57:01.968Z",
      "lat":33.7885053,
      "lon":-84.3073989,
      "wines":[
         "Pétillant Naturel Rosé",
         "Petit Manseng"
      ],
      "packaging_type":[
         "Retail"
      ],
      "date_of_entry":"2018-07-01T00:00:00.000Z"
   },
   {
      "id":17408,
      "name":"Cobb Liquor Store",
      "address":"3101 Cobb Pkwy Se Georgia, Atlanta 30339",
      "user_id":18,
      "created_at":"2018-10-16T18:56:23.918Z",
      "updated_at":"2019-01-08T18:57:02.006Z",
      "lat":33.8786476,
      "lon":-84.4566131,
      "wines":[
         "Pétillant Naturel Rosé"
      ],
      "packaging_type":[
         "Retail"
      ],
      "date_of_entry":"2018-07-01T00:00:00.000Z"
   },
   {
      "id":17410,
      "name":"1310 Kitchen \u0026 Bar",
      "address":"1310 Wisconsin Ave Nw Washington Dc 20007",
      "user_id":18,
      "created_at":"2018-10-16T18:56:23.972Z",
      "updated_at":"2019-03-12T14:48:47.516Z",
      "lat":38.9071422,
      "lon":-77.0635294,
      "wines":[
         "Rosé",
         "White \"Five Forks\"",
         "Shenandoah Valley Cabernet Franc",
         "Chardonnay"
      ],
      "packaging_type":[
         "Restaurant"
      ],
      "date_of_entry":"2019-02-01T00:00:00.000Z"
   },
   {
      "id":17411,
      "name":"A Pimento Catering",
      "address":"313 2nd St. Se, Suite 116 Charlottesville Va 22902",
      "user_id":18,
      "created_at":"2018-10-16T18:56:23.998Z",
      "updated_at":"2019-01-08T18:57:02.088Z",
      "lat":38.0287766,
      "lon":-78.4809663,
      "wines":[
         "Chardonnay",
         "White \"Five Forks\"",
         "Red \"Foothills\"",
         "Pétillant Naturel Rosé",
         "\"Young Wine\" Chambourcin",
         "Rosé"
      ],
      "packaging_type":[
         "Restaurant"
      ],
      "date_of_entry":"2018-10-01T00:00:00.000Z"
   },
   {
      "id":17413,
      "name":"Acacia - Midtown",
      "address":"2601 West Cary St. Richmond Va 23220",
      "user_id":18,
      "created_at":"2018-10-16T18:56:24.050Z",
      "updated_at":"2019-03-12T14:48:47.556Z",
      "lat":37.5505588,
      "lon":-77.4741547,
      "wines":[
         "Rosé"
      ],
      "packaging_type":[
         "Restaurant"
      ],
      "date_of_entry":"2019-02-01T00:00:00.000Z"
   },
   {
      "id":17416,
      "name":"All Purpose Pizzeria",
      "address":"1250 9th St. Nw Washington Dc 20001",
      "user_id":18,
      "created_at":"2018-10-16T18:56:24.125Z",
      "updated_at":"2019-06-04T14:03:00.182Z",
      "lat":38.9069218,
      "lon":-77.0242281,
      "wines":[
         "Rosé"
      ],
      "packaging_type":[
         "Restaurant"
      ],
      "date_of_entry":"2019-04-01T00:00:00.000Z"
   },
   {
      "id":17417,
      "name":"Alley Light",
      "address":"108 2nd St. Sw Charlottesville Va 22902",
      "user_id":18,
      "created_at":"2018-10-16T18:56:24.147Z",
      "updated_at":"2019-06-04T14:03:00.197Z",
      "lat":38.0305995,
      "lon":-78.482276,
      "wines":[
         "Shenandoah Valley Cabernet Franc"
      ],
      "packaging_type":[
         "Restaurant"
      ],
      "date_of_entry":"2019-04-01T00:00:00.000Z"
   },
   {
      "id":17418,
      "name":"Ambassador Wines \u0026 Spirits",
      "address":"1020 2nd Avenue New York Ny 10022",
      "user_id":18,
      "created_at":"2018-10-16T18:56:24.168Z",
      "updated_at":"2019-06-04T14:03:01.884Z",
      "lat":40.7571634,
      "lon":-73.9665854,
      "wines":[
         "Red \"Foothills\""
      ],
      "packaging_type":[
         "Retail"
      ],
      "date_of_entry":"2019-03-01T00:00:00.000Z"
   },
   {
      "id":17421,
      "name":"Astor Wines \u0026 Spirits",
      "address":"399 Lafayette St New York Ny 10003",
      "user_id":18,
      "created_at":"2018-10-16T18:56:24.218Z",
      "updated_at":"2019-06-04T14:03:00.240Z",
      "lat":40.7279823,
      "lon":-73.9926938,
      "wines":[
         "Chardonnay",
         "Shenandoah Valley Cabernet Franc"
      ],
      "packaging_type":[
         "Retail"
      ],
      "date_of_entry":"2019-04-01T00:00:00.000Z"
   },
   {
      "id":17422,
      "name":"Azzurro Restaurant",
      "address":"6221 River Rd. Richmond Va 23229",
      "user_id":18,
      "created_at":"2018-10-16T18:56:24.229Z",
      "updated_at":"2018-10-16T18:58:40.613Z",
      "lat":37.568795,
      "lon":-77.5373553,
      "wines":[
         "Red \"Foothills\""
      ],
      "packaging_type":[
         "Restaurant"
      ],
      "date_of_entry":"2018-06-01T00:00:00.000Z"
   },
   {
      "id":17426,
      "name":"Basic Necessities",
      "address":"2226 Rockfish Valley Hwy Nellysford Va 22958",
      "user_id":18,
      "created_at":"2018-10-16T18:56:24.314Z",
      "updated_at":"2018-10-16T18:58:38.606Z",
      "lat":37.8864885,
      "lon":-78.8838732,
      "wines":[
         "Shenandoah Valley Cabernet Franc",
         "Red \"Foothills\""
      ],
      "packaging_type":[
         "Restaurant"
      ],
      "date_of_entry":"2018-08-01T00:00:00.000Z"
   },
   {
      "id":17427,
      "name":"Bed Vyne",
      "address":"385 Thompkins Avenue Brooklyn Ny 11216",
      "user_id":18,
      "created_at":"2018-10-16T18:56:24.342Z",
      "updated_at":"2019-03-12T14:48:47.643Z",
      "lat":40.6846262,
      "lon":-73.9440354,
      "wines":[
         "Red \"Foothills\""
      ],
      "packaging_type":[
         "Restaurant"
      ],
      "date_of_entry":"2019-02-01T00:00:00.000Z"
   },
   {
      "id":17429,
      "name":"Before \u0026 After",
      "address":"31 Main St. Sperryville Va 22740",
      "user_id":18,
      "created_at":"2018-10-16T18:56:24.403Z",
      "updated_at":"2019-01-08T18:57:02.503Z",
      "lat":38.6580806,
      "lon":-78.2273922,
      "wines":[
         "Red \"Foothills\""
      ],
      "packaging_type":[
         "Retail"
      ],
      "date_of_entry":"2018-09-01T00:00:00.000Z"
   },
   {
      "id":17430,
      "name":"Belmont Butchery",
      "address":"15 N. Belmont Ave. Richmond Va 23221",
      "user_id":18,
      "created_at":"2018-10-16T18:56:24.429Z",
      "updated_at":"2018-10-16T18:58:36.566Z",
      "lat":37.5544203,
      "lon":-77.4790815,
      "wines":[
         "Rosé",
         "Shenandoah Valley Cabernet Franc"
      ],
      "packaging_type":[
         "Retail"
      ],
      "date_of_entry":"2018-07-01T00:00:00.000Z"
   },
   {
      "id":17432,
      "name":"Bottle Shop",
      "address":"2216 18th St. Nw Washington Dc 20009",
      "user_id":18,
      "created_at":"2018-10-16T18:56:24.478Z",
      "updated_at":"2019-01-08T18:57:02.567Z",
      "lat":38.9192606,
      "lon":-77.0418404,
      "wines":[
         "Rosé"
      ],
      "packaging_type":[
         "Retail"
      ],
      "date_of_entry":"2018-08-01T00:00:00.000Z"
   },
   {
      "id":17435,
      "name":"Broad Branch Market",
      "address":"5608 Broad Branch Rd Nw Washington Dc 20015",
      "user_id":18,
      "created_at":"2018-10-16T18:56:24.559Z",
      "updated_at":"2019-01-08T18:57:02.618Z",
      "lat":38.9655874,
      "lon":-77.0687234,
      "wines":[
         "\"Young Wine\" Vidal Blanc"
      ],
      "packaging_type":[
         "Retail"
      ],
      "date_of_entry":"2018-12-01T00:00:00.000Z"
   },
   {
      "id":17438,
      "name":"Brooklyn Wine Exchange",
      "address":"138 Court Street Brooklyn Ny 11201",
      "user_id":18,
      "created_at":"2018-10-16T18:56:24.649Z",
      "updated_at":"2019-01-08T18:57:02.675Z",
      "lat":40.689316,
      "lon":-73.9928051,
      "wines":[
         "Rosé",
         "White \"Five Forks\""
      ],
      "packaging_type":[
         "Retail"
      ],
      "date_of_entry":"2018-07-01T00:00:00.000Z"
   },
   {
      "id":17439,
      "name":"Byrd \u0026 Baldwin Brothers Steakhouse",
      "address":"116 Brooke Ave. Norfolk Va 23510",
      "user_id":18,
      "created_at":"2018-10-16T18:56:24.672Z",
      "updated_at":"2018-10-16T18:58:31.567Z",
      "lat":36.8489527,
      "lon":-76.2917735,
      "wines":[
         "White \"Five Forks\""
      ],
      "packaging_type":[
         "Restaurant"
      ],
      "date_of_entry":"2018-09-01T00:00:00.000Z"
   },
   {
      "id":17442,
      "name":"Calvert \u0026 Woodley",
      "address":"4339 Connecticut Ave Nw Washington Dc 20008",
      "user_id":18,
      "created_at":"2018-10-16T18:56:24.758Z",
      "updated_at":"2019-01-08T18:57:02.746Z",
      "lat":38.945234,
      "lon":-77.063612,
      "wines":[
         "Chardonnay",
         "Red \"Eluvium\"",
         "Petit Manseng"
      ],
      "packaging_type":[
         "Retail"
      ],
      "date_of_entry":"2018-12-01T00:00:00.000Z"
   },
   {
      "id":17443,
      "name":"Can Can",
      "address":"3120 West Cary St Richmond Va 23221",
      "user_id":18,
      "created_at":"2018-10-16T18:56:24.793Z",
      "updated_at":"2018-10-16T18:58:29.666Z",
      "lat":37.5535158,
      "lon":-77.4808681,
      "wines":[
         "\"Young Wine\" Vidal Blanc",
         "Red \"Foothills\""
      ],
      "packaging_type":[
         "Restaurant"
      ],
      "date_of_entry":"2018-07-01T00:00:00.000Z"
   },
   {
      "id":17447,
      "name":"Chefs Catering Co.",
      "address":"246 Stoneridge Ln. Glasgow Va 24555",
      "user_id":18,
      "created_at":"2018-10-16T18:56:24.897Z",
      "updated_at":"2018-10-16T18:58:23.132Z",
      "lat":37.7238186,
      "lon":-79.4616791,
      "wines":[
         "Rosé"
      ],
      "packaging_type":[
         "Restaurant"
      ],
      "date_of_entry":"2018-06-01T00:00:00.000Z"
   },
   {
      "id":17448,
      "name":"Citizen Burger - Richmond",
      "address":"2907 W. Cary St Richmond Va 23221",
      "user_id":18,
      "created_at":"2018-10-16T18:56:24.921Z",
      "updated_at":"2018-10-16T18:58:22.686Z",
      "lat":37.5520073,
      "lon":-77.4779836,
      "wines":[
         "Rosé"
      ],
      "packaging_type":[
         "Restaurant"
      ],
      "date_of_entry":"2018-06-01T00:00:00.000Z"
   },
   {
      "id":17449,
      "name":"Clementine Cafe",
      "address":"153 S Main St Harrisonburg Va 22801",
      "user_id":18,
      "created_at":"2018-10-16T18:56:24.950Z",
      "updated_at":"2019-06-04T14:03:00.390Z",
      "lat":38.4478062,
      "lon":-78.8692932,
      "wines":[
         "Red \"Foothills\""
      ],
      "packaging_type":[
         "Restaurant"
      ],
      "date_of_entry":"2019-04-01T00:00:00.000Z"
   },
   {
      "id":17453,
      "name":"Commonwealth Club",
      "address":"401 W. Franklin Street Richmond Va 23220",
      "user_id":18,
      "created_at":"2018-10-16T18:56:25.028Z",
      "updated_at":"2019-06-04T14:03:00.435Z",
      "lat":37.5458434,
      "lon":-77.447656,
      "wines":[
         "Rosé"
      ],
      "packaging_type":[
         "Restaurant"
      ],
      "date_of_entry":"2019-04-01T00:00:00.000Z"
   },
   {
      "id":17454,
      "name":"Commonwealth Skybar",
      "address":"422 East Main Street Charlottesville Va 22902",
      "user_id":18,
      "created_at":"2018-10-16T18:56:25.051Z",
      "updated_at":"2019-01-08T18:57:02.965Z",
      "lat":38.029663,
      "lon":-78.478692,
      "wines":[
         "Red \"Eluvium\"",
         "Rosé"
      ],
      "packaging_type":[
         "Restaurant"
      ],
      "date_of_entry":"2018-12-01T00:00:00.000Z"
   },
   {
      "id":17455,
      "name":"Compagnie Des Vins Surnaturels",
      "address":"249 Centre Street New York Ny 10013",
      "user_id":18,
      "created_at":"2018-10-16T18:56:25.085Z",
      "updated_at":"2019-01-08T18:57:02.983Z",
      "lat":40.7205188,
      "lon":-73.9981319,
      "wines":[
         "Petit Manseng"
      ],
      "packaging_type":[
         "Restaurant"
      ],
      "date_of_entry":"2018-12-01T00:00:00.000Z"
   },
   {
      "id":17456,
      "name":"Cordial",
      "address":"1309 5th St Ne Washington Dc 20002",
      "user_id":18,
      "created_at":"2018-10-16T18:56:25.114Z",
      "updated_at":"2019-06-04T14:03:00.462Z",
      "lat":38.9085998,
      "lon":-76.997517,
      "wines":[
         "Rosé",
         "White \"Five Forks\""
      ],
      "packaging_type":[
         "Retail"
      ],
      "date_of_entry":"2019-04-01T00:00:00.000Z"
   },
   {
      "id":17457,
      "name":"Crystal Palate",
      "address":"4500 Pretty Lake Avenue Norfolk Va 23518",
      "user_id":18,
      "created_at":"2018-10-16T18:56:25.141Z",
      "updated_at":"2018-10-16T18:58:18.056Z",
      "lat":36.925493,
      "lon":-76.1880817,
      "wines":[
         "Red \"Eluvium\""
      ],
      "packaging_type":[
         "Retail"
      ],
      "date_of_entry":"2018-09-01T00:00:00.000Z"
   },
   {
      "id":17458,
      "name":"Dabney",
      "address":"122 Blagden Alley Nw Washington Dc 20009",
      "user_id":18,
      "created_at":"2018-10-16T18:56:25.160Z",
      "updated_at":"2019-06-04T14:03:00.519Z",
      "lat":38.9062837,
      "lon":-77.0246047,
      "wines":[
         "Red \"Eluvium\""
      ],
      "packaging_type":[
         "Restaurant"
      ],
      "date_of_entry":"2019-04-01T00:00:00.000Z"
   },
   {
      "id":17461,
      "name":"Dbgb - Dc",
      "address":"931 H St. Nw Washington Dc 20001",
      "user_id":18,
      "created_at":"2018-10-16T18:56:25.233Z",
      "updated_at":"2019-01-08T18:57:03.084Z",
      "lat":38.8999562,
      "lon":-77.0249762,
      "wines":[
         "Rosé",
         "Red \"Foothills\""
      ],
      "packaging_type":[
         "Restaurant"
      ],
      "date_of_entry":"2018-08-01T00:00:00.000Z"
   },
   {
      "id":17463,
      "name":"De Fles Winkel",
      "address":"11355 Nuckols Rd. Glen Allen Va 23059",
      "user_id":18,
      "created_at":"2018-10-16T18:56:25.282Z",
      "updated_at":"2018-10-16T18:58:15.025Z",
      "lat":37.6812624,
      "lon":-77.5906249,
      "wines":[
         "Red \"Foothills\""
      ],
      "packaging_type":[
         "Retail"
      ],
      "date_of_entry":"2018-08-01T00:00:00.000Z"
   },
   {
      "id":17464,
      "name":"Department Of Beer \u0026 Wine",
      "address":"2724 Jefferson Davis Hwy Alexandria Va 22301",
      "user_id":18,
      "created_at":"2018-10-16T18:56:25.303Z",
      "updated_at":"2019-06-04T14:03:01.997Z",
      "lat":38.8305753,
      "lon":-77.0513327,
      "wines":[
         "Red \"Foothills\""
      ],
      "packaging_type":[
         "Retail"
      ],
      "date_of_entry":"2019-03-01T00:00:00.000Z"
   },
   {
      "id":17465,
      "name":"Design Cuisine",
      "address":"2659 S. Shirlington Road Arlington Va 22206",
      "user_id":18,
      "created_at":"2018-10-16T18:56:25.327Z",
      "updated_at":"2018-10-16T18:58:14.192Z",
      "lat":38.8443399,
      "lon":-77.0844165,
      "wines":[
         "Red \"Novum\""
      ],
      "packaging_type":[
         "Restaurant"
      ],
      "date_of_entry":"2018-09-01T00:00:00.000Z"
   },
   {
      "id":17466,
      "name":"Dixie'S Wine \u0026 Liquor",
      "address":"70 Main Street Delhi Ny 13753",
      "user_id":18,
      "created_at":"2018-10-16T18:56:25.351Z",
      "updated_at":"2018-10-16T18:58:13.734Z",
      "lat":42.2760213,
      "lon":-74.9191189,
      "wines":[
         "\"Young Wine\" Vidal Blanc"
      ],
      "packaging_type":[
         "Retail"
      ],
      "date_of_entry":"2018-07-01T00:00:00.000Z"
   },
   {
      "id":17468,
      "name":"Draftsman Marriot Hotel",
      "address":"1106 W. Main St. Charlottesville Va 22903",
      "user_id":18,
      "created_at":"2018-10-16T18:56:25.399Z",
      "updated_at":"2018-10-16T18:58:12.977Z",
      "lat":38.0326005,
      "lon":-78.4963657,
      "wines":[
         "White \"Five Forks\""
      ],
      "packaging_type":[
         "Restaurant"
      ],
      "date_of_entry":"2018-07-01T00:00:00.000Z"
   },
   {
      "id":17469,
      "name":"Duplex Diner",
      "address":"2004 18th St, Nw Washington Dc 20009",
      "user_id":18,
      "created_at":"2018-10-16T18:56:25.422Z",
      "updated_at":"2019-06-04T14:03:00.563Z",
      "lat":38.9172194,
      "lon":-77.0418854,
      "wines":[
         "Rosé",
         "White \"Five Forks\""
      ],
      "packaging_type":[
         "Restaurant"
      ],
      "date_of_entry":"2019-04-01T00:00:00.000Z"
   },
   {
      "id":17472,
      "name":"Fainting Goat",
      "address":"1330 U St. Nw Washington Dc 20009",
      "user_id":18,
      "created_at":"2018-10-16T18:56:25.499Z",
      "updated_at":"2019-06-04T14:03:00.599Z",
      "lat":38.9167882,
      "lon":-77.0308314,
      "wines":[
         "Rosé"
      ],
      "packaging_type":[
         "Restaurant"
      ],
      "date_of_entry":"2019-04-01T00:00:00.000Z"
   },
   {
      "id":17474,
      "name":"Farm Bell Kitchen",
      "address":"1209 W Main St. Charlottesville Va 22903",
      "user_id":18,
      "created_at":"2018-10-16T18:56:25.555Z",
      "updated_at":"2019-06-04T14:03:00.634Z",
      "lat":38.0333326,
      "lon":-78.4971926,
      "wines":[
         "Rosé"
      ],
      "packaging_type":[
         "Restaurant"
      ],
      "date_of_entry":"2019-04-01T00:00:00.000Z"
   },
   {
      "id":17480,
      "name":"Flight Wine Bar",
      "address":"777 6th Street Nw Washington Dc 20001",
      "user_id":18,
      "created_at":"2018-10-16T18:56:25.706Z",
      "updated_at":"2019-01-08T18:57:03.376Z",
      "lat":38.899478,
      "lon":-77.019691,
      "wines":[
         "Rosé",
         "Red \"Eluvium\"",
         "Chardonnay Quaker Run",
         "Chardonnay",
         "Petit Manseng",
         "Shenandoah Valley Cabernet Franc"
      ],
      "packaging_type":[
         "Restaurant"
      ],
      "date_of_entry":"2018-11-01T00:00:00.000Z"
   },
   {
      "id":17481,
      "name":"Foods Of All Nations",
      "address":"2121 Ivy Rd Charlottesville Va 22903",
      "user_id":18,
      "created_at":"2018-10-16T18:56:25.721Z",
      "updated_at":"2019-06-04T14:03:00.743Z",
      "lat":38.0432978,
      "lon":-78.5119067,
      "wines":[
         "White \"Five Forks\"",
         "Red \"Foothills\"",
         "Red \"Eluvium\"",
         "Petit Manseng",
         "Rosé",
         "Pinot Gris"
      ],
      "packaging_type":[
         "Retail"
      ],
      "date_of_entry":"2019-04-01T00:00:00.000Z"
   },
   {
      "id":17492,
      "name":"Greenwood",
      "address":"6701 Rockfish Gap Tpk Crozet Va 22932",
      "user_id":18,
      "created_at":"2018-10-16T18:56:25.889Z",
      "updated_at":"2019-06-04T14:03:00.905Z",
      "lat":38.0413202,
      "lon":-78.732343,
      "wines":[
         "Red \"Eluvium\"",
         "Petit Manseng",
         "Pinot Gris Block",
         "Pinot Gris",
         "Rosé",
         "Shenandoah Valley Cabernet Franc"
      ],
      "packaging_type":[
         "Retail"
      ],
      "date_of_entry":"2019-04-01T00:00:00.000Z"
   },
   {
      "id":17493,
      "name":"Hamilton'S",
      "address":"101 W Main St Charlottesville Va 22902",
      "user_id":18,
      "created_at":"2018-10-16T18:56:25.906Z",
      "updated_at":"2019-06-04T14:03:02.104Z",
      "lat":38.030928,
      "lon":-78.4815455,
      "wines":[
         "Shenandoah Valley Cabernet Franc",
         "Red \"Eluvium\""
      ],
      "packaging_type":[
         "Restaurant"
      ],
      "date_of_entry":"2019-03-01T00:00:00.000Z"
   },
   {
      "id":17495,
      "name":"Harper'S Table",
      "address":"122 N. Main St. Suffolk Va 23434",
      "user_id":18,
      "created_at":"2018-10-16T18:56:25.939Z",
      "updated_at":"2018-11-05T15:50:53.443Z",
      "lat":36.7286205,
      "lon":-76.58277,
      "wines":[
         "White \"Five Forks\""
      ],
      "packaging_type":[
         "Restaurant"
      ],
      "date_of_entry":"2018-10-01T00:00:00.000Z"
   },
   {
      "id":17498,
      "name":"In Vino Veritas",
      "address":"3015 Louisa Rd Keswick Va 22947",
      "user_id":18,
      "created_at":"2018-10-16T18:56:25.997Z",
      "updated_at":"2019-06-04T14:03:02.125Z",
      "lat":38.0134664,
      "lon":-78.3951928,
      "wines":[
         "Malvasia Bianca Pétillant Naturel"
      ],
      "packaging_type":[
         "Retail"
      ],
      "date_of_entry":"2019-03-01T00:00:00.000Z"
   },
   {
      "id":17504,
      "name":"Kardinal Hall",
      "address":"722 Preston Ave. Charlottesville Va 22903",
      "user_id":18,
      "created_at":"2018-10-16T18:56:26.122Z",
      "updated_at":"2019-01-08T18:57:03.783Z",
      "lat":38.0360074,
      "lon":-78.4880701,
      "wines":[
         "Red \"Foothills\"",
         "Rosé"
      ],
      "packaging_type":[
         "Restaurant"
      ],
      "date_of_entry":"2018-09-01T00:00:00.000Z"
   },
   {
      "id":17505,
      "name":"Komi",
      "address":"1509 17th St. Nw Washington Dc 20036",
      "user_id":18,
      "created_at":"2018-10-16T18:56:26.145Z",
      "updated_at":"2019-06-04T14:03:02.182Z",
      "lat":38.9101153,
      "lon":-77.0381296,
      "wines":[
         "Malvasia Bianca Pétillant Naturel"
      ],
      "packaging_type":[
         "Restaurant"
      ],
      "date_of_entry":"2019-03-01T00:00:00.000Z"
   },
   {
      "id":17509,
      "name":"Local (The)",
      "address":"824 Hinton Ave Charlottesville Va 22901",
      "user_id":18,
      "created_at":"2018-10-16T18:56:26.255Z",
      "updated_at":"2019-06-04T14:03:02.239Z",
      "lat":38.0244641,
      "lon":-78.4755275,
      "wines":[
         "Red \"Eluvium\""
      ],
      "packaging_type":[
         "Restaurant"
      ],
      "date_of_entry":"2019-03-01T00:00:00.000Z"
   },
   {
      "id":17511,
      "name":"Lucky",
      "address":"18 Kirk Ave Sw Roanoke Va 24011",
      "user_id":18,
      "created_at":"2018-10-16T18:56:26.307Z",
      "updated_at":"2019-03-12T14:48:47.823Z",
      "lat":37.2709991,
      "lon":-79.9414023,
      "wines":[
         "Malvasia Bianca Pétillant Naturel"
      ],
      "packaging_type":[
         "Restaurant"
      ],
      "date_of_entry":"2019-02-01T00:00:00.000Z"
   },
   {
      "id":17512,
      "name":"Lyon Hall",
      "address":"3100 Washington Blvd #100n Arlington Va 22201",
      "user_id":18,
      "created_at":"2018-10-16T18:56:26.321Z",
      "updated_at":"2018-10-16T18:57:42.974Z",
      "lat":38.8854693,
      "lon":-77.0949656,
      "wines":[
         "Petit Manseng"
      ],
      "packaging_type":[
         "Restaurant"
      ],
      "date_of_entry":"2018-06-01T00:00:00.000Z"
   },
   {
      "id":17517,
      "name":"Mermaid Winery - Virginia Beach",
      "address":"4401 Shore Drive Virginia Beach Va 23455",
      "user_id":18,
      "created_at":"2018-10-16T18:56:26.455Z",
      "updated_at":"2019-06-04T14:03:02.276Z",
      "lat":36.9044651,
      "lon":-76.1230478,
      "wines":[
         "Rosé"
      ],
      "packaging_type":[
         "Restaurant"
      ],
      "date_of_entry":"2019-03-01T00:00:00.000Z"
   },
   {
      "id":17518,
      "name":"Michie Tavern",
      "address":"683 Thomas Jefferson Pkwy Charlottesville Va 22902",
      "user_id":18,
      "created_at":"2018-10-16T18:56:26.480Z",
      "updated_at":"2018-10-16T18:57:35.822Z",
      "lat":38.0087438,
      "lon":-78.4636942,
      "wines":[
         "White \"Five Forks\"",
         "\"Young Wine\" Vidal Blanc"
      ],
      "packaging_type":[
         "Retail"
      ],
      "date_of_entry":"2018-07-01T00:00:00.000Z"
   },
   {
      "id":17520,
      "name":"Montgomery Co. Dept. Of Liquor Control",
      "address":"Division Of Financial Gaithersburg Md 20878",
      "user_id":18,
      "created_at":"2018-10-16T18:56:26.541Z",
      "updated_at":"2019-06-04T14:03:01.128Z",
      "lat":39.139876,
      "lon":-77.1926495,
      "wines":[
         "Vines\" Rosé"
      ],
      "packaging_type":[
         "Retail"
      ],
      "date_of_entry":"2019-04-01T00:00:00.000Z"
   },
   {
      "id":17521,
      "name":"Morris Miller Wines \u0026 Liquors",
      "address":"7804 Alaska Ave Nw Washington Dc 20012",
      "user_id":18,
      "created_at":"2018-10-16T18:56:26.570Z",
      "updated_at":"2018-10-16T18:57:34.136Z",
      "lat":38.9842364,
      "lon":-77.0269417,
      "wines":[
         "Rosé"
      ],
      "packaging_type":[
         "Retail"
      ],
      "date_of_entry":"2018-09-01T00:00:00.000Z"
   },
   {
      "id":17523,
      "name":"Northside Social - Falls Church",
      "address":"205 Park Avenue Falls Church Va 22046",
      "user_id":18,
      "created_at":"2018-10-16T18:56:26.614Z",
      "updated_at":"2019-06-04T14:03:01.175Z",
      "lat":38.8841348,
      "lon":-77.1719496,
      "wines":[
         "Rosé"
      ],
      "packaging_type":[
         "Restaurant"
      ],
      "date_of_entry":"2019-04-01T00:00:00.000Z"
   },
   {
      "id":17525,
      "name":"Oakhart Social",
      "address":"511 W Main St. Charlottesville Va 22903",
      "user_id":18,
      "created_at":"2018-10-16T18:56:26.662Z",
      "updated_at":"2019-06-04T14:03:01.197Z",
      "lat":38.0312517,
      "lon":-78.4880475,
      "wines":[
         "Rosé"
      ],
      "packaging_type":[
         "Restaurant"
      ],
      "date_of_entry":"2019-04-01T00:00:00.000Z"
   },
   {
      "id":17529,
      "name":"Origin Wine Social",
      "address":"251 W. Bute St Norfolk Va 23510",
      "user_id":18,
      "created_at":"2018-10-16T18:56:26.790Z",
      "updated_at":"2018-10-16T18:57:30.175Z",
      "lat":36.8527615,
      "lon":-76.2923277,
      "wines":[
         "Red \"Eluvium\"",
         "Shenandoah Valley Cabernet Franc",
         "\"Young Wine\" Vidal Blanc",
         "White \"Five Forks\""
      ],
      "packaging_type":[
         "Retail"
      ],
      "date_of_entry":"2018-07-01T00:00:00.000Z"
   },
   {
      "id":17531,
      "name":"Parallel 38",
      "address":"817 W Main St. Charlottesville Va 22903-4531",
      "user_id":18,
      "created_at":"2018-10-16T18:56:26.828Z",
      "updated_at":"2018-10-16T18:57:29.102Z",
      "lat":38.0319259,
      "lon":-78.4910036,
      "wines":[
         "Rosé"
      ],
      "packaging_type":[
         "Restaurant"
      ],
      "date_of_entry":"2018-09-01T00:00:00.000Z"
   },
   {
      "id":17532,
      "name":"Pear Plum Cafe",
      "address":"3064 Mt. Pleasant St, Nw Washington Dc 20009",
      "user_id":18,
      "created_at":"2018-10-16T18:56:26.849Z",
      "updated_at":"2018-10-16T18:57:28.647Z",
      "lat":38.928463,
      "lon":-77.037516,
      "wines":[
         "Pétillant Naturel White"
      ],
      "packaging_type":[
         "Restaurant"
      ],
      "date_of_entry":"2018-09-01T00:00:00.000Z"
   },
   {
      "id":17533,
      "name":"Petworth Citizen",
      "address":"829 Upshur St. Nw Washington Dc 20011",
      "user_id":18,
      "created_at":"2018-10-16T18:56:26.867Z",
      "updated_at":"2018-10-16T18:57:28.142Z",
      "lat":38.9421184,
      "lon":-77.0244999,
      "wines":[
         "Pétillant Naturel Red"
      ],
      "packaging_type":[
         "Restaurant"
      ],
      "date_of_entry":"2018-09-01T00:00:00.000Z"
   },
   {
      "id":17534,
      "name":"Planet Wine",
      "address":"Evening Star Cafe/Daily Panet W\u0026G Alexandria Va 22301",
      "user_id":18,
      "created_at":"2018-10-16T18:56:26.897Z",
      "updated_at":"2019-06-04T14:03:01.255Z",
      "lat":38.8240016,
      "lon":-77.0585384,
      "wines":[
         "Rosé"
      ],
      "packaging_type":[
         "Retail"
      ],
      "date_of_entry":"2019-04-01T00:00:00.000Z"
   },
   {
      "id":17535,
      "name":"Potomac Wines \u0026 Spirits",
      "address":"3100 M St. Nw Washington Dc 20007",
      "user_id":18,
      "created_at":"2018-10-16T18:56:26.919Z",
      "updated_at":"2018-10-16T18:57:26.988Z",
      "lat":38.9050331,
      "lon":-77.0613113,
      "wines":[
         "Rosé"
      ],
      "packaging_type":[
         "Retail"
      ],
      "date_of_entry":"2018-07-01T00:00:00.000Z"
   },
   {
      "id":17536,
      "name":"Pour",
      "address":"321 Amsterdam Avenue New York Ny 10023",
      "user_id":18,
      "created_at":"2018-10-16T18:56:26.942Z",
      "updated_at":"2018-10-16T18:57:26.391Z",
      "lat":40.780591,
      "lon":-73.9799654,
      "wines":[
         "Red \"Foothills\""
      ],
      "packaging_type":[
         "Retail"
      ],
      "date_of_entry":"2018-09-01T00:00:00.000Z"
   },
   {
      "id":17537,
      "name":"Prime 109",
      "address":"300 East Main St. Charlottesville Va 22902",
      "user_id":18,
      "created_at":"2018-10-16T18:56:26.981Z",
      "updated_at":"2019-06-04T14:03:01.277Z",
      "lat":38.029889,
      "lon":-78.4800488,
      "wines":[
         "Shenandoah Valley Cabernet Franc"
      ],
      "packaging_type":[
         "Restaurant"
      ],
      "date_of_entry":"2019-04-01T00:00:00.000Z"
   },
   {
      "id":17538,
      "name":"Primland Resort",
      "address":"2000 Busted Rock Road Meadows Of Dan Va 24120",
      "user_id":18,
      "created_at":"2018-10-16T18:56:27.028Z",
      "updated_at":"2018-10-16T18:57:21.387Z",
      "lat":36.6617827,
      "lon":-80.4318697,
      "wines":[
         "Red \"Eluvium\""
      ],
      "packaging_type":[
         "Restaurant"
      ],
      "date_of_entry":"2018-06-01T00:00:00.000Z"
   },
   {
      "id":17540,
      "name":"Proof",
      "address":"775 G. St. Nw Washington Dc 20001",
      "user_id":18,
      "created_at":"2018-10-16T18:56:27.068Z",
      "updated_at":"2019-01-08T18:57:04.316Z",
      "lat":38.8986362,
      "lon":-77.022688,
      "wines":[
         "Chardonnay Quaker Run",
         "Red \"Eluvium\"",
         "Rosé"
      ],
      "packaging_type":[
         "Restaurant"
      ],
      "date_of_entry":"2018-06-01T00:00:00.000Z"
   },
   {
      "id":17541,
      "name":"Rappahannock",
      "address":"320-322 East Grace St. Richmond Va 23219",
      "user_id":18,
      "created_at":"2018-10-16T18:56:27.098Z",
      "updated_at":"2019-06-04T14:03:01.314Z",
      "lat":37.5428513,
      "lon":-77.4392257,
      "wines":[
         "Rosé"
      ],
      "packaging_type":[
         "Restaurant"
      ],
      "date_of_entry":"2019-04-01T00:00:00.000Z"
   },
   {
      "id":17544,
      "name":"Red Apron Butchery/The Partisan",
      "address":"709 D St Nw Washington Dc 20004",
      "user_id":18,
      "created_at":"2018-10-16T18:56:27.200Z",
      "updated_at":"2018-10-16T18:57:18.322Z",
      "lat":38.8949307,
      "lon":-77.0224102,
      "wines":[
         "Red \"Foothills\"",
         "Rosé"
      ],
      "packaging_type":[
         "Restaurant"
      ],
      "date_of_entry":"2018-08-01T00:00:00.000Z"
   },
   {
      "id":17546,
      "name":"Red Hen-Dc",
      "address":"1822 1st St. Nw Washington Dc 20001",
      "user_id":18,
      "created_at":"2018-10-16T18:56:27.262Z",
      "updated_at":"2019-01-08T18:57:04.451Z",
      "lat":38.9149738,
      "lon":-77.0124095,
      "wines":[
         "Petit Manseng"
      ],
      "packaging_type":[
         "Restaurant"
      ],
      "date_of_entry":"2018-09-01T00:00:00.000Z"
   },
   {
      "id":17547,
      "name":"Red Pump Kitchen",
      "address":"401 E. Main St. Charlottesville Va 22902",
      "user_id":18,
      "created_at":"2018-10-16T18:56:27.287Z",
      "updated_at":"2018-10-16T18:57:16.658Z",
      "lat":38.0301532,
      "lon":-78.4790608,
      "wines":[
         "Pétillant Naturel White"
      ],
      "packaging_type":[
         "Restaurant"
      ],
      "date_of_entry":"2018-09-01T00:00:00.000Z"
   },
   {
      "id":17551,
      "name":"Rio Hill Wine \u0026 Beer",
      "address":"1908 Rio Hill Center Charlottesville Va 22901",
      "user_id":18,
      "created_at":"2018-10-16T18:56:27.439Z",
      "updated_at":"2019-06-04T14:03:01.334Z",
      "lat":38.0877905,
      "lon":-78.4749043,
      "wines":[
         "Rosé",
         "Red \"Eluvium\""
      ],
      "packaging_type":[
         "Retail"
      ],
      "date_of_entry":"2019-04-01T00:00:00.000Z"
   },
   {
      "id":17552,
      "name":"Roanoke Natural Foods Coop",
      "address":"1319 Grandin Rd Sw Roanoke Va 24015-231",
      "user_id":18,
      "created_at":"2018-10-16T18:56:27.463Z",
      "updated_at":"2018-10-16T18:57:13.927Z",
      "lat":37.265258,
      "lon":-79.977368,
      "wines":[
         "\"Young Wine\" Vidal Blanc",
         "Red \"Foothills\"",
         "Rosé"
      ],
      "packaging_type":[
         "Retail"
      ],
      "date_of_entry":"2018-08-01T00:00:00.000Z"
   },
   {
      "id":17553,
      "name":"Roofers Union",
      "address":"2446 18th St Nw Washington Dc 20009",
      "user_id":18,
      "created_at":"2018-10-16T18:56:27.481Z",
      "updated_at":"2019-03-12T14:48:47.045Z",
      "lat":38.9218591,
      "lon":-77.04265,
      "wines":[
         "Shenandoah Valley Cabernet Franc"
      ],
      "packaging_type":[
         "Restaurant"
      ],
      "date_of_entry":"2019-01-01T00:00:00.000Z"
   },
   {
      "id":17557,
      "name":"Savoy Lee Winery",
      "address":"5800 Johnson Mountain Rd. Huddleston Va 24104",
      "user_id":18,
      "created_at":"2018-10-16T18:56:27.570Z",
      "updated_at":"2018-10-16T18:57:11.323Z",
      "lat":37.1873612,
      "lon":-79.3889786,
      "wines":[
         "Pétillant Naturel White"
      ],
      "packaging_type":[
         "Restaurant"
      ],
      "date_of_entry":"2018-08-01T00:00:00.000Z"
   },
   {
      "id":17558,
      "name":"September Wines \u0026 Spirits",
      "address":"285 West Broadway #330 New York Ny 10013",
      "user_id":18,
      "created_at":"2018-10-16T18:56:27.595Z",
      "updated_at":"2018-10-16T18:57:10.818Z",
      "lat":40.7209197,
      "lon":-74.0046772,
      "wines":[
         "White \"Five Forks\"",
         "Petit Manseng"
      ],
      "packaging_type":[
         "Retail"
      ],
      "date_of_entry":"2018-08-01T00:00:00.000Z"
   },
   {
      "id":17561,
      "name":"Slope Cellars",
      "address":"436 7th Ave Brooklyn Ny 11215",
      "user_id":18,
      "created_at":"2018-10-16T18:56:27.652Z",
      "updated_at":"2019-06-04T14:03:01.472Z",
      "lat":40.6635697,
      "lon":-73.9846443,
      "wines":[
         "Rosé",
         "Malvasia Bianca Pétillant Naturel",
         "Red \"Eluvium\""
      ],
      "packaging_type":[
         "Retail"
      ],
      "date_of_entry":"2019-04-01T00:00:00.000Z"
   },
   {
      "id":17564,
      "name":"Society Fair",
      "address":"277 S. Washington St. Alexandria Va 22314",
      "user_id":18,
      "created_at":"2018-10-16T18:56:27.727Z",
      "updated_at":"2019-06-04T14:03:01.504Z",
      "lat":38.8032766,
      "lon":-77.0479011,
      "wines":[
         "Rosé",
         "White \"Five Forks\"",
         "Red \"Foothills\""
      ],
      "packaging_type":[
         "Restaurant"
      ],
      "date_of_entry":"2019-04-01T00:00:00.000Z"
   },
   {
      "id":17568,
      "name":"Succotash",
      "address":"915 F St. Nw Washington Dc 20004",
      "user_id":18,
      "created_at":"2018-10-16T18:56:27.803Z",
      "updated_at":"2019-06-04T14:03:01.535Z",
      "lat":38.897644,
      "lon":-77.02474,
      "wines":[
         "White \"Five Forks\""
      ],
      "packaging_type":[
         "Restaurant"
      ],
      "date_of_entry":"2019-04-01T00:00:00.000Z"
   },
   {
      "id":17572,
      "name":"Taste - City Center",
      "address":"702 Mariner'S Row, Suite 104 Newport News Va 23606",
      "user_id":18,
      "created_at":"2018-10-16T18:56:27.919Z",
      "updated_at":"2018-10-16T18:56:58.450Z",
      "lat":37.0857448,
      "lon":-76.4738355,
      "wines":[
         "Rosé",
         "Red \"Eluvium\""
      ],
      "packaging_type":[
         "Retail"
      ],
      "date_of_entry":"2018-08-01T00:00:00.000Z"
   },
   {
      "id":17573,
      "name":"Taste - Ghent",
      "address":"407 W 21st Street Norfolk Va 23517-2114",
      "user_id":18,
      "created_at":"2018-10-16T18:56:27.938Z",
      "updated_at":"2019-06-04T14:03:01.550Z",
      "lat":36.868141,
      "lon":-76.290231,
      "wines":[
         "Red \"Eluvium\"",
         "Rosé"
      ],
      "packaging_type":[
         "Retail"
      ],
      "date_of_entry":"2019-04-01T00:00:00.000Z"
   },
   {
      "id":17574,
      "name":"Taste - Ghent",
      "address":"407 W 21st St, Norfolk, VA 23517",
      "user_id":18,
      "created_at":"2018-10-16T18:56:27.965Z",
      "updated_at":"2018-10-16T19:03:58.691Z",
      "lat":36.868128,
      "lon":-76.290252,
      "wines":[
         "Rosé"
      ],
      "packaging_type":[
         "Retail"
      ],
      "date_of_entry":"2018-09-01T00:00:00.000Z"
   },
   {
      "id":17575,
      "name":"Taste - Greenbrier",
      "address":"717 Eden Way, Unit 600 Chesapeake Va 23320",
      "user_id":18,
      "created_at":"2018-10-16T18:56:27.989Z",
      "updated_at":"2019-06-04T14:03:02.464Z",
      "lat":36.7720124,
      "lon":-76.2367322,
      "wines":[
         "Rosé",
         "Red \"Eluvium\""
      ],
      "packaging_type":[
         "Retail"
      ],
      "date_of_entry":"2019-03-01T00:00:00.000Z"
   },
   {
      "id":17577,
      "name":"Taste - Hilltop",
      "address":"1554 Laskin Road, Suite 110 Virginia Beach Va 23451",
      "user_id":18,
      "created_at":"2018-10-16T18:56:28.041Z",
      "updated_at":"2019-01-08T18:57:05.108Z",
      "lat":36.8537156,
      "lon":-76.0164334,
      "wines":[
         "Rosé",
         "Red \"Eluvium\""
      ],
      "packaging_type":[
         "Retail"
      ],
      "date_of_entry":"2018-12-01T00:00:00.000Z"
   },
   {
      "id":17578,
      "name":"Taste - Hilltop",
      "address":"Karen Garner Virginia Beach Va 23451",
      "user_id":18,
      "created_at":"2018-10-16T18:56:28.062Z",
      "updated_at":"2018-10-16T18:56:55.545Z",
      "lat":36.8643566,
      "lon":-75.9985693,
      "wines":[
         "Rosé"
      ],
      "packaging_type":[
         "Retail"
      ],
      "date_of_entry":"2018-09-01T00:00:00.000Z"
   },
   {
      "id":17579,
      "name":"Taste - Larchmont",
      "address":"6464 Hampton Boulevard Norfolk Va 23508",
      "user_id":18,
      "created_at":"2018-10-16T18:56:28.091Z",
      "updated_at":"2018-10-16T18:56:55.078Z",
      "lat":36.9002609,
      "lon":-76.3029826,
      "wines":[
         "Rosé",
         "Red \"Eluvium\""
      ],
      "packaging_type":[
         "Retail"
      ],
      "date_of_entry":"2018-08-01T00:00:00.000Z"
   },
   {
      "id":17582,
      "name":"Tavola",
      "address":"826 Hinton Ave #A Charlottesville Va 22902",
      "user_id":18,
      "created_at":"2018-10-16T18:56:28.168Z",
      "updated_at":"2019-03-12T14:48:47.250Z",
      "lat":38.0244277,
      "lon":-78.4754554,
      "wines":[
         "Chardonnay"
      ],
      "packaging_type":[
         "Restaurant"
      ],
      "date_of_entry":"2019-01-01T00:00:00.000Z"
   },
   {
      "id":17584,
      "name":"Tazza Kitchen - Alverser Plaza",
      "address":"1244 Alverser Drive Midlothian Va 23113",
      "user_id":18,
      "created_at":"2018-10-16T18:56:28.224Z",
      "updated_at":"2019-06-04T14:03:01.581Z",
      "lat":37.5086411,
      "lon":-77.6171307,
      "wines":[
         "White \"Five Forks\""
      ],
      "packaging_type":[
         "Restaurant"
      ],
      "date_of_entry":"2019-04-01T00:00:00.000Z"
   },
   {
      "id":17585,
      "name":"Tazza Kitchen - Scott'S Addition",
      "address":"1500 Roseneath Rd. Richmond Va 23230-4432",
      "user_id":18,
      "created_at":"2018-10-16T18:56:28.246Z",
      "updated_at":"2019-06-04T14:03:02.498Z",
      "lat":37.5700322,
      "lon":-77.4737666,
      "wines":[
         "White \"Five Forks\""
      ],
      "packaging_type":[
         "Restaurant"
      ],
      "date_of_entry":"2019-03-01T00:00:00.000Z"
   },
   {
      "id":17586,
      "name":"Terroir",
      "address":"24 Harrison Street New York Ny 10013",
      "user_id":18,
      "created_at":"2018-10-16T18:56:28.275Z",
      "updated_at":"2018-10-16T18:56:46.262Z",
      "lat":40.7189065,
      "lon":-74.009975,
      "wines":[
         "Petit Manseng"
      ],
      "packaging_type":[
         "Restaurant"
      ],
      "date_of_entry":"2018-06-01T00:00:00.000Z"
   },
   {
      "id":17588,
      "name":"Thornton River Grille",
      "address":"Thornton River Grille Sperryville Va 22740",
      "user_id":18,
      "created_at":"2018-10-16T18:56:28.319Z",
      "updated_at":"2019-06-04T14:03:01.619Z",
      "lat":38.657256,
      "lon":-78.22669,
      "wines":[
         "Red \"Foothills\""
      ],
      "packaging_type":[
         "Restaurant"
      ],
      "date_of_entry":"2019-04-01T00:00:00.000Z"
   },
   {
      "id":17589,
      "name":"Three Blacksmiths",
      "address":"20 Main St Sperryville Va 22740-2155",
      "user_id":18,
      "created_at":"2018-10-16T18:56:28.355Z",
      "updated_at":"2019-03-12T14:48:48.032Z",
      "lat":38.6586455,
      "lon":-78.2296236,
      "wines":[
         "Red \"Eluvium\""
      ],
      "packaging_type":[
         "Restaurant"
      ],
      "date_of_entry":"2019-02-01T00:00:00.000Z"
   },
   {
      "id":17590,
      "name":"Timber Pizza Co.",
      "address":"809 Upshur St. Nw Washington Dc 20011",
      "user_id":18,
      "created_at":"2018-10-16T18:56:28.391Z",
      "updated_at":"2019-06-04T14:03:01.633Z",
      "lat":38.9421025,
      "lon":-77.0238251,
      "wines":[
         "Rosé"
      ],
      "packaging_type":[
         "Restaurant"
      ],
      "date_of_entry":"2019-04-01T00:00:00.000Z"
   },
   {
      "id":17594,
      "name":"Union Market",
      "address":"2306 Jefferson Avenue Richmond Va 23223",
      "user_id":18,
      "created_at":"2018-10-16T18:56:28.472Z",
      "updated_at":"2019-01-08T18:57:05.345Z",
      "lat":37.5351655,
      "lon":-77.4180834,
      "wines":[
         "Rosé",
         "Shenandoah Valley Cabernet Franc"
      ],
      "packaging_type":[
         "Retail"
      ],
      "date_of_entry":"2018-11-01T00:00:00.000Z"
   },
   {
      "id":17596,
      "name":"Unwined Bradlee Shopping Center",
      "address":"3690-J King St Alexandria Va 22302",
      "user_id":18,
      "created_at":"2018-10-16T18:56:28.518Z",
      "updated_at":"2019-06-04T14:03:02.531Z",
      "lat":38.8295027,
      "lon":-77.0925003,
      "wines":[
         "Rosé"
      ],
      "packaging_type":[
         "Retail"
      ],
      "date_of_entry":"2019-03-01T00:00:00.000Z"
   },
   {
      "id":17597,
      "name":"Vino Market",
      "address":"3730 Winterfield Rd. Midlothian Va 23113",
      "user_id":18,
      "created_at":"2018-10-16T18:56:28.542Z",
      "updated_at":"2019-06-04T14:03:01.697Z",
      "lat":37.5535682,
      "lon":-77.6685694,
      "wines":[
         "Rosé",
         "Red \"Foothills\""
      ],
      "packaging_type":[
         "Retail"
      ],
      "date_of_entry":"2019-04-01T00:00:00.000Z"
   },
   {
      "id":17599,
      "name":"W2 Wines, Llc",
      "address":"16031 Hillsboro Road Purcellville Va 20132",
      "user_id":18,
      "created_at":"2018-10-16T18:56:28.598Z",
      "updated_at":"2018-10-16T18:56:39.435Z",
      "lat":39.173889,
      "lon":-77.725546,
      "wines":[
         "Pétillant Naturel Rosé",
         "White \"Five Forks\"",
         "Rosé"
      ],
      "packaging_type":[
         "Retail"
      ],
      "date_of_entry":"2018-07-01T00:00:00.000Z"
   },
   {
      "id":17601,
      "name":"Wardman Wines",
      "address":"625 Monroe St. Ne, Ste.#A7 Washington Dc 20007",
      "user_id":18,
      "created_at":"2018-10-16T18:56:28.657Z",
      "updated_at":"2019-06-04T14:03:01.734Z",
      "lat":38.9318318,
      "lon":-76.9971246,
      "wines":[
         "Rosé",
         "Red \"Eluvium\"",
         "White \"Five Forks\""
      ],
      "packaging_type":[
         "Retail"
      ],
      "date_of_entry":"2019-04-01T00:00:00.000Z"
   },
   {
      "id":17603,
      "name":"Whaley'S",
      "address":"301 Water St. Se Ste. 115 Washington Dc 20003",
      "user_id":18,
      "created_at":"2018-10-16T18:56:28.709Z",
      "updated_at":"2019-06-04T14:03:01.752Z",
      "lat":38.873408,
      "lon":-77.0014765,
      "wines":[
         "Rosé"
      ],
      "packaging_type":[
         "Restaurant"
      ],
      "date_of_entry":"2019-04-01T00:00:00.000Z"
   },
   {
      "id":17604,
      "name":"White Moose Inn",
      "address":"291 Main St. Washington Va 22747-1977",
      "user_id":18,
      "created_at":"2018-10-16T18:56:28.738Z",
      "updated_at":"2019-03-12T14:48:47.421Z",
      "lat":38.7123391,
      "lon":-78.16034,
      "wines":[
         "White \"Five Forks\"",
         "Red \"Foothills\"",
         "Chardonnay Quaker Run",
         "Red \"Eluvium\""
      ],
      "packaging_type":[
         "Restaurant"
      ],
      "date_of_entry":"2019-01-01T00:00:00.000Z"
   },
   {
      "id":17605,
      "name":"Wild Ginger",
      "address":"3734 Winterfield Rd. Ste. 300 Midlothian Va 23113",
      "user_id":18,
      "created_at":"2018-10-16T18:56:28.759Z",
      "updated_at":"2019-01-08T18:57:05.539Z",
      "lat":37.5540965,
      "lon":-77.6684224,
      "wines":[
         "Red \"Foothills\""
      ],
      "packaging_type":[
         "Restaurant"
      ],
      "date_of_entry":"2018-07-01T00:00:00.000Z"
   },
   {
      "id":17606,
      "name":"Williamsburg Inn",
      "address":"136 E Francis Street Williamsburg Va 23185-4271",
      "user_id":18,
      "created_at":"2018-10-16T18:56:28.781Z",
      "updated_at":"2018-10-16T18:59:05.082Z",
      "lat":37.2689049,
      "lon":-76.6974386,
      "wines":[
         "Red \"Eluvium\""
      ],
      "packaging_type":[
         "Restaurant"
      ],
      "date_of_entry":"2018-09-01T00:00:00.000Z"
   },
   {
      "id":17607,
      "name":"Wine \u0026 Country",
      "address":"4416 Ivy Commons Charlottesville Va 22903-7123",
      "user_id":18,
      "created_at":"2018-10-16T18:56:28.815Z",
      "updated_at":"2019-03-12T14:48:47.446Z",
      "lat":38.0586763,
      "lon":-78.6008599,
      "wines":[
         "Rosé",
         "Red \"Eluvium\""
      ],
      "packaging_type":[
         "Retail"
      ],
      "date_of_entry":"2019-01-01T00:00:00.000Z"
   },
   {
      "id":17609,
      "name":"Wine Guild",
      "address":"221 Carlton Rd, Suite 1 Charlottesville Va 22902",
      "user_id":18,
      "created_at":"2018-10-16T18:56:28.867Z",
      "updated_at":"2018-10-16T18:59:03.785Z",
      "lat":38.0237334,
      "lon":-78.4699995,
      "wines":[
         "Chardonnay Quaker Run"
      ],
      "packaging_type":[
         "Retail"
      ],
      "date_of_entry":"2018-08-01T00:00:00.000Z"
   },
   {
      "id":17610,
      "name":"Wine Seller - Williamsburg",
      "address":"4680 Monticello Ave Suite 15 Williamsburg Va 23188",
      "user_id":18,
      "created_at":"2018-10-16T18:56:28.900Z",
      "updated_at":"2019-06-04T14:03:02.605Z",
      "lat":37.271818,
      "lon":-76.7597186,
      "wines":[
         "Red \"Foothills\""
      ],
      "packaging_type":[
         "Retail"
      ],
      "date_of_entry":"2019-03-01T00:00:00.000Z"
   },
   {
      "id":17611,
      "name":"Wine Warehouse",
      "address":"1804 Hydraulic Rd Charlottesville Va 22902",
      "user_id":18,
      "created_at":"2018-10-16T18:56:28.915Z",
      "updated_at":"2019-06-04T14:03:01.793Z",
      "lat":38.0607943,
      "lon":-78.4914214,
      "wines":[
         "Red \"Foothills\"",
         "Shenandoah Valley Cabernet Franc",
         "Red \"Eluvium\""
      ],
      "packaging_type":[
         "Retail"
      ],
      "date_of_entry":"2019-04-01T00:00:00.000Z"
   },
   {
      "id":17613,
      "name":"Zap Wines \u0026 Spirits",
      "address":"105 Court Street Brooklyn Ny 11201",
      "user_id":18,
      "created_at":"2018-10-16T18:56:28.978Z",
      "updated_at":"2019-01-08T18:57:05.655Z",
      "lat":40.6907763,
      "lon":-73.9915424,
      "wines":[
         "Red \"Foothills\""
      ],
      "packaging_type":[
         "Retail"
      ],
      "date_of_entry":"2018-12-01T00:00:00.000Z"
   },
   {
      "id":17614,
      "name":"Zocalo",
      "address":"201 E Main St Suite E Charlottesville Va 22902",
      "user_id":18,
      "created_at":"2018-10-16T18:56:29.006Z",
      "updated_at":"2019-06-04T14:03:01.814Z",
      "lat":38.0307918,
      "lon":-78.4803003,
      "wines":[
         "Rosé"
      ],
      "packaging_type":[
         "Restaurant"
      ],
      "date_of_entry":"2019-04-01T00:00:00.000Z"
   },
   {
      "id":17615,
      "name":"Zynodoa",
      "address":"115 E Beverly St Staunton Va 24401",
      "user_id":18,
      "created_at":"2018-10-16T18:56:29.034Z",
      "updated_at":"2019-06-04T14:03:02.626Z",
      "lat":38.149814,
      "lon":-79.0709713,
      "wines":[
         "Red \"Eluvium\""
      ],
      "packaging_type":[
         "Restaurant"
      ],
      "date_of_entry":"2019-03-01T00:00:00.000Z"
   },
   {
      "id":17576,
      "name":"Taste - Harbour View",
      "address":"5911 Harbour View Blvd Suite 100 Suffolk Va 23435-3670",
      "user_id":18,
      "created_at":"2018-10-16T18:56:28.018Z",
      "updated_at":"2018-10-16T18:56:56.606Z",
      "lat":36.8775206,
      "lon":-76.4385481,
      "wines":[
         "Rosé",
         "Red \"Eluvium\""
      ],
      "packaging_type":[
         "Retail"
      ],
      "date_of_entry":"2018-08-01T00:00:00.000Z"
   },
   {
      "id":17567,
      "name":"St. Anselm",
      "address":"1250 5th St. Ne Washington Dc 20002",
      "user_id":18,
      "created_at":"2018-10-16T18:56:27.786Z",
      "updated_at":"2019-06-04T14:03:02.423Z",
      "lat":38.9076561,
      "lon":-76.9990791,
      "wines":[
         "Shenandoah Valley Cabernet Franc"
      ],
      "packaging_type":[
         "Restaurant"
      ],
      "date_of_entry":"2019-03-01T00:00:00.000Z"
   },
   {
      "id":17530,
      "name":"Outpost",
      "address":"4813 Forest Hill Ave. Richmond Va 23225-3143",
      "user_id":18,
      "created_at":"2018-10-16T18:56:26.816Z",
      "updated_at":"2019-03-12T14:48:47.855Z",
      "lat":37.5211852,
      "lon":-77.4878087,
      "wines":[
         "Red \"Foothills\"",
         "Shenandoah Valley Cabernet Franc",
         "Rosé"
      ],
      "packaging_type":[
         "Retail"
      ],
      "date_of_entry":"2019-02-01T00:00:00.000Z"
   },
   {
      "id":17528,
      "name":"Organic Butcher Of Mclean",
      "address":"6712 Old Dominion Drive Mc Lean Va 22101-3806",
      "user_id":18,
      "created_at":"2018-10-16T18:56:26.758Z",
      "updated_at":"2019-01-08T18:57:04.137Z",
      "lat":38.9335412,
      "lon":-77.1758584,
      "wines":[
         "Rosé",
         "Pinot Gris",
         "Chardonnay",
         "Red \"Eluvium\"",
         "Pétillant Naturel Rosé",
         "Pétillant Naturel White",
         "White \"Five Forks\"",
         "Red \"Rise\""
      ],
      "packaging_type":[
         "Retail"
      ],
      "date_of_entry":"2018-09-01T00:00:00.000Z"
   },
   {
      "id":17555,
      "name":"Saison",
      "address":"23 W Marshall St. Suite A Richmond Va 23220",
      "user_id":18,
      "created_at":"2018-10-16T18:56:27.521Z",
      "updated_at":"2019-06-04T14:03:02.367Z",
      "lat":37.546819,
      "lon":-77.4420934,
      "wines":[
         "Malvasia Bianca Pétillant Naturel"
      ],
      "packaging_type":[
         "Restaurant"
      ],
      "date_of_entry":"2019-03-01T00:00:00.000Z"
   },
   {
      "id":17462,
      "name":"Dcanter",
      "address":"545 8th St. Se Washington Dc 20003",
      "user_id":18,
      "created_at":"2018-10-16T18:56:25.260Z",
      "updated_at":"2019-01-08T18:57:03.101Z",
      "lat":38.8815035,
      "lon":-76.9953122,
      "wines":[
         "Shenandoah Valley Cabernet Franc",
         "\"Young Wine\" Vidal Blanc",
         "Rosé",
         "Chardonnay Quaker Run",
         "Pétillant Naturel Red"
      ],
      "packaging_type":[
         "Retail"
      ],
      "date_of_entry":"2018-11-01T00:00:00.000Z"
   },
   {
      "id":17452,
      "name":"Common House",
      "address":"206 West Market Street Charlottesville Va 22902",
      "user_id":18,
      "created_at":"2018-10-16T18:56:25.007Z",
      "updated_at":"2019-06-04T14:03:00.421Z",
      "lat":38.0317194,
      "lon":-78.4822538,
      "wines":[
         "Malvasia Bianca Pétillant Naturel"
      ],
      "packaging_type":[
         "Restaurant"
      ],
      "date_of_entry":"2019-04-01T00:00:00.000Z"
   },
   {
      "id":17414,
      "name":"Airlie",
      "address":"6809 Airlie Rd. Warrenton Va 20187",
      "user_id":18,
      "created_at":"2018-10-16T18:56:24.078Z",
      "updated_at":"2019-01-08T18:57:02.146Z",
      "lat":38.756833,
      "lon":-77.794055,
      "wines":[
         "Rosé",
         "Red \"Foothills\""
      ],
      "packaging_type":[
         "Restaurant"
      ],
      "date_of_entry":"2018-10-01T00:00:00.000Z"
   },
   {
      "id":17415,
      "name":"Alewife",
      "address":"3120 E Marshall St. Richmond Va 23223-7437",
      "user_id":18,
      "created_at":"2018-10-16T18:56:24.102Z",
      "updated_at":"2019-06-04T14:03:00.166Z",
      "lat":37.5288799,
      "lon":-77.4116006,
      "wines":[
         "Petit Manseng",
         "Chardonnay Quaker Run",
         "Shenandoah Valley Cabernet Franc",
         "Chardonnay",
         "Malvasia Bianca Pétillant Naturel",
         "Cabernet Franc Quaker Run"
      ],
      "packaging_type":[
         "Restaurant"
      ],
      "date_of_entry":"2019-04-01T00:00:00.000Z"
   },
   {
      "id":17419,
      "name":"Amber Ox Kitchen \u0026 Brewery",
      "address":"521 Prince George St. Williamsburg Va 23185",
      "user_id":18,
      "created_at":"2018-10-16T18:56:24.191Z",
      "updated_at":"2019-06-04T14:03:00.211Z",
      "lat":37.272864,
      "lon":-76.708414,
      "wines":[
         "Chardonnay",
         "Red \"Foothills\""
      ],
      "packaging_type":[
         "Restaurant"
      ],
      "date_of_entry":"2019-04-01T00:00:00.000Z"
   },
   {
      "id":17420,
      "name":"Arrowine",
      "address":"4508 Lee Hwy Arlington Va 22207",
      "user_id":18,
      "created_at":"2018-10-16T18:56:24.205Z",
      "updated_at":"2019-06-04T14:03:00.225Z",
      "lat":38.8983733,
      "lon":-77.1183586,
      "wines":[
         "Rosé"
      ],
      "packaging_type":[
         "Retail"
      ],
      "date_of_entry":"2019-04-01T00:00:00.000Z"
   },
   {
      "id":17423,
      "name":"Back Bay'S Farmhouse Brewing",
      "address":"1805 Kempsville Rd Virginia Beach Va 23464",
      "user_id":18,
      "created_at":"2018-10-16T18:56:24.240Z",
      "updated_at":"2019-06-04T14:03:00.267Z",
      "lat":36.7827945,
      "lon":-76.1908106,
      "wines":[
         "Rosé",
         "White \"Five Forks\""
      ],
      "packaging_type":[
         "Restaurant"
      ],
      "date_of_entry":"2019-04-01T00:00:00.000Z"
   },
   {
      "id":17424,
      "name":"Barrel Chest",
      "address":"4035 Electric Rd. #B Roanoke Va 24018",
      "user_id":18,
      "created_at":"2018-10-16T18:56:24.251Z",
      "updated_at":"2019-06-04T14:03:00.282Z",
      "lat":37.2235656,
      "lon":-79.9828243,
      "wines":[
         "Pinot Gris Block"
      ],
      "packaging_type":[
         "Retail"
      ],
      "date_of_entry":"2019-04-01T00:00:00.000Z"
   },
   {
      "id":17425,
      "name":"Barrel Thief - Patterson Ave",
      "address":"5805 Patterson Ave Richmond Va 23226",
      "user_id":18,
      "created_at":"2018-10-16T18:56:24.273Z",
      "updated_at":"2019-03-12T14:48:46.193Z",
      "lat":37.5793988,
      "lon":-77.5150151,
      "wines":[
         "Red \"Foothills\""
      ],
      "packaging_type":[
         "Retail"
      ],
      "date_of_entry":"2019-02-01T00:00:00.000Z"
   },
   {
      "id":17433,
      "name":"Bottleworks",
      "address":"3078 Stony Point Rd. Richmond Va 23235",
      "user_id":18,
      "created_at":"2018-10-16T18:56:24.499Z",
      "updated_at":"2019-01-08T18:57:02.584Z",
      "lat":37.537796,
      "lon":-77.5651916,
      "wines":[
         "Red \"Foothills\""
      ],
      "packaging_type":[
         "Retail"
      ],
      "date_of_entry":"2018-10-01T00:00:00.000Z"
   },
   {
      "id":17436,
      "name":"Broken Tulip",
      "address":"3129 W. Cary Street Richmond Va 23221",
      "user_id":18,
      "created_at":"2018-10-16T18:56:24.590Z",
      "updated_at":"2019-06-04T14:03:01.931Z",
      "lat":37.5532674,
      "lon":-77.481503,
      "wines":[
         "Petit Manseng"
      ],
      "packaging_type":[
         "Restaurant"
      ],
      "date_of_entry":"2019-03-01T00:00:00.000Z"
   },
   {
      "id":17446,
      "name":"Cheese Shop",
      "address":"410 E. Duke Of Gloucester St Williamsburg Va 23185",
      "user_id":18,
      "created_at":"2018-10-16T18:56:24.870Z",
      "updated_at":"2019-06-04T14:03:00.372Z",
      "lat":37.2712338,
      "lon":-76.6958035,
      "wines":[
         "Shenandoah Valley Cabernet Franc",
         "Red \"Foothills\"",
         "Red \"Eluvium\"",
         "Red \"Rise\""
      ],
      "packaging_type":[
         "Retail"
      ],
      "date_of_entry":"2019-04-01T00:00:00.000Z"
   },
   {
      "id":17450,
      "name":"Clifton Inn",
      "address":"1296 Clifton Inn Dr Charlottesville Va 22911",
      "user_id":18,
      "created_at":"2018-10-16T18:56:24.966Z",
      "updated_at":"2019-01-08T18:57:02.906Z",
      "lat":38.007264,
      "lon":-78.397257,
      "wines":[
         "Rosé",
         "Shenandoah Valley Cabernet Franc"
      ],
      "packaging_type":[
         "Restaurant"
      ],
      "date_of_entry":"2018-11-01T00:00:00.000Z"
   },
   {
      "id":17451,
      "name":"Cochon D'Or",
      "address":"2829 Main St Hot Springs Va 24445",
      "user_id":18,
      "created_at":"2018-10-16T18:56:24.987Z",
      "updated_at":"2019-06-04T14:03:00.406Z",
      "lat":37.9998484,
      "lon":-79.8317533,
      "wines":[
         "Red \"Eluvium\""
      ],
      "packaging_type":[
         "Restaurant"
      ],
      "date_of_entry":"2019-04-01T00:00:00.000Z"
   },
   {
      "id":17470,
      "name":"Dutch \u0026 Co.",
      "address":"400 N. 27th St. Richmond Va 23223",
      "user_id":18,
      "created_at":"2018-10-16T18:56:25.444Z",
      "updated_at":"2019-03-12T14:48:46.341Z",
      "lat":37.5316135,
      "lon":-77.4162141,
      "wines":[
         "Red \"Foothills\""
      ],
      "packaging_type":[
         "Restaurant"
      ],
      "date_of_entry":"2019-02-01T00:00:00.000Z"
   },
   {
      "id":17471,
      "name":"Ellwood Thompson",
      "address":"4 N Thompson St Richmond Va 23221",
      "user_id":18,
      "created_at":"2018-10-16T18:56:25.470Z",
      "updated_at":"2019-06-04T14:03:02.033Z",
      "lat":37.5574421,
      "lon":-77.4886194,
      "wines":[
         "Malvasia Bianca Pétillant Naturel",
         "Red \"Eluvium\"",
         "Petit Manseng",
         "Rosé"
      ],
      "packaging_type":[
         "Retail"
      ],
      "date_of_entry":"2019-03-01T00:00:00.000Z"
   },
   {
      "id":17473,
      "name":"Fancy Radish",
      "address":"600 H St, Ne Washington Dc 20002",
      "user_id":18,
      "created_at":"2018-10-16T18:56:25.527Z",
      "updated_at":"2019-06-04T14:03:00.617Z",
      "lat":38.9005142,
      "lon":-76.9976267,
      "wines":[
         "Rosé"
      ],
      "packaging_type":[
         "Restaurant"
      ],
      "date_of_entry":"2019-04-01T00:00:00.000Z"
   },
   {
      "id":17475,
      "name":"Farmers \u0026 Distillers",
      "address":"600 Massachusetts Ave. Nw Washington Dc 20001",
      "user_id":18,
      "created_at":"2018-10-16T18:56:25.579Z",
      "updated_at":"2019-06-04T14:03:00.655Z",
      "lat":38.9012661,
      "lon":-77.0207323,
      "wines":[
         "Vines\" Rosé"
      ],
      "packaging_type":[
         "Restaurant"
      ],
      "date_of_entry":"2019-04-01T00:00:00.000Z"
   },
   {
      "id":17476,
      "name":"Farmers Fishers Bakers",
      "address":"3000 K Street Nw Washington Dc 20007",
      "user_id":18,
      "created_at":"2018-10-16T18:56:25.610Z",
      "updated_at":"2019-06-04T14:03:00.673Z",
      "lat":38.9025537,
      "lon":-77.0601033,
      "wines":[
         "Vines\" Rosé"
      ],
      "packaging_type":[
         "Restaurant"
      ],
      "date_of_entry":"2019-04-01T00:00:00.000Z"
   },
   {
      "id":17477,
      "name":"Feast",
      "address":"416 W Main St Suite H Charlottesville Va 22902",
      "user_id":18,
      "created_at":"2018-10-16T18:56:25.629Z",
      "updated_at":"2019-06-04T14:03:00.691Z",
      "lat":38.0304142,
      "lon":-78.4872613,
      "wines":[
         "Rosé",
         "Red \"Foothills\""
      ],
      "packaging_type":[
         "Retail"
      ],
      "date_of_entry":"2019-04-01T00:00:00.000Z"
   },
   {
      "id":17478,
      "name":"Field \u0026 Main",
      "address":"8369 W. Main St. Marshall Va 20115",
      "user_id":18,
      "created_at":"2018-10-16T18:56:25.652Z",
      "updated_at":"2019-06-04T14:03:00.707Z",
      "lat":38.8647631,
      "lon":-77.8574303,
      "wines":[
         "Rosé",
         "\"Red Vine\"",
         "Red Wine",
         "\"White Vine\""
      ],
      "packaging_type":[
         "Restaurant"
      ],
      "date_of_entry":"2019-04-01T00:00:00.000Z"
   },
   {
      "id":17479,
      "name":"Fleurie",
      "address":"108 3rd St Ne Charlottesville Va 22902",
      "user_id":18,
      "created_at":"2018-10-16T18:56:25.677Z",
      "updated_at":"2019-06-04T14:03:00.725Z",
      "lat":38.0304943,
      "lon":-78.4797676,
      "wines":[
         "Rosé"
      ],
      "packaging_type":[
         "Restaurant"
      ],
      "date_of_entry":"2019-04-01T00:00:00.000Z"
   },
   {
      "id":17482,
      "name":"Fort Lewis Lodge",
      "address":"603 Old Plantation Way Millboro Va 24460",
      "user_id":18,
      "created_at":"2018-10-16T18:56:25.737Z",
      "updated_at":"2019-06-04T14:03:00.766Z",
      "lat":38.1166799,
      "lon":-79.6125,
      "wines":[
         "Red \"Foothills\""
      ],
      "packaging_type":[
         "Restaurant"
      ],
      "date_of_entry":"2019-04-01T00:00:00.000Z"
   },
   {
      "id":17483,
      "name":"Founding Farmers - Dc",
      "address":"1924 Pennsylvania Ave. Nw Washington Dc 20006",
      "user_id":18,
      "created_at":"2018-10-16T18:56:25.752Z",
      "updated_at":"2019-06-04T14:03:00.782Z",
      "lat":38.9002854,
      "lon":-77.0445269,
      "wines":[
         "Vines\" Rosé"
      ],
      "packaging_type":[
         "Restaurant"
      ],
      "date_of_entry":"2019-04-01T00:00:00.000Z"
   },
   {
      "id":17484,
      "name":"Founding Farmers - Reston",
      "address":"1904 Reston Metro Plaza, Suite 100 Reston Va 20190",
      "user_id":18,
      "created_at":"2018-10-16T18:56:25.766Z",
      "updated_at":"2019-06-04T14:03:00.803Z",
      "lat":38.9486656,
      "lon":-77.3380393,
      "wines":[
         "Vines\" Rosé"
      ],
      "packaging_type":[
         "Restaurant"
      ],
      "date_of_entry":"2019-04-01T00:00:00.000Z"
   },
   {
      "id":17485,
      "name":"Founding Farmers - Tyson'S Corner",
      "address":"1800 Tyson'S Blvd. Mclean Va 22102",
      "user_id":18,
      "created_at":"2018-10-16T18:56:25.782Z",
      "updated_at":"2019-06-04T14:03:00.820Z",
      "lat":38.9223637,
      "lon":-77.2224625,
      "wines":[
         "Vines\" Rosé"
      ],
      "packaging_type":[
         "Restaurant"
      ],
      "date_of_entry":"2019-04-01T00:00:00.000Z"
   },
   {
      "id":17486,
      "name":"Friendly City Food Co-Op",
      "address":"150 E Wolfe St Harrisonburg Va 22802",
      "user_id":18,
      "created_at":"2018-10-16T18:56:25.796Z",
      "updated_at":"2019-03-12T14:48:46.612Z",
      "lat":38.4516498,
      "lon":-78.8665139,
      "wines":[
         "Red \"Foothills\"",
         "Pinot Gris",
         "Malvasia Bianca Pétillant Naturel"
      ],
      "packaging_type":[
         "Retail"
      ],
      "date_of_entry":"2019-02-01T00:00:00.000Z"
   },
   {
      "id":17488,
      "name":"Glen'S Garden Market",
      "address":"2001 S St. Nw Washington Dc 20009",
      "user_id":18,
      "created_at":"2018-10-16T18:56:25.825Z",
      "updated_at":"2019-06-04T14:03:00.853Z",
      "lat":38.9143274,
      "lon":-77.0451575,
      "wines":[
         "Rosé",
         "Red \"Foothills\""
      ],
      "packaging_type":[
         "Retail"
      ],
      "date_of_entry":"2019-04-01T00:00:00.000Z"
   },
   {
      "id":17487,
      "name":"Garrison",
      "address":"524 8th Street Se Washington Dc 20003",
      "user_id":18,
      "created_at":"2018-10-16T18:56:25.811Z",
      "updated_at":"2019-01-08T18:57:03.493Z",
      "lat":38.8818463,
      "lon":-76.9946148,
      "wines":[
         "Chardonnay Quaker Run",
         "Shenandoah Valley Cabernet Franc",
         "\"Young Wine\" Vidal Blanc",
         "Pétillant Naturel Red",
         "Rosé"
      ],
      "packaging_type":[
         "Restaurant"
      ],
      "date_of_entry":"2018-12-01T00:00:00.000Z"
   },
   {
      "id":17440,
      "name":"C\u0026O Restaurant",
      "address":"515 E Water St Charlottesville Va 22902",
      "user_id":18,
      "created_at":"2018-10-16T18:56:24.703Z",
      "updated_at":"2019-06-04T14:03:00.339Z",
      "lat":38.0290618,
      "lon":-78.4782802,
      "wines":[
         "Shenandoah Valley Cabernet Franc",
         "Rosé",
         "Chardonnay",
         "Red \"Novum\""
      ],
      "packaging_type":[
         "Restaurant"
      ],
      "date_of_entry":"2019-04-01T00:00:00.000Z"
   },
   {
      "id":17412,
      "name":"A Rake'S Progress",
      "address":"1770 Euclid St. Nw Washington Dc 20009",
      "user_id":18,
      "created_at":"2018-10-16T18:56:24.022Z",
      "updated_at":"2019-01-08T18:57:02.108Z",
      "lat":38.9228152,
      "lon":-77.0416876,
      "wines":[
         "Rosé"
      ],
      "packaging_type":[
         "Restaurant"
      ],
      "date_of_entry":"2018-08-01T00:00:00.000Z"
   },
   {
      "id":17398,
      "name":"Home.Made",
      "address":"1072 Baxter Street Georgia, Athens 30606",
      "user_id":18,
      "created_at":"2018-10-16T18:56:23.454Z",
      "updated_at":"2019-01-08T18:57:01.764Z",
      "lat":33.9476529,
      "lon":-83.3980925,
      "wines":[
         "White \"Five Forks\"",
         "Red \"Novum\"",
         "Pétillant Naturel Rosé"
      ],
      "packaging_type":[
         "Restaurant"
      ],
      "date_of_entry":"2018-08-01T00:00:00.000Z"
   },
   {
      "id":17496,
      "name":"Heritage",
      "address":"1627 W. Main St. Richmond Va 23220",
      "user_id":18,
      "created_at":"2018-10-16T18:56:25.956Z",
      "updated_at":"2019-06-04T14:03:00.928Z",
      "lat":37.547646,
      "lon":-77.4621954,
      "wines":[
         "Rosé"
      ],
      "packaging_type":[
         "Restaurant"
      ],
      "date_of_entry":"2019-04-01T00:00:00.000Z"
   },
   {
      "id":17499,
      "name":"Ivy Inn",
      "address":"2244 Old Ivy Rd. Charlottesville Va 22903-4817",
      "user_id":18,
      "created_at":"2018-10-16T18:56:26.016Z",
      "updated_at":"2019-06-04T14:03:02.146Z",
      "lat":38.045948,
      "lon":-78.516234,
      "wines":[
         "Red \"Eluvium\""
      ],
      "packaging_type":[
         "Restaurant"
      ],
      "date_of_entry":"2019-03-01T00:00:00.000Z"
   },
   {
      "id":17500,
      "name":"Ivy Provisions",
      "address":"2206 Ivy Rd. Charlottesville Va 22903",
      "user_id":18,
      "created_at":"2018-10-16T18:56:26.038Z",
      "updated_at":"2018-12-18T01:25:30.256Z",
      "lat":38.0441983,
      "lon":-78.514757,
      "wines":[
         "Rosé"
      ],
      "packaging_type":[
         "Retail"
      ],
      "date_of_entry":"2018-11-01T00:00:00.000Z"
   },
   {
      "id":17501,
      "name":"J Emerson",
      "address":"5716 Grove Ave Richmond Va 23226",
      "user_id":18,
      "created_at":"2018-10-16T18:56:26.051Z",
      "updated_at":"2019-06-04T14:03:00.948Z",
      "lat":37.5733362,
      "lon":-77.5180274,
      "wines":[
         "Red \"Foothills\"",
         "Shenandoah Valley Cabernet Franc",
         "White \"Five Forks\""
      ],
      "packaging_type":[
         "Retail"
      ],
      "date_of_entry":"2019-04-01T00:00:00.000Z"
   },
   {
      "id":17503,
      "name":"Jefferson Hotel",
      "address":"101 W Franklin St Richmond Va 23220",
      "user_id":18,
      "created_at":"2018-10-16T18:56:26.090Z",
      "updated_at":"2019-06-04T14:03:00.979Z",
      "lat":37.5442364,
      "lon":-77.4454155,
      "wines":[
         "Red \"Foothills\"",
         "Malvasia Bianca Pétillant Naturel"
      ],
      "packaging_type":[
         "Restaurant"
      ],
      "date_of_entry":"2019-04-01T00:00:00.000Z"
   },
   {
      "id":17506,
      "name":"Kyirisan",
      "address":"1924 8th Street Nw Washington Dc 20001",
      "user_id":18,
      "created_at":"2018-10-16T18:56:26.176Z",
      "updated_at":"2019-06-04T14:03:02.201Z",
      "lat":38.9166911,
      "lon":-77.0236504,
      "wines":[
         "White \"Five Forks\""
      ],
      "packaging_type":[
         "Restaurant"
      ],
      "date_of_entry":"2019-03-01T00:00:00.000Z"
   },
   {
      "id":17507,
      "name":"La Fromagerie",
      "address":"1222 King St Alexandria Va 22314-2927",
      "user_id":18,
      "created_at":"2018-10-16T18:56:26.202Z",
      "updated_at":"2019-06-04T14:03:01.022Z",
      "lat":38.805648,
      "lon":-77.053429,
      "wines":[
         "Rosé",
         "Chardonnay Quaker Run"
      ],
      "packaging_type":[
         "Restaurant"
      ],
      "date_of_entry":"2019-04-01T00:00:00.000Z"
   },
   {
      "id":17510,
      "name":"Lokal",
      "address":"445 Prince George St. Williamsburg Va 23185-3619",
      "user_id":18,
      "created_at":"2018-10-16T18:56:26.280Z",
      "updated_at":"2019-03-12T14:48:47.804Z",
      "lat":37.2722979,
      "lon":-76.7073053,
      "wines":[
         "Chardonnay"
      ],
      "packaging_type":[
         "Restaurant"
      ],
      "date_of_entry":"2019-02-01T00:00:00.000Z"
   },
   {
      "id":17514,
      "name":"Market Street Wine Shop - Downtown",
      "address":"311 East Market St Charlottesville Va 22902",
      "user_id":18,
      "created_at":"2018-10-16T18:56:26.375Z",
      "updated_at":"2019-06-04T14:03:01.092Z",
      "lat":38.0310663,
      "lon":-78.4789692,
      "wines":[
         "White \"Five Forks\"",
         "Malvasia Bianca Pétillant Naturel",
         "Red \"Foothills\"",
         "Chardonnay",
         "Rosé",
         "Petit Manseng",
         "Red \"Eluvium\"",
         "Pétillant Naturel Red",
         "Pinot Gris",
         "Shenandoah Valley Cabernet Franc"
      ],
      "packaging_type":[
         "Retail"
      ],
      "date_of_entry":"2019-04-01T00:00:00.000Z"
   },
   {
      "id":17515,
      "name":"Maxwell Park Wine Bar",
      "address":"1336 9th St. Nw Washington Dc 20001",
      "user_id":18,
      "created_at":"2018-10-16T18:56:26.412Z",
      "updated_at":"2019-03-12T14:48:46.823Z",
      "lat":38.9084202,
      "lon":-77.0242187,
      "wines":[
         "Shenandoah Valley Cabernet Franc"
      ],
      "packaging_type":[
         "Restaurant"
      ],
      "date_of_entry":"2019-01-01T00:00:00.000Z"
   },
   {
      "id":17516,
      "name":"Mermaid Winery",
      "address":"330 W. 22nd St. Norfolk Va 23517",
      "user_id":18,
      "created_at":"2018-10-16T18:56:26.435Z",
      "updated_at":"2018-11-05T15:50:53.927Z",
      "lat":36.8696407,
      "lon":-76.2892339,
      "wines":[
         "Rosé"
      ],
      "packaging_type":[
         "Restaurant"
      ],
      "date_of_entry":"2018-10-01T00:00:00.000Z"
   },
   {
      "id":17519,
      "name":"Mona Lisa",
      "address":"921 Preston Ave Charlottesville Va 22903",
      "user_id":18,
      "created_at":"2018-10-16T18:56:26.510Z",
      "updated_at":"2019-06-04T14:03:01.111Z",
      "lat":38.038434,
      "lon":-78.489901,
      "wines":[
         "Rosé",
         "Red \"Foothills\"",
         "White \"Five Forks\""
      ],
      "packaging_type":[
         "Retail"
      ],
      "date_of_entry":"2019-04-01T00:00:00.000Z"
   },
   {
      "id":17522,
      "name":"Norm'S Beer \u0026 Wine",
      "address":"136 Branch Rd Se Vienna Va 22180",
      "user_id":18,
      "created_at":"2018-10-16T18:56:26.594Z",
      "updated_at":"2019-03-12T14:48:46.876Z",
      "lat":38.9062757,
      "lon":-77.2572354,
      "wines":[
         "Shenandoah Valley Cabernet Franc",
         "White \"Five Forks\"",
         "Red \"Foothills\""
      ],
      "packaging_type":[
         "Retail"
      ],
      "date_of_entry":"2019-02-01T00:00:00.000Z"
   },
   {
      "id":17524,
      "name":"Now \u0026 Zen",
      "address":"Pinnacle Planning Inc Charlottesville Va 22902",
      "user_id":18,
      "created_at":"2018-10-16T18:56:26.638Z",
      "updated_at":"2019-06-04T14:03:02.294Z",
      "lat":37.99295,
      "lon":-78.502142,
      "wines":[
         "Red \"Foothills\""
      ],
      "packaging_type":[
         "Restaurant"
      ],
      "date_of_entry":"2019-03-01T00:00:00.000Z"
   },
   {
      "id":17526,
      "name":"Odd Provisions",
      "address":"3301 11th Street Nw Washington Dc 20010",
      "user_id":18,
      "created_at":"2018-10-16T18:56:26.693Z",
      "updated_at":"2019-06-04T14:03:01.216Z",
      "lat":38.9309006,
      "lon":-77.0278015,
      "wines":[
         "Rosé"
      ],
      "packaging_type":[
         "Retail"
      ],
      "date_of_entry":"2019-04-01T00:00:00.000Z"
   },
   {
      "id":17539,
      "name":"Primrose",
      "address":"3000 12th St. Ne Washington Dc 20017",
      "user_id":18,
      "created_at":"2018-10-16T18:56:27.046Z",
      "updated_at":"2019-06-04T14:03:01.295Z",
      "lat":38.9277682,
      "lon":-76.9908798,
      "wines":[
         "Shenandoah Valley Cabernet Franc"
      ],
      "packaging_type":[
         "Restaurant"
      ],
      "date_of_entry":"2019-04-01T00:00:00.000Z"
   },
   {
      "id":17545,
      "name":"Red Fox Inn",
      "address":"2 E. Washington St. Middleburg Va 20117",
      "user_id":18,
      "created_at":"2018-10-16T18:56:27.230Z",
      "updated_at":"2019-03-12T14:48:46.977Z",
      "lat":38.9692453,
      "lon":-77.7354394,
      "wines":[
         "Red \"Rise\"",
         "Petit Manseng"
      ],
      "packaging_type":[
         "Restaurant"
      ],
      "date_of_entry":"2019-02-01T00:00:00.000Z"
   },
   {
      "id":17548,
      "name":"Rhett'S River Grill",
      "address":"2335 Seminole Lane Ste. 100 Charlottesville Va 22901-8303",
      "user_id":18,
      "created_at":"2018-10-16T18:56:27.327Z",
      "updated_at":"2019-03-12T14:48:46.994Z",
      "lat":38.1001972,
      "lon":-78.4608966,
      "wines":[
         "White \"Five Forks\"",
         "Red \"Foothills\""
      ],
      "packaging_type":[
         "Restaurant"
      ],
      "date_of_entry":"2019-02-01T00:00:00.000Z"
   },
   {
      "id":17550,
      "name":"Riggsby",
      "address":"1731 New Hampshire Ave. Nw Washington Dc 20009",
      "user_id":18,
      "created_at":"2018-10-16T18:56:27.400Z",
      "updated_at":"2019-03-12T14:48:47.011Z",
      "lat":38.9133687,
      "lon":-77.0395179,
      "wines":[
         "Rosé"
      ],
      "packaging_type":[
         "Restaurant"
      ],
      "date_of_entry":"2019-01-01T00:00:00.000Z"
   },
   {
      "id":17554,
      "name":"Roosevelt",
      "address":"623 N. 25th St. Richmond Va 23223",
      "user_id":18,
      "created_at":"2018-10-16T18:56:27.499Z",
      "updated_at":"2019-06-04T14:03:01.376Z",
      "lat":37.534897,
      "lon":-77.4154189,
      "wines":[
         "Red \"Foothills\"",
         "White \"Five Forks\"",
         "Shenandoah Valley Cabernet Franc",
         "Malvasia Bianca Pétillant Naturel"
      ],
      "packaging_type":[
         "Restaurant"
      ],
      "date_of_entry":"2019-04-01T00:00:00.000Z"
   },
   {
      "id":17556,
      "name":"Salisbury Country Club",
      "address":"13620 W. Salisbury Rd Midlothian Va 23113",
      "user_id":18,
      "created_at":"2018-10-16T18:56:27.541Z",
      "updated_at":"2019-06-04T14:03:01.417Z",
      "lat":37.5278854,
      "lon":-77.6533788,
      "wines":[
         "Red \"Foothills\""
      ],
      "packaging_type":[
         "Restaurant"
      ],
      "date_of_entry":"2019-04-01T00:00:00.000Z"
   },
   {
      "id":17560,
      "name":"Shagbark",
      "address":"4901 Libbie Mill E Blvd. Ste 175 Richmond Va 23230",
      "user_id":18,
      "created_at":"2018-10-16T18:56:27.636Z",
      "updated_at":"2019-06-04T14:03:01.454Z",
      "lat":37.5906296,
      "lon":-77.4937676,
      "wines":[
         "Rosé",
         "Red \"Eluvium\"",
         "White \"Five Forks\""
      ],
      "packaging_type":[
         "Restaurant"
      ],
      "date_of_entry":"2019-04-01T00:00:00.000Z"
   },
   {
      "id":17563,
      "name":"Soapstone Market",
      "address":"4465 Connecticut Ave. Nw Washington Dc 20008",
      "user_id":18,
      "created_at":"2018-10-16T18:56:27.703Z",
      "updated_at":"2019-01-08T18:57:04.857Z",
      "lat":38.9471157,
      "lon":-77.0649972,
      "wines":[
         "\"Young Wine\" Vidal Blanc",
         "White \"Five Forks\""
      ],
      "packaging_type":[
         "Retail"
      ],
      "date_of_entry":"2018-11-01T00:00:00.000Z"
   },
   {
      "id":17616,
      "name":"Husk Restaurant",
      "address":"12 W OGLETHORPE AVE Savannah Georgia 31401",
      "user_id":18,
      "created_at":"2018-10-16T19:50:01.325Z",
      "updated_at":"2018-10-16T19:50:04.876Z",
      "lat":32.0773268,
      "lon":-81.0931989,
      "wines":[
         "Rosé"
      ],
      "packaging_type":[
         "Restaurant"
      ],
      "date_of_entry":"2018-09-01T00:00:00.000Z"
   },
   {
      "id":17617,
      "name":"Barcelona Vinoteca",
      "address":"280 Elizabeth Street Atlanta Georgia 30307",
      "user_id":18,
      "created_at":"2018-10-16T19:52:07.396Z",
      "updated_at":"2018-10-16T19:54:27.512Z",
      "lat":33.7620933,
      "lon":-84.3583112,
      "wines":[
         "Red \"Novum\"",
         "Rosé"
      ],
      "packaging_type":[
         "Retail"
      ],
      "date_of_entry":"2018-09-01T00:00:00.000Z"
   },